timestamp,TimeUS,DesR,R,IR,IRErr,DesP,P,DesY,Y,ErrRP,ErrYaw
1526667079.15620685,32170460,0.0,1.19,0.0,15384.8583984,0.0,0.4,354.64,354.64,0.0,0.0
1526667079.25699997,32271253,0.0,1.18,0.0,15302.4423828,0.0,0.4,357.37,357.37,0.0,0.07
1526667079.35695982,32371213,0.0,1.17,0.0,15213.4091797,0.0,0.41,357.44,357.44,0.0,0.0
1526667079.45691991,32471173,0.0,1.15,0.0,15108.7167969,0.0,0.39,357.51,357.51,0.0,0.0
1526667079.55687976,32571133,0.0,1.15,0.0,15009.5732422,0.0,0.38,357.57,357.57,0.0,0.0
1526667079.65683985,32671093,0.0,1.15,0.0,14920.3447266,0.0,0.37,357.62,357.62,0.0,0.0
1526667079.75679994,32771053,0.0,1.16,0.0,14846.4892578,0.0,0.36,357.67,357.67,0.0,0.0
1526667079.85675979,32871013,0.0,1.19,0.0,14797.9091797,0.0,0.36,357.73,357.73,0.0,0.0
1526667079.95671988,32970973,0.0,1.23,0.0,14790.3710938,0.0,0.35,357.79,357.79,0.0,0.0
1526667080.05667996,33070933,0.0,1.25,0.0,14814.0205078,0.0,0.33,357.86,357.86,0.0,0.0
1526667080.15663981,33170893,0.0,1.26,0.0,14851.9824219,0.0,0.31,357.9,357.9,0.0,0.0
1526667080.25659990,33270853,0.0,1.26,0.0,14891.3671875,0.0,0.3,357.93,357.93,0.0,0.0
1526667080.35655975,33370813,0.0,1.26,0.0,16116.3496094,0.0,0.31,357.99,357.99,0.0,0.0
1526667080.45651984,33470773,0.0,1.26,0.0,15996.1748047,0.0,0.3,358.07,358.07,0.0,0.07
1526667080.55647993,33570733,0.0,1.24,0.0,15878.8916016,0.0,0.29,358.16,358.16,0.0,0.08
1526667080.65643978,33670693,0.0,1.21,0.0,15651.78125,0.0,0.26,358.26,358.26,0.0,0.08
1526667080.75639987,33770653,0.0,1.19,0.0,15383.5097656,0.0,0.24,358.37,358.37,0.0,0.08
1526667080.85635996,33870613,0.0,1.18,0.0,15148.1582031,0.0,0.22,358.47,358.47,0.0,0.07
1526667080.95631981,33970573,0.0,1.18,0.0,14973.2783203,0.0,0.18,358.58,358.58,0.0,0.07
1526667081.05627990,34070533,0.0,1.16,0.0,14805.5185547,0.0,0.13,358.68,358.68,0.0,0.07
1526667081.15623975,34170493,0.0,1.11,0.0,14593.3056641,0.0,0.07,358.77,358.77,0.0,0.07
1526667081.25703287,34271286,0.0,1.08,0.0,14332.5371094,0.0,0.03,358.87,358.87,0.0,0.07
1526667081.35699296,34371246,0.0,1.06,0.0,14068.0224609,0.0,0.0,358.98,358.98,0.0,0.01
1526667081.45695281,34471206,0.0,1.05,0.0,13829.8232422,0.0,-0.01,359.11,359.11,0.0,0.01
1526667081.55691290,34571166,0.0,1.05,0.0,13614.0673828,0.0,-0.02,359.24,359.24,0.0,0.0
1526667081.65687275,34671126,0.0,1.05,0.0,13429.1337891,0.0,-0.01,359.35,359.35,0.0,0.0
1526667081.75683284,34771086,0.0,1.04,0.0,13264.6787109,0.0,-0.01,359.45,359.45,0.0,0.0
1526667081.85679293,34871046,0.0,1.03,0.0,13100.9628906,0.0,0.0,359.51,359.51,0.0,0.0
1526667081.95675278,34971006,0.0,1.04,0.0,12956.203125,0.0,0.0,359.56,359.56,0.0,0.0
1526667082.05671287,35070966,0.0,1.04,0.0,12837.3027344,0.0,0.01,359.58,359.58,0.0,0.0
1526667082.15667295,35170926,0.0,1.03,0.0,12727.3779297,0.0,0.0,359.59,359.59,0.0,0.0
1526667082.25663280,35270886,0.0,1.04,0.0,12627.1513672,0.0,0.0,359.56,359.56,0.0,0.0
1526667082.35659289,35370846,0.0,1.04,0.0,12540.90625,0.0,0.02,359.53,359.53,0.0,0.0
1526667082.45655274,35470806,0.0,1.03,0.0,12458.7373047,0.0,0.04,359.52,359.52,0.0,0.0
1526667082.55651283,35570766,0.0,1.02,0.0,12370.7382812,0.0,0.05,359.52,359.52,0.0,0.07
1526667082.65647292,35670726,0.0,1.02,0.0,12288.7910156,0.0,0.08,359.55,359.55,0.0,0.07
1526667082.75643277,35770686,0.0,1.02,0.0,12210.3535156,0.0,0.12,359.58,359.58,0.0,0.07
1526667082.85639286,35870646,0.0,1.0,0.0,12133.2763672,0.0,0.16,359.62,359.62,0.0,0.07
1526667082.95635295,35970606,0.0,0.98,0.0,9786.67480469,0.0,0.2,359.65,359.65,0.0,0.07
1526667083.05631280,36070566,0.0,0.97,0.0,9602.71289062,0.0,0.22,359.69,359.69,0.0,0.07
1526667083.15627289,36170526,0.0,0.96,0.0,9499.54199219,0.0,0.24,359.73,359.73,0.0,0.07
1526667083.25623298,36270486,0.0,0.96,0.0,9428.65625,0.0,0.25,359.77,359.77,0.0,0.06
1526667083.35702586,36371279,0.0,0.98,0.0,9433.54980469,0.0,0.23,359.8,359.8,0.0,0.06
1526667083.45698595,36471239,0.0,0.98,0.0,9479.19628906,0.0,0.23,359.82,359.82,0.0,0.02
1526667083.55694580,36571199,0.0,0.97,0.0,9482.40039062,0.0,0.25,359.83,359.83,0.0,0.01
1526667083.65690589,36671159,0.0,0.97,0.0,9473.22460938,0.0,0.24,359.84,359.84,0.0,0.01
1526667083.75686598,36771119,0.0,0.96,0.0,9446.7890625,0.0,0.22,359.84,359.84,0.0,0.01
1526667083.85682583,36871079,0.0,0.94,0.0,9397.04980469,0.0,0.19,359.84,359.84,0.0,0.01
1526667083.95678592,36971039,0.0,0.93,0.0,9345.62011719,0.0,0.17,359.84,359.84,0.0,0.01
1526667084.05674577,37070999,0.0,0.92,0.0,9277.93359375,0.0,0.16,359.84,359.84,0.0,0.01
1526667084.15670586,37170959,0.08,0.85,0.01,9190.90332031,-0.31,0.06,359.83,359.81,0.0,0.01
1526667084.25666595,37270919,-0.06,0.65,0.01,8925.55566406,-0.28,-0.11,359.83,359.8,0.0,0.0
1526667084.35662580,37370879,-0.17,0.42,0.0,8516.31445312,-0.28,-0.26,359.83,359.79,0.0,0.0
1526667084.45658588,37470839,-0.25,0.23,-0.06,8062.26660156,-0.26,-0.32,359.83,359.76,0.0,0.0
1526667084.55654597,37570799,-0.34,0.05,-0.13,7619.80224609,-0.26,-0.37,359.83,359.74,0.0,0.0
1526667084.65650582,37670759,-0.4,-0.09,-0.21,7209.9453125,-0.23,-0.41,359.83,359.73,0.0,0.06
1526667084.75646591,37770719,-0.43,-0.22,-0.3,6835.94677734,-0.2,-0.42,359.83,359.73,0.0,0.07
1526667084.85642576,37870679,-0.41,-0.33,-0.37,6496.05419922,-0.14,-0.43,359.83,359.75,0.0,0.07
1526667084.95638585,37970639,-0.37,-0.42,-0.41,6186.94287109,-0.08,-0.42,359.83,359.73,0.0,0.07
1526667085.05634594,38070599,-0.28,-0.49,-0.42,5906.72900391,0.0,-0.34,359.83,359.69,0.0,0.06
1526667085.15630579,38170559,-0.21,-0.52,-0.39,5653.80175781,0.08,-0.24,359.83,359.63,0.0,0.06
1526667085.25626588,38270519,-0.07,-0.51,-0.33,5428.13818359,0.18,-0.14,359.83,359.69,0.0,0.06
1526667085.35622597,38370479,0.02,-0.45,-0.23,5225.88134766,0.23,-0.02,359.83,359.75,0.0,0.06
1526667085.45701885,38471272,0.11,-0.44,-0.12,5050.39746094,0.26,0.13,359.83,359.81,0.0,0.06
1526667085.55697894,38571232,0.15,-0.35,-0.01,1108.52172852,0.24,0.33,359.83,359.93,0.0,0.02
1526667085.65693879,38671192,0.19,-0.21,0.08,1025.21081543,0.18,0.41,359.83,0.04,0.0,0.02
1526667085.75689888,38771152,0.17,-0.08,0.15,922.300170898,0.07,0.41,359.83,0.2,0.0,0.02
1526667085.85685897,38871112,0.18,0.07,0.2,786.611694336,-0.01,0.34,359.83,0.28,0.0,0.02
1526667085.95681882,38971072,0.14,0.09,0.23,667.574462891,-0.1,0.2,359.83,0.36,0.0,0.02
1526667086.05677891,39071032,0.07,0.05,0.22,598.071044922,-0.15,0.06,359.83,0.4,0.0,0.01
1526667086.15673876,39170992,-0.01,-0.01,0.17,563.078674316,-0.2,-0.01,359.83,0.51,0.0,0.01
1526667086.25669885,39270952,-0.08,-0.04,0.11,529.56451416,-0.22,-0.08,359.83,0.54,0.0,0.01
1526667086.35665894,39370912,-0.15,-0.05,0.02,486.576293945,-0.21,-0.07,359.83,0.51,0.0,0.01
1526667086.45661879,39470872,-0.19,-0.01,-0.05,439.747161865,-0.18,-0.01,359.83,0.43,0.0,0.01
1526667086.55657887,39570832,-0.27,0.04,-0.14,412.467590332,-0.18,-0.02,359.83,0.32,0.0,0.01
1526667086.65653896,39670792,-0.36,0.07,-0.22,427.377441406,-0.19,-0.07,359.83,0.16,0.0,0.06
1526667086.75649881,39770752,-0.48,0.05,-0.31,484.325286865,-0.22,-0.16,359.83,0.05,0.0,0.06
1526667086.85645890,39870712,-0.5,-0.02,-0.39,550.639648438,-0.2,-0.2,359.83,359.93,0.0,0.06
1526667086.95641875,39970672,-0.51,-0.08,-0.46,615.035339355,-0.17,-0.25,1.42,1.43,0.0,0.06
1526667087.05637884,40070632,-0.49,-0.19,-0.51,660.014343262,-0.15,-0.36,1.42,1.28,0.0,0.06
1526667087.15633893,40170592,-0.45,-0.34,-0.53,658.326599121,-0.02,-0.38,1.42,1.2,0.0,0.06
1526667087.25629878,40270552,-0.35,-0.47,-0.51,630.197265625,0.09,-0.3,1.42,1.22,0.0,0.06
1526667087.35625887,40370512,-0.26,-0.54,-0.47,597.643371582,0.21,-0.19,1.42,1.26,0.0,0.05
1526667087.45621896,40470472,-0.13,-0.54,-0.39,574.85168457,0.29,-0.09,1.42,1.25,0.0,0.05
1526667087.55701184,40571265,-0.02,-0.47,-0.28,560.895568848,0.37,0.02,1.42,1.23,0.0,0.05
1526667087.65697193,40671225,0.1,-0.41,-0.16,556.259399414,0.44,0.16,1.42,1.21,0.0,0.02
1526667087.75693178,40771185,0.2,-0.3,-0.03,559.989074707,0.48,0.32,1.42,1.2,0.0,0.02
1526667087.85689187,40871145,0.33,-0.21,0.08,569.049133301,0.46,0.44,185.55,1.19,0.0,0.02
1526667087.95685196,40971105,0.43,-0.09,0.21,584.463806152,0.38,0.55,185.55,0.8,0.0,0.02
1526667088.05681181,41071065,0.35,0.06,0.33,595.103820801,1.49,0.65,185.55,359.54,0.0,0.01
1526667088.15677190,41171025,0.15,0.07,0.38,776.479736328,2.84,0.91,185.55,357.6,0.0,0.0
1526667088.25673175,41270985,-0.12,-0.11,0.33,1098.19018555,3.94,1.48,185.55,355.14,0.0,0.01
1526667088.35669184,41370945,-0.67,-0.43,0.17,1672.74804688,5.25,2.35,185.55,352.27,0.0,0.02
1526667088.45665193,41470905,-1.37,-0.88,-0.16,2372.52050781,6.52,3.36,185.55,349.05,0.0,0.02
1526667088.55661178,41570865,-2.2,-1.43,-0.67,2990.93823242,7.6,4.47,185.55,345.6,0.0,0.02
1526667088.65657187,41670825,-2.99,-2.11,-1.33,3489.57250977,8.06,5.58,185.55,341.98,0.0,0.03
1526667088.75653195,41770785,-3.76,-2.75,-2.1,3726.09472656,8.16,6.5,185.55,338.19,0.0,0.09
1526667088.85649180,41870745,-4.52,-3.32,-2.93,3608.27270508,8.04,7.14,185.55,334.29,0.0,0.09
1526667088.95645189,41970705,-5.31,-3.86,-3.79,3270.97851562,7.77,7.49,185.55,330.38,0.0,0.09
1526667089.05641174,42070665,-6.02,-4.42,-4.64,2957.98339844,7.3,7.62,185.55,326.46,0.0,0.08
1526667089.15637183,42170625,-6.5,-4.94,-5.43,2816.45849609,6.45,7.57,185.55,322.55,0.0,0.08
1526667089.25633192,42270585,-6.86,-5.35,-6.11,2924.32373047,5.52,7.32,185.55,318.62,0.0,0.07
1526667089.35629177,42370545,-7.17,-5.71,-6.66,3288.93676758,4.54,6.81,185.55,314.68,0.0,0.07
1526667089.45625186,42470505,-7.58,-5.99,-7.1,3832.46435547,3.66,6.11,185.55,310.74,0.0,0.07
1526667089.55621195,42570465,-8.14,-6.27,-7.48,4492.95605469,2.9,5.27,185.55,306.76,0.0,0.06
1526667089.65700483,42671258,-8.77,-6.66,-7.86,5124.90722656,2.23,4.31,185.55,302.77,0.0,0.06
1526667089.75696492,42771218,-9.38,-7.2,-8.28,5604.32421875,1.58,3.32,185.55,298.8,0.0,0.04
1526667089.85692477,42871178,-9.98,-7.78,-8.75,5882.96386719,0.12,2.28,185.55,290.11,0.0,0.04
1526667089.95688486,42971138,-10.45,-8.41,-9.25,6021.21142578,-0.55,1.18,185.55,286.26,0.0,0.04
1526667090.05684495,43071098,-10.86,-9.11,-9.75,5998.62988281,-1.17,0.2,185.55,282.4,0.0,0.04
1526667090.15680480,43171058,-11.2,-9.77,-10.23,5860.33447266,-1.81,-0.62,185.55,278.44,0.0,0.04
1526667090.25676489,43271018,-11.44,-10.39,-10.67,5658.33203125,-2.46,-1.37,185.55,274.4,0.0,0.04
1526667090.35672498,43370978,-11.6,-10.83,-11.04,5437.28857422,-3.16,-2.03,185.55,270.33,0.0,0.03
1526667090.45668483,43470938,-11.67,-11.16,-11.33,5226.86279297,-3.86,-2.7,185.55,266.3,0.0,0.03
1526667090.55664492,43570898,-11.65,-11.44,-11.51,5024.61669922,-4.63,-3.35,185.55,262.3,0.0,0.03
1526667090.65660477,43670858,-11.54,-11.63,-11.6,4831.83300781,-5.45,-4.01,185.55,258.36,0.0,0.03
1526667090.75656486,43770818,-11.34,-11.69,-11.58,51.2667350769,-6.28,-4.67,185.55,254.46,0.0,0.02
1526667090.85652494,43870778,-11.08,-11.67,-11.47,140.898284912,-7.14,-5.34,185.55,250.67,0.0,0.03
1526667090.95648479,43970738,-10.63,-11.59,-11.26,317.404968262,-7.97,-5.97,185.55,246.84,0.0,0.03
1526667091.05644488,44070698,-9.97,-11.3,-10.93,542.987060547,-8.73,-6.6,185.55,242.99,0.0,0.04
1526667091.15640497,44170658,-9.22,-10.88,-10.46,751.131469727,-9.43,-7.25,185.55,239.07,0.0,0.04
1526667091.25636482,44270618,-8.4,-10.27,-9.86,908.291442871,-10.11,-7.87,185.55,235.13,0.0,0.04
1526667091.35632491,44370578,-7.56,-9.55,-9.15,1009.80883789,-10.75,-8.48,185.55,231.23,0.0,0.04
1526667091.45628476,44470538,-6.69,-8.75,-8.36,1069.26538086,-11.38,-9.13,185.55,227.28,0.0,0.04
1526667091.55624485,44570498,-5.8,-7.9,-7.5,1117.15881348,-11.95,-9.74,185.55,223.3,0.0,0.04
1526667091.65703797,44671291,-4.83,-6.93,-6.61,1131.18603516,-12.48,-10.38,185.55,219.21,0.0,0.04
1526667091.75699782,44771251,-3.89,-5.95,-5.69,1100.64904785,-12.97,-11.02,185.55,215.08,0.0,0.04
1526667091.85695791,44871211,-2.95,-4.93,-4.76,1044.41296387,-13.4,-11.7,185.55,210.97,0.0,0.04
1526667091.95691776,44971171,-2.04,-3.95,-3.84,978.25189209,-13.73,-12.28,185.55,206.86,0.0,0.04
1526667092.05687785,45071131,-1.09,-2.95,-2.93,911.502319336,-14.0,-12.77,185.55,202.66,0.0,0.04
1526667092.15683794,45171091,-0.16,-1.97,-2.02,851.553771973,-14.18,-13.21,185.55,198.45,0.0,0.04
1526667092.25679779,45271051,0.73,-1.01,-1.14,803.117858887,-14.29,-13.65,185.55,194.24,0.0,0.04
1526667092.35675788,45371011,1.63,0.02,-0.26,782.483337402,-14.34,-13.91,185.55,190.06,0.0,0.04
1526667092.45671797,45470971,2.5,1.09,0.58,828.24420166,-14.3,-13.96,185.55,186.2,0.0,0.03
1526667092.55667782,45570931,3.18,2.14,1.41,982.106750488,-14.26,-13.79,185.55,183.1,0.0,0.02
1526667092.65663791,45670891,3.65,3.14,2.16,1301.20739746,-14.22,-13.58,185.55,180.8,0.0,0.01
1526667092.75659776,45770851,3.83,4.01,2.78,1820.38439941,-14.11,-13.4,185.55,179.35,0.0,0.01
1526667092.85655785,45870811,3.71,4.55,3.22,2496.96337891,-14.02,-13.39,185.55,178.84,0.0,0.02
1526667092.95651793,45970771,3.29,4.83,3.42,3204.07617188,-13.96,-13.44,185.55,179.12,0.0,0.11
1526667093.05647779,46070731,2.67,4.76,3.34,3900.51928711,-13.93,-13.62,185.55,180.07,0.0,0.13
1526667093.15643787,46170691,1.9,4.31,3.0,4496.04199219,-13.87,-13.9,185.55,181.4,0.0,0.14
1526667093.25639796,46270651,1.12,3.55,2.42,4897.02099609,-13.75,-14.1,185.55,182.83,0.0,0.15
1526667093.35635781,46370611,0.37,2.59,1.68,10161.2978516,-13.55,-14.21,185.55,184.3,0.0,0.15
1526667093.45631790,46470571,-0.28,1.57,0.85,8381.12402344,-13.32,-14.15,185.55,185.6,0.0,0.15
1526667093.55627775,46570531,-0.78,0.56,0.01,6893.51513672,-13.05,-14.02,185.55,186.65,0.0,0.14
1526667093.65623784,46670491,-1.1,-0.25,-0.73,5804.56347656,-12.72,-13.8,185.55,187.4,0.0,0.13
1526667093.75703096,46771284,-1.19,-0.86,-1.32,5107.83544922,-12.41,-13.54,185.55,187.74,0.0,0.12
1526667093.85699081,46871244,-1.11,-1.27,-1.72,4608.26318359,-12.1,-13.19,185.55,187.74,0.0,0.03
1526667093.95695090,46971204,-0.94,-1.49,-1.89,4219.60498047,-11.81,-12.82,185.55,187.51,0.0,0.02
1526667094.05691075,47071164,-0.7,-1.59,-1.85,3832.06787109,-11.53,-12.37,185.55,187.16,0.0,0.01
1526667094.15687084,47171124,-0.43,-1.5,-1.65,3455.25073242,-11.26,-11.89,185.55,186.71,0.0,0.01
1526667094.25683093,47271084,-0.15,-1.25,-1.32,3123.92163086,-10.99,-11.48,185.55,186.25,0.0,0.0
1526667094.35679078,47371044,0.08,-0.93,-0.92,2841.83837891,-10.7,-11.15,185.55,185.84,0.0,0.0
1526667094.45675087,47471004,0.29,-0.64,-0.51,2609.55126953,-10.39,-10.81,185.55,185.46,0.0,0.0
1526667094.55671096,47570964,0.45,-0.35,-0.13,2430.00610352,-10.09,-10.55,185.55,185.14,0.0,0.0
1526667094.65667081,47670924,0.59,-0.1,0.19,2304.55810547,-9.79,-10.3,185.55,184.95,0.0,0.0
1526667094.75663090,47770884,0.69,0.11,0.45,2219.89648438,-9.46,-10.03,185.55,184.82,0.0,0.0
1526667094.85659075,47870844,0.73,0.31,0.63,2154.20166016,-9.12,-9.76,185.55,184.74,0.0,0.0
1526667094.95655084,47970804,0.72,0.47,0.74,2083.52416992,-8.73,-9.44,185.55,184.72,0.0,0.0
1526667095.05651093,48070764,0.69,0.64,0.78,1992.86547852,-8.12,-9.14,185.55,184.74,0.0,0.08
1526667095.15647078,48170724,0.62,0.71,0.76,1892.66772461,-7.77,-8.86,185.55,184.82,0.0,0.09
1526667095.25643086,48270684,0.5,0.69,0.69,1798.59338379,-7.5,-8.57,185.55,184.95,0.0,0.09
1526667095.35639095,48370644,0.31,0.61,0.57,1713.2520752,-7.25,-8.3,185.55,185.09,0.0,0.09
1526667095.45635080,48470604,0.16,0.48,0.41,1636.11364746,-6.98,-7.98,185.55,185.22,0.0,0.09
1526667095.55631089,48570564,0.01,0.32,0.24,1567.30322266,-6.71,-7.63,185.55,185.31,0.0,0.09
1526667095.65627074,48670524,-0.12,0.11,0.06,1503.47912598,-6.44,-7.23,185.55,185.43,0.0,0.09
1526667095.75623083,48770484,-0.18,-0.05,-0.1,1443.96813965,-6.11,-6.86,185.55,185.55,0.0,0.08
1526667095.85702395,48871277,-0.25,-0.08,-0.23,1392.36120605,-5.82,-6.52,185.55,185.65,0.0,0.08
1526667095.95698380,48971237,-0.3,-0.08,-0.34,502.86114502,-5.51,-6.26,185.55,185.73,0.0,0.0
1526667096.05694389,49071197,-0.36,-0.11,-0.42,704.747924805,-5.16,-5.98,185.55,185.79,0.0,0.0
1526667096.15690374,49171157,-0.42,-0.21,-0.47,758.854248047,-4.81,-5.68,185.55,185.77,0.0,0.0
1526667096.25686383,49271117,-0.48,-0.34,-0.51,696.323303223,-4.42,-5.35,185.55,185.65,0.0,0.0
1526667096.35682392,49371077,-0.54,-0.46,-0.54,587.843994141,-4.0,-5.0,185.55,185.47,0.0,0.0
1526667096.45678377,49471037,-0.56,-0.52,-0.57,497.799865723,-3.53,-4.61,185.55,185.31,0.0,0.0
1526667096.55674386,49570997,-0.55,-0.58,-0.59,428.568786621,-3.12,-4.21,185.55,185.15,0.0,0.0
1526667096.65670395,49670957,-0.53,-0.67,-0.59,377.273895264,-2.54,-3.74,185.55,184.96,0.0,0.0
1526667096.75666380,49770917,-0.44,-0.69,-0.57,347.586761475,-1.96,-3.18,321.42,184.86,0.0,0.0
1526667096.85662389,49870877,-0.39,-0.57,-0.53,319.022705078,-1.31,-2.54,321.42,185.47,0.0,0.0
1526667096.95658398,49970837,-0.32,-0.42,-0.48,291.141326904,-0.58,-1.95,321.42,186.87,0.0,0.01
1526667097.05654383,50070797,-0.24,-0.34,-0.41,271.992004395,0.25,-1.33,321.42,188.95,0.0,0.02
1526667097.15650392,50170757,-0.09,-0.29,-0.33,254.457122803,1.23,-0.61,321.42,191.51,0.0,0.1
1526667097.25646377,50270717,0.21,-0.22,-0.2,236.565841675,2.28,0.21,321.42,194.43,0.0,0.11
1526667097.35642385,50370677,0.53,-0.03,-0.02,220.926116943,2.65,1.09,321.42,197.6,0.0,0.11
1526667097.45638394,50470637,0.96,0.26,0.22,207.326049805,2.72,1.8,321.42,200.93,0.0,0.11
1526667097.55634379,50570597,1.45,0.63,0.55,196.904388428,2.6,2.29,321.42,204.3,0.0,0.11
1526667097.65630388,50670557,1.95,1.05,0.96,189.764511108,2.34,2.58,321.42,207.81,0.0,0.1
1526667097.75626397,50770517,2.46,1.5,1.42,183.387969971,1.96,2.69,321.42,211.48,0.0,0.1
1526667097.85622382,50870477,2.95,1.97,1.92,175.702682495,1.53,2.61,321.42,215.26,0.0,0.1
1526667097.95701694,50971270,3.39,2.48,2.44,167.740509033,1.06,2.39,321.42,219.06,0.0,0.09
1526667098.05697680,51071230,3.79,2.97,2.94,160.948348999,0.55,2.03,321.42,222.82,0.0,0.02
1526667098.15693688,51171190,4.14,3.33,3.41,154.887786865,0.04,1.56,321.42,226.6,0.0,0.01
1526667098.25689697,51271150,4.44,3.7,3.83,154.173660278,-0.44,1.08,321.42,230.44,0.0,0.01
1526667098.35685682,51371110,4.71,3.99,4.2,160.604171753,-0.94,0.6,321.42,234.38,0.0,0.01
1526667098.45681691,51471070,4.94,4.33,4.51,171.18838501,-1.41,0.09,321.42,238.36,0.0,0.01
1526667098.55677676,51571030,5.19,4.64,4.77,245.546020508,-1.9,-0.47,321.42,242.36,0.0,0.01
1526667098.65673685,51670990,5.39,4.87,5.0,213.440887451,-2.35,-1.03,321.42,246.31,0.0,0.01
1526667098.75669694,51770950,5.53,5.05,5.18,209.821365356,-2.76,-1.54,321.42,250.25,0.0,0.01
1526667098.85665679,51870910,5.49,5.22,5.33,197.975311279,-3.18,-2.04,321.42,254.28,0.0,0.01
1526667098.95661688,51970870,5.17,5.31,5.37,176.078689575,-3.56,-2.53,321.42,258.33,0.0,0.01
1526667099.05657697,52070830,4.79,5.25,5.28,151.065185547,-3.89,-3.03,321.42,262.37,0.0,0.01
1526667099.15653682,52170790,4.41,5.12,5.08,130.400878906,-4.2,-3.52,321.42,266.41,0.0,0.04
1526667099.25649691,52270750,4.06,4.88,4.77,122.573753357,-4.45,-3.96,321.42,270.43,0.0,0.04
1526667099.35645676,52370710,3.75,4.54,4.41,123.667938232,-4.68,-4.3,321.42,274.41,0.0,0.03
1526667099.45641685,52470670,3.47,4.17,4.03,127.859031677,-4.91,-4.52,321.42,278.42,0.0,0.03
1526667099.55637693,52570630,3.22,3.85,3.66,137.643112183,-5.12,-4.65,321.42,282.34,0.0,0.02
1526667099.65633678,52670590,2.98,3.66,3.32,181.39894104,-5.35,-4.78,321.42,286.21,0.0,0.02
1526667099.75629687,52770550,2.73,3.51,3.02,297.643981934,-5.63,-4.96,321.42,290.06,0.0,0.01
1526667099.85625696,52870510,2.43,3.35,2.75,486.930297852,-5.92,-5.2,321.42,293.95,0.0,0.01
1526667099.95621681,52970470,2.1,3.13,2.5,705.34161377,-6.39,-5.44,321.42,297.77,0.0,0.01
1526667100.05700994,53071263,1.79,2.87,2.25,911.758605957,-7.08,-5.78,321.42,301.56,0.0,0.01
1526667100.15696979,53171223,1.37,2.56,1.99,1061.49194336,-7.86,-6.2,321.42,305.34,0.0,0.0
1526667100.25692987,53271183,0.86,2.26,1.68,1179.53820801,-8.64,-6.73,321.42,309.13,0.0,0.0
1526667100.35688996,53371143,0.24,1.87,1.31,1286.78881836,-9.37,-7.42,321.42,312.97,0.0,0.0
1526667100.45684981,53471103,-0.45,1.32,0.85,1356.73950195,-10.0,-8.22,321.42,316.72,0.0,0.01
1526667100.55680990,53571063,-1.12,0.57,0.31,1356.48986816,-10.51,-8.97,321.42,320.17,0.0,0.02
1526667100.65676975,53671023,-1.74,-0.29,-0.29,1305.62231445,-10.92,-9.69,321.42,323.06,0.0,0.03
1526667100.75672984,53770983,-2.18,-1.18,-0.92,1259.52331543,-11.22,-10.3,321.42,325.19,0.0,0.04
1526667100.85668993,53870943,-2.41,-1.96,-1.5,1262.19995117,-11.51,-10.71,321.42,326.54,0.0,0.04
1526667100.95664978,53970903,-2.36,-2.54,-1.96,1322.35095215,-11.78,-11.03,321.42,327.15,0.0,0.05
1526667101.05660987,54070863,-2.13,-2.91,-2.24,1423.74462891,-12.04,-11.27,321.42,327.18,0.0,0.05
1526667101.15656996,54170823,-1.74,-3.07,-2.3,5041.08691406,-12.33,-11.49,321.42,326.72,0.0,0.05
1526667101.25652981,54270783,-1.25,-3.0,-2.16,5779.20605469,-12.62,-11.69,321.42,325.95,0.0,0.08
1526667101.35648990,54370743,-0.69,-2.65,-1.81,6225.79345703,-12.89,-11.85,321.42,324.97,0.0,0.08
1526667101.45644975,54470703,-0.09,-2.01,-1.31,6130.11621094,-13.03,-12.02,321.42,323.88,0.0,0.07
1526667101.55640984,54570663,0.48,-1.3,-0.7,5728.67871094,-13.0,-12.22,321.42,322.8,0.0,0.07
1526667101.65636992,54670623,0.97,-0.61,-0.04,5329.87744141,-12.92,-12.36,321.42,321.86,0.0,0.06
1526667101.75632977,54770583,1.35,0.06,0.6,4996.3515625,-12.83,-12.46,321.42,321.1,0.0,0.06
1526667101.85628986,54870543,1.58,0.68,1.17,4714.04248047,-12.77,-12.51,321.42,320.55,0.0,0.06
1526667101.95624995,54970503,1.7,1.27,1.63,4403.00195312,-12.73,-12.55,321.42,320.12,0.0,0.06
1526667102.05620980,55070463,1.67,1.72,1.94,4047.27832031,-12.7,-12.64,321.42,319.91,0.0,0.06
1526667102.15700293,55171256,1.5,1.96,2.08,3706.15698242,-12.71,-12.84,321.42,319.86,0.0,0.06
1526667102.25696278,55271216,1.27,1.93,2.06,3408.97216797,-12.72,-13.01,321.42,319.93,0.0,0.03
1526667102.35692286,55371176,1.0,1.81,1.89,3159.18359375,-12.73,-13.07,321.42,320.18,0.0,0.02
1526667102.45688295,55471136,0.73,1.67,1.61,2934.56835938,-12.75,-13.25,321.42,320.45,0.0,0.02
1526667102.55684280,55571096,0.61,1.28,1.28,2740.49389648,-10.32,-13.24,321.42,320.72,0.0,0.03
1526667102.65680289,55671056,0.48,0.69,0.96,2586.69433594,-8.94,-12.55,321.42,321.01,0.0,0.02
1526667102.75676274,55771016,0.38,0.2,0.67,2526.0637207,-8.4,-11.43,321.42,321.32,0.0,0.01
1526667102.85672283,55870976,0.34,-0.06,0.43,2528.86254883,-8.22,-10.34,321.42,321.63,0.0,0.01
1526667102.95668292,55970936,0.4,-0.12,0.28,2502.53613281,-8.18,-9.47,321.42,321.71,0.0,0.01
1526667103.05664277,56070896,0.47,-0.01,0.21,2430.47460938,-8.38,-8.81,321.42,321.78,0.0,0.0
1526667103.15660286,56170856,0.5,0.21,0.22,2324.0793457,-8.67,-8.44,321.42,321.81,0.0,0.01
1526667103.25656295,56270816,0.52,0.45,0.28,2222.74804688,-9.02,-8.32,321.42,321.8,0.0,0.01
1526667103.35652280,56370776,0.5,0.64,0.36,2148.84301758,-9.44,-8.42,321.42,321.7,0.0,0.05
1526667103.45648289,56470736,0.48,0.77,0.43,2098.50463867,-9.84,-8.66,321.42,321.55,0.0,0.06
1526667103.55644298,56570696,0.4,0.87,0.49,2066.53320312,-10.39,-9.02,321.42,321.41,0.0,0.06
1526667103.65640283,56670656,0.31,0.91,0.51,2041.49353027,-10.81,-9.45,321.42,321.35,0.0,0.07
1526667103.75636292,56770616,0.21,0.91,0.49,1617.56616211,-11.21,-9.91,321.42,321.36,0.0,0.07
1526667103.85632277,56870576,0.09,0.85,0.43,1668.17407227,-11.65,-10.42,321.42,321.35,0.0,0.07
1526667103.95628285,56970536,0.01,0.76,0.34,1716.58410645,-12.0,-10.95,321.42,321.32,0.0,0.07
1526667104.05624294,57070496,-0.08,0.6,0.23,1672.81469727,-12.2,-11.39,321.42,321.31,0.0,0.07
1526667104.15703583,57171289,-0.16,0.41,0.11,1565.17687988,-12.47,-11.73,321.42,321.31,0.0,0.06
1526667104.25699592,57271249,-0.24,0.2,0.0,1407.75048828,-12.63,-12.03,321.42,321.42,0.0,0.02
1526667104.35695577,57371209,-0.3,0.0,-0.1,1239.95874023,-12.75,-12.26,321.42,321.54,0.0,0.02
1526667104.45691586,57471169,-0.36,-0.22,-0.2,1088.63317871,-12.86,-12.4,321.42,321.72,0.0,0.02
1526667104.55687594,57571129,-0.39,-0.43,-0.28,979.467163086,-13.03,-12.51,321.42,321.86,0.0,0.02
1526667104.65683579,57671089,-0.36,-0.5,-0.33,909.114990234,-13.07,-12.6,321.42,321.93,0.0,0.01
1526667104.75679588,57771049,-0.23,-0.34,-0.35,841.546325684,-12.0,-12.62,66.39,322.06,0.0,0.01
1526667104.85675597,57871009,0.26,-0.09,-0.28,790.234619141,-8.81,-12.17,66.39,322.9,0.0,0.01
1526667104.95671582,57970969,0.38,0.01,-0.11,752.561950684,-7.5,-11.11,66.39,324.5,0.0,0.02
1526667105.05667591,58070929,0.36,0.15,0.06,705.973632812,-6.57,-9.84,66.39,326.64,0.0,0.03
1526667105.15663576,58170889,0.28,0.33,0.22,664.996948242,-5.95,-8.68,66.39,329.31,0.0,0.04
1526667105.25659585,58270849,0.15,0.42,0.31,629.616943359,-5.51,-7.7,66.39,332.3,0.0,0.04
1526667105.35655594,58370809,0.01,0.43,0.33,597.361938477,-5.24,-6.9,66.39,335.53,0.0,0.03
1526667105.45651579,58470769,-0.12,0.38,0.28,569.280273438,-5.04,-6.24,66.39,338.91,0.0,0.03
1526667105.55647588,58570729,-0.25,0.29,0.17,544.456665039,-4.89,-5.7,66.39,342.45,0.0,0.03
1526667105.65643597,58670689,-0.38,0.18,0.03,524.889099121,-4.79,-5.32,66.39,346.12,0.0,0.03
1526667105.75639582,58770649,-0.45,0.07,-0.12,514.347961426,-4.72,-5.02,66.39,349.85,0.0,0.03
1526667105.85635591,58870609,-0.49,-0.02,-0.28,514.571350098,-4.69,-4.86,66.39,353.52,0.0,0.04
1526667105.95631576,58970569,-0.47,-0.14,-0.4,522.385009766,-4.69,-4.77,66.39,357.27,0.0,0.04
1526667106.05627584,59070529,-0.41,-0.22,-0.47,528.879455566,-4.7,-4.69,66.39,1.04,0.0,0.04
1526667106.15623593,59170489,-0.28,-0.32,-0.49,525.708679199,-4.67,-4.65,66.39,4.84,0.0,0.04
1526667106.25702882,59271282,-0.11,-0.29,-0.44,515.309448242,-4.69,-4.65,66.39,8.67,0.0,0.03
1526667106.35698891,59371242,0.17,-0.22,-0.31,153.112731934,-4.72,-4.61,66.39,12.55,0.0,0.04
1526667106.45694876,59471202,0.52,-0.02,-0.11,114.770301819,-4.79,-4.55,66.39,16.43,0.0,0.05
1526667106.55690885,59571162,0.94,0.29,0.16,114.485954285,-4.89,-4.55,66.39,20.35,0.0,0.05
1526667106.65686893,59671122,1.37,0.62,0.52,118.67527771,-5.04,-4.63,66.39,24.32,0.0,0.05
1526667106.75682878,59771082,1.78,0.97,0.93,104.50062561,-5.24,-4.72,66.39,28.32,0.0,0.06
1526667106.85678887,59871042,2.16,1.35,1.36,87.7255020142,-5.48,-4.89,66.39,32.27,0.0,0.06
1526667106.95674896,59971002,2.43,1.7,1.79,80.6571731567,-5.78,-5.09,66.39,36.2,0.0,0.06
1526667107.05670881,60070962,2.63,2.04,2.18,91.6034469604,-6.04,-5.37,66.39,40.09,0.0,0.06
1526667107.15666890,60170922,2.67,2.33,2.49,106.409484863,-6.31,-5.68,66.39,44.06,0.0,0.06
1526667107.25662875,60270882,2.49,2.52,2.68,123.296676636,-6.57,-6.03,66.39,48.11,0.0,0.06
1526667107.35658884,60370842,2.09,2.56,2.71,136.504623413,-6.8,-6.39,66.39,52.21,0.0,0.06
1526667107.45654893,60470802,1.51,2.45,2.54,138.772201538,-6.95,-6.71,66.39,56.26,0.0,0.06
1526667107.55650878,60570762,0.78,2.17,2.17,131.145904541,-7.02,-6.98,66.39,60.25,0.0,0.02
1526667107.65646887,60670722,0.0,1.61,1.62,121.810256958,-7.01,-7.23,66.39,63.98,0.0,0.01
1526667107.75642896,60770682,-0.73,0.83,0.91,115.541305542,-6.95,-7.39,66.39,67.15,0.0,0.01
1526667107.85638881,60870642,-1.37,0.0,0.13,117.301742554,-6.85,-7.44,66.39,69.6,0.0,0.02
1526667107.95634890,60970602,-1.81,-0.8,-0.65,122.858383179,-6.93,-7.44,66.39,71.19,0.0,0.03
1526667108.05630875,61070562,-2.09,-1.44,-1.35,125.179710388,-7.26,-7.38,66.39,71.93,0.0,0.04
1526667108.15626884,61170522,-2.21,-1.82,-1.91,120.10043335,-7.73,-7.33,66.39,71.92,0.0,0.04
1526667108.25622892,61270482,-2.17,-2.01,-2.29,135.108795166,-8.28,-7.42,66.39,71.34,0.0,0.05
1526667108.35702181,61371275,-2.01,-2.02,-2.47,196.922744751,-8.92,-7.65,66.39,70.35,0.0,0.05
1526667108.45698190,61471235,-1.75,-1.87,-2.46,315.197113037,-9.57,-8.02,66.39,69.09,0.0,0.01
1526667108.55694175,61571195,-1.43,-1.57,-2.29,493.879486084,-10.2,-8.51,66.39,67.77,0.0,0.01
1526667108.65690184,61671155,-1.1,-1.23,-1.98,703.591674805,-10.81,-9.09,66.39,66.57,0.0,0.01
1526667108.75686193,61771115,-0.78,-0.87,-1.58,891.846008301,-11.39,-9.69,66.39,65.57,0.0,0.01
1526667108.85682178,61871075,-0.56,-0.57,-1.16,1025.88439941,-11.93,-10.29,66.39,64.89,0.0,0.02
1526667108.95678186,61971035,-0.36,-0.28,-0.76,2906.38525391,-12.4,-10.88,66.39,64.47,0.0,0.02
1526667109.05674195,62070995,-0.26,-0.07,-0.41,2338.43115234,-12.85,-11.47,66.39,64.37,0.0,0.02
1526667109.15670180,62170955,-0.26,0.04,-0.16,1810.37609863,-13.27,-12.03,66.39,64.54,0.0,0.03
1526667109.25666189,62270915,-0.3,0.09,-0.01,1418.2980957,-13.66,-12.56,66.39,64.85,0.0,0.03
1526667109.35662174,62370875,-0.37,0.06,0.03,1145.34130859,-14.03,-13.03,66.39,65.29,0.0,0.03
1526667109.45658183,62470835,-0.48,-0.05,0.0,955.537902832,-14.27,-13.47,66.39,65.85,0.0,0.02
1526667109.55654192,62570795,-0.59,-0.24,-0.11,828.091491699,-14.34,-13.92,66.39,66.36,0.0,0.02
1526667109.65650177,62670755,-0.69,-0.44,-0.27,751.84564209,-14.36,-14.24,66.39,66.8,0.0,0.04
1526667109.75646186,62770715,-0.71,-0.62,-0.43,704.631286621,-14.31,-14.44,66.39,67.16,0.0,0.05
1526667109.85642195,62870675,-0.68,-0.77,-0.58,664.799560547,-14.28,-14.6,66.39,67.37,0.0,0.05
1526667109.95638180,62970635,-0.62,-0.92,-0.68,644.093261719,-14.25,-14.69,66.39,67.45,0.0,0.05
1526667110.05634189,63070595,-0.5,-1.09,-0.72,666.874389648,-14.23,-14.66,66.39,67.38,0.0,0.06
1526667110.15630198,63170555,-0.33,-1.11,-0.69,734.981811523,-14.21,-14.5,66.39,67.29,0.0,0.06
1526667110.25626183,63270515,-0.15,-1.0,-0.6,800.259155273,-14.25,-14.39,66.39,67.11,0.0,0.06
1526667110.35622191,63370475,0.05,-0.82,-0.45,848.643310547,-14.33,-14.34,66.39,66.92,0.0,0.05
1526667110.45701480,63471268,0.26,-0.61,-0.25,877.450805664,-14.44,-14.31,66.39,66.7,0.0,0.05
1526667110.55697489,63571228,0.48,-0.33,-0.03,890.512756348,-14.55,-14.28,66.39,66.5,0.0,0.02
1526667110.65693498,63671188,0.66,-0.02,0.2,879.214599609,-14.7,-14.3,66.39,66.27,0.0,0.01
1526667110.75689483,63771148,0.8,0.26,0.44,855.703552246,-14.85,-14.37,66.39,66.03,0.0,0.01
1526667110.85685492,63871108,0.89,0.52,0.64,824.944580078,-15.03,-14.5,66.39,65.86,0.0,0.02
1526667110.95681477,63971068,0.93,0.77,0.81,789.519042969,-15.21,-14.64,66.39,65.76,0.0,0.02
1526667111.05677485,64071028,0.93,0.97,0.93,753.98046875,-15.39,-14.79,66.39,65.76,0.0,0.02
1526667111.15673494,64170988,0.9,1.08,0.99,723.573791504,-15.56,-14.99,66.39,65.78,0.0,0.02
1526667111.25669479,64270948,0.82,1.14,0.99,698.942626953,-15.75,-15.24,66.39,65.87,0.0,0.02
1526667111.35665488,64370908,0.71,1.14,0.95,682.165405273,-15.92,-15.48,66.39,65.99,0.0,0.02
1526667111.45661497,64470868,0.7,1.11,0.86,674.749450684,-15.1,-15.75,66.39,66.07,0.0,0.02
1526667111.55657482,64570828,0.76,0.88,0.78,410.587005615,-13.49,-15.67,66.39,66.11,0.0,0.01
1526667111.65653491,64670788,0.72,0.58,0.72,234.629241943,-13.03,-15.16,66.39,66.19,0.0,0.06
1526667111.75649476,64770748,0.7,0.41,0.66,322.769134521,-12.76,-14.52,66.39,66.34,0.0,0.07
1526667111.85645485,64870708,0.66,0.34,0.62,436.729309082,-12.64,-13.95,66.39,66.5,0.0,0.07
1526667111.95641494,64970668,0.64,0.35,0.59,498.1796875,-12.69,-13.48,66.39,66.62,0.0,0.06
1526667112.05637479,65070628,0.61,0.37,0.57,500.712188721,-12.88,-13.17,66.39,66.75,0.0,0.06
1526667112.15633488,65170588,0.56,0.42,0.55,475.146942139,-13.22,-13.01,66.39,66.86,0.0,0.05
1526667112.25629497,65270548,0.51,0.51,0.53,425.307800293,-13.49,-13.01,66.39,66.99,0.0,0.05
1526667112.35625482,65370508,0.46,0.61,0.51,380.910705566,-13.66,-13.09,66.39,67.13,0.0,0.04
1526667112.45621490,65470468,0.38,0.65,0.47,362.448760986,-14.1,-13.26,66.39,67.19,0.0,0.04
1526667112.55700779,65571261,0.35,0.66,0.43,365.686645508,-14.38,-13.52,66.39,67.19,0.0,0.04
1526667112.65696788,65671221,0.36,0.59,0.39,373.077972412,-14.41,-13.81,66.39,67.13,0.0,0.02
1526667112.75692797,65771181,0.35,0.51,0.36,366.735168457,-14.5,-14.1,66.39,67.06,0.0,0.02
1526667112.85688782,65871141,0.35,0.47,0.34,352.768127441,-14.71,-14.26,66.39,66.91,0.0,0.02
1526667112.95684791,65971101,0.39,0.48,0.33,340.955505371,-14.97,-14.44,66.39,66.73,0.0,0.02
1526667113.05680776,66071061,0.42,0.52,0.34,338.02355957,-15.3,-14.65,66.39,66.56,0.0,0.02
1526667113.15676785,66171021,0.48,0.49,0.36,332.650482178,-15.13,-14.87,66.39,66.46,0.0,0.02
1526667113.25672793,66270981,0.49,0.47,0.4,318.754425049,-15.13,-15.01,66.39,66.37,0.0,0.02
1526667113.35668778,66370941,0.49,0.4,0.44,302.486022949,-15.44,-15.09,66.39,66.31,0.0,0.02
1526667113.45664787,66470901,0.53,0.42,0.48,289.394714355,-15.31,-15.13,66.39,66.28,0.0,0.02
1526667113.55660796,66570861,0.54,0.47,0.51,276.749511719,-15.42,-15.18,66.39,66.28,0.0,0.02
1526667113.65656781,66670821,0.53,0.49,0.54,265.314453125,-15.65,-15.27,66.39,66.34,0.0,0.02
1526667113.75652790,66770781,0.5,0.5,0.55,255.154388428,-15.82,-15.33,66.39,66.39,0.0,0.05
1526667113.85648775,66870741,0.48,0.5,0.54,246.054992676,-15.82,-15.43,66.39,66.44,0.0,0.05
1526667113.95644784,66970701,0.45,0.5,0.53,236.954345703,-15.86,-15.55,66.39,66.52,0.0,0.05
1526667114.05640793,67070661,0.41,0.49,0.5,228.122848511,-15.63,-15.68,66.39,66.61,0.0,0.05
1526667114.15636778,67170621,0.34,0.43,0.46,6.85302877426,-15.74,-15.82,66.39,66.67,0.0,0.05
1526667114.25632787,67270581,0.29,0.32,0.41,28.4191379547,-15.67,-15.89,66.39,66.76,0.0,0.05
1526667114.35628796,67370541,0.23,0.24,0.36,57.8627967834,-15.67,-15.94,66.39,66.9,0.0,0.05
1526667114.45624781,67470501,0.18,0.14,0.29,85.5043869019,-15.57,-15.98,66.39,66.99,0.0,0.05
1526667114.55620790,67570461,0.17,0.0,0.24,150.597564697,-15.6,-15.99,66.39,66.99,0.0,0.05
1526667114.65700078,67671254,0.17,-0.05,0.19,234.472091675,-15.72,-15.98,66.39,66.93,0.0,0.05
1526667114.75696087,67771214,0.23,-0.07,0.17,282.985198975,-15.52,-15.98,66.39,66.78,0.0,0.02
1526667114.85692096,67871174,0.26,-0.11,0.17,336.456604004,-15.54,-15.92,66.39,66.72,0.0,0.02
1526667114.95688081,67971134,0.36,-0.12,0.2,406.280303955,-15.51,-15.84,66.39,66.57,0.0,0.02
1526667115.05684090,68071094,0.44,-0.06,0.26,475.453674316,-15.53,-15.69,66.39,66.44,0.0,0.01
1526667115.15680075,68171054,0.52,0.02,0.34,526.463684082,-15.49,-15.53,66.39,66.32,0.0,0.01
1526667115.25676084,68271014,0.55,0.12,0.42,562.69354248,-15.51,-15.42,301.96,66.33,0.0,0.02
1526667115.35672092,68370974,0.88,-0.33,0.53,771.038879395,-12.06,-15.38,301.96,65.93,0.0,0.01
1526667115.45668077,68470934,1.27,-0.98,0.7,1926.43103027,-10.03,-14.54,301.96,64.75,0.0,0.02
1526667115.55664086,68570894,1.75,-1.32,0.96,4545.86328125,-8.86,-13.03,301.96,62.92,0.0,0.04
1526667115.65660095,68670854,2.35,-1.08,1.31,7793.06787109,-7.99,-11.36,301.96,60.51,0.0,0.05
1526667115.75656080,68770814,3.07,-0.46,1.78,10562.6533203,-7.26,-9.8,301.96,57.67,0.0,0.05
1526667115.85652089,68870774,3.78,0.46,2.36,12380.265625,-6.66,-8.4,301.96,54.57,0.0,0.11
1526667115.95648074,68970734,4.44,1.52,3.02,13260.5683594,-6.13,-7.31,301.96,51.29,0.0,0.11
1526667116.05644083,69070694,5.0,2.58,3.71,13459.8740234,-5.67,-6.46,301.96,47.86,0.0,0.11
1526667116.15640092,69170654,5.45,3.52,4.38,13292.8193359,-5.22,-5.8,301.96,44.35,0.0,0.1
1526667116.25636077,69270614,5.76,4.36,4.99,12945.4990234,-4.77,-5.32,301.96,40.82,0.0,0.1
1526667116.35632086,69370574,5.94,5.09,5.49,12504.6962891,-4.32,-4.97,301.96,37.26,0.0,0.1
1526667116.45628095,69470534,6.0,5.62,5.86,12025.2958984,-3.86,-4.66,301.96,33.58,0.0,0.11
1526667116.55624080,69570494,5.94,5.96,6.07,11558.2089844,-3.33,-4.39,301.96,29.85,0.0,0.11
1526667116.65703392,69671287,5.79,6.11,6.14,11116.0947266,-2.83,-4.15,301.96,26.02,0.0,0.12
1526667116.75699377,69771247,5.58,6.06,6.08,13.5487012863,-2.24,-3.86,301.96,22.18,0.0,0.04
1526667116.85695386,69871207,5.27,5.9,5.89,8.28828907013,-1.63,-3.43,301.96,18.26,0.0,0.03
1526667116.95691395,69971167,4.92,5.64,5.61,6.28704786301,-1.02,-2.94,301.96,14.34,0.0,0.04
1526667117.05687380,70071127,4.48,5.31,5.25,8.9121837616,-0.41,-2.38,301.96,10.4,0.0,0.04
1526667117.15683389,70171087,3.97,4.91,4.82,14.6176662445,0.16,-1.82,301.96,6.49,0.0,0.04
1526667117.25679398,70271047,3.39,4.42,4.34,22.300573349,0.7,-1.27,301.96,2.65,0.0,0.04
1526667117.35675383,70371007,2.73,3.91,3.79,30.5433216095,1.24,-0.69,301.96,358.83,0.0,0.04
1526667117.45671391,70470967,1.92,3.36,3.19,52.7936096191,1.71,-0.11,301.96,354.92,0.0,0.04
1526667117.55667377,70570927,1.08,2.75,2.52,87.6300354004,2.02,0.37,301.96,350.98,0.0,0.04
1526667117.65663385,70670887,0.09,2.08,1.77,151.110229492,2.17,0.77,301.96,347.07,0.0,0.05
1526667117.75659394,70770847,-1.03,1.34,0.92,258.310272217,2.18,1.03,301.96,343.24,0.0,0.05
1526667117.85655379,70870807,-2.28,0.44,-0.02,394.528015137,1.9,1.16,301.96,339.4,0.0,0.05
1526667117.95651388,70970767,-3.61,-0.56,-1.1,559.700927734,1.22,1.11,301.96,335.53,0.0,0.12
1526667118.05647397,71070727,-4.09,-1.55,-2.21,789.121398926,0.62,0.93,301.96,331.54,0.0,0.12
1526667118.15643382,71170687,-4.06,-2.44,-3.14,1068.28674316,0.17,0.68,301.96,327.56,0.0,0.12
1526667118.25639391,71270647,-3.74,-3.15,-3.78,1282.21594238,-0.2,0.47,301.96,323.42,0.0,0.11
1526667118.35635376,71370607,-3.23,-3.54,-4.04,1403.86755371,-0.51,0.28,301.96,319.21,0.0,0.09
1526667118.45631385,71470567,-2.71,-3.65,-3.96,1421.26855469,-0.95,0.2,301.96,315.11,0.0,0.08
1526667118.55627394,71570527,-2.17,-3.42,-3.6,1379.2409668,-1.43,0.07,301.96,311.01,0.0,0.06
1526667118.65623379,71670487,-1.59,-2.97,-3.02,1317.17687988,-1.95,-0.16,301.96,306.9,0.0,0.05
1526667118.75702691,71771280,-1.0,-2.35,-2.31,1254.90991211,-2.4,-0.54,301.96,303.16,0.0,0.04
1526667118.85698676,71871240,-0.53,-1.7,-1.56,1202.01306152,-2.83,-0.97,301.96,300.08,0.0,0.01
1526667118.95694685,71971200,-0.16,-1.01,-0.83,1160.99304199,-3.25,-1.43,301.96,297.94,0.0,0.0
1526667119.05690694,72071160,0.03,-0.41,-0.21,1126.05847168,-3.65,-1.96,301.96,296.73,0.0,0.01
1526667119.15686679,72171120,0.06,-0.04,0.25,1105.19128418,-4.0,-2.51,301.96,296.42,0.0,0.01
1526667119.25682688,72271080,-0.02,0.17,0.53,1107.46166992,-4.34,-3.03,301.96,296.8,0.0,0.02
1526667119.35678697,72371040,-0.24,0.29,0.62,1218.35083008,-4.67,-3.51,301.96,297.59,0.0,0.02
1526667119.45674682,72471000,-0.55,0.24,0.52,1083.21166992,-4.99,-4.03,301.96,298.66,0.0,0.02
1526667119.55670691,72570960,-0.85,0.03,0.27,947.600158691,-5.29,-4.48,301.96,299.76,0.0,0.02
1526667119.65666676,72670920,-1.17,-0.26,-0.08,817.265441895,-5.55,-4.86,301.96,300.82,0.0,0.02
1526667119.75662684,72770880,-1.35,-0.58,-0.49,689.864929199,-5.58,-5.1,301.96,301.79,0.0,0.02
1526667119.85658693,72870840,-1.42,-0.89,-0.89,578.491943359,-5.56,-5.31,301.96,302.56,0.0,0.02
1526667119.95654678,72970800,-1.46,-1.16,-1.21,496.939605713,-5.52,-5.47,301.96,303.16,0.0,0.02
1526667120.05650687,73070760,-1.49,-1.36,-1.45,441.95401001,-5.49,-5.6,301.96,303.56,0.0,0.0
1526667120.15646696,73170720,-1.42,-1.46,-1.59,408.761444092,-5.55,-5.7,301.96,303.73,0.0,0.0
1526667120.25642681,73270680,-1.35,-1.51,-1.63,387.512115479,-5.59,-5.76,301.96,303.69,0.0,0.0
1526667120.35638690,73370640,-1.23,-1.51,-1.6,363.188537598,-5.64,-5.79,301.96,303.4,0.0,0.0
1526667120.45634675,73470600,-1.12,-1.48,-1.49,335.482757568,-5.72,-5.81,301.96,302.88,0.0,0.0
1526667120.55630684,73570560,-0.98,-1.4,-1.34,310.473022461,-5.83,-5.86,301.96,302.33,0.0,0.0
1526667120.65626693,73670520,-0.85,-1.35,-1.16,300.137542725,-5.96,-5.88,301.96,301.78,0.0,0.0
1526667120.75622678,73770480,-0.72,-1.25,-0.98,314.414520264,-6.11,-5.84,301.96,301.36,0.0,0.0
1526667120.85701990,73871273,-0.64,-1.12,-0.81,348.06463623,-6.27,-5.79,301.96,301.09,0.0,0.01
1526667120.95697975,73971233,-0.58,-0.96,-0.66,383.935516357,-6.44,-5.83,301.96,300.94,0.0,0.02
1526667121.05693984,74071193,-0.56,-0.8,-0.54,403.030303955,-6.61,-5.93,301.96,300.91,0.0,0.02
1526667121.15689993,74171153,-0.58,-0.67,-0.47,406.782745361,-6.82,-6.05,301.96,300.98,0.0,0.02
1526667121.25685978,74271113,-0.66,-0.56,-0.45,396.613464355,-7.02,-6.22,301.96,301.12,0.0,0.02
1526667121.35681987,74371073,-0.73,-0.51,-0.48,379.781433105,-7.27,-6.43,301.96,301.33,0.0,0.02
1526667121.45677996,74471033,-0.78,-0.44,-0.54,363.990844727,-7.77,-6.72,301.96,301.6,0.0,0.02
1526667121.55673981,74570993,-0.79,-0.42,-0.62,359.615905762,-8.26,-7.14,301.96,301.84,0.0,0.01
1526667121.65669990,74670953,-0.85,-0.5,-0.7,361.101501465,-8.87,-7.55,301.96,302.1,0.0,0.01
1526667121.75665975,74770913,-0.93,-0.56,-0.79,364.553527832,-9.47,-8.03,301.96,302.3,0.0,0.01
1526667121.85661983,74870873,-1.0,-0.57,-0.88,379.617645264,-10.04,-8.57,301.96,302.44,0.0,0.01
1526667121.95657992,74970833,-1.01,-0.62,-0.95,1069.5378418,-10.57,-9.2,301.96,302.54,0.0,0.0
1526667122.05653977,75070793,-1.0,-0.69,-1.01,1094.77929688,-11.07,-9.75,301.96,302.51,0.0,0.0
1526667122.15649986,75170753,-0.99,-0.74,-1.04,1069.6171875,-11.51,-10.34,301.96,302.44,0.0,0.0
1526667122.25645995,75270713,-1.01,-0.75,-1.06,1040.84643555,-11.89,-10.9,301.96,302.28,0.0,0.0
1526667122.35641980,75370673,-1.02,-0.78,-1.06,1013.75146484,-12.23,-11.4,301.96,302.18,0.0,0.0
1526667122.45637989,75470633,-1.04,-0.82,-1.06,962.765319824,-12.53,-11.83,301.96,302.14,0.0,0.0
1526667122.55633998,75570593,-1.03,-0.83,-1.06,903.742370605,-12.82,-12.16,301.96,302.11,0.0,0.0
1526667122.65629983,75670553,-1.02,-0.84,-1.05,849.525024414,-13.1,-12.46,301.96,302.03,0.0,0.0
1526667122.75625992,75770513,-0.98,-0.85,-1.03,797.736816406,-13.37,-12.76,301.96,301.94,0.0,0.0
1526667122.85621977,75870473,-0.95,-0.81,-1.01,754.305603027,-13.61,-13.12,301.96,301.81,0.0,0.0
1526667122.95701289,75971266,-0.91,-0.76,-0.98,727.006469727,-13.64,-13.47,301.96,301.66,0.0,0.0
1526667123.05697274,76071226,-0.9,-0.79,-0.95,697.58392334,-13.54,-13.72,301.96,301.51,0.0,0.01
1526667123.15693283,76171186,-0.89,-0.86,-0.92,654.992370605,-13.43,-13.84,301.96,301.5,0.0,0.01
1526667123.25689292,76271146,-0.91,-0.99,-0.91,609.615234375,-13.32,-13.85,301.96,301.61,0.0,0.01
1526667123.35685277,76371106,-0.91,-1.15,-0.9,586.496765137,-13.21,-13.76,301.96,301.76,0.0,0.01
1526667123.45681286,76471066,-0.93,-1.33,-0.9,626.965942383,-13.13,-13.59,301.96,301.94,0.0,0.02
1526667123.55677295,76571026,-0.92,-1.43,-0.91,724.068115234,-13.11,-13.45,301.96,302.11,0.0,0.02
1526667123.65673280,76670986,-0.89,-1.42,-0.91,832.299743652,-13.11,-13.25,301.96,302.24,0.0,0.02
1526667123.75669289,76770946,-0.84,-1.35,-0.91,907.161193848,-13.17,-13.09,301.96,302.33,0.0,0.02
1526667123.85665298,76870906,-0.77,-1.21,-0.89,935.114685059,-13.27,-13.01,301.96,302.29,0.0,0.02
1526667123.95661283,76970866,-0.67,-1.01,-0.85,917.092773438,-13.41,-12.99,301.96,302.15,0.0,0.02
1526667124.05657291,77070826,-0.6,-0.84,-0.79,880.351135254,-13.58,-13.06,301.96,302.02,0.0,0.01
1526667124.15653276,77170786,-0.52,-0.67,-0.72,842.443908691,-13.76,-13.18,301.96,301.81,0.0,0.01
1526667124.25649285,77270746,-0.46,-0.48,-0.64,813.497680664,-13.94,-13.34,301.96,301.66,0.0,0.01
1526667124.35645294,77370706,-0.42,-0.31,-0.56,801.206665039,-14.12,-13.58,301.96,301.58,0.0,0.01
1526667124.45641279,77470666,-0.45,-0.22,-0.5,799.675964355,-14.29,-13.79,301.96,301.61,0.0,0.01
1526667124.55637288,77570626,-0.5,-0.23,-0.46,701.863037109,-14.47,-13.98,301.96,301.72,0.0,0.01
1526667124.65633297,77670586,-0.61,-0.31,-0.47,551.978942871,-14.62,-14.19,301.96,301.89,0.0,0.01
1526667124.75629282,77770546,-0.7,-0.45,-0.51,414.511688232,-14.74,-14.38,301.96,302.08,0.0,0.0
1526667124.85625291,77870506,-0.77,-0.57,-0.58,313.834197998,-14.87,-14.5,301.96,302.17,0.0,0.01
1526667124.95621276,77970466,-0.8,-0.62,-0.66,252.67640686,-14.98,-14.65,301.96,302.15,0.0,0.01
1526667125.05700588,78071259,-0.82,-0.69,-0.74,215.032516479,-15.1,-14.77,301.96,302.13,0.0,0.01
1526667125.15696597,78171219,-0.8,-0.72,-0.81,193.807937622,-15.2,-14.91,301.96,302.16,0.0,0.01
1526667125.25692582,78271179,-0.78,-0.76,-0.85,181.593093872,-15.3,-15.05,301.96,302.16,0.0,0.01
1526667125.35688591,78371139,-0.73,-0.78,-0.86,172.595291138,-15.38,-15.2,301.96,302.15,0.0,0.01
1526667125.45684576,78471099,-0.7,-0.81,-0.85,160.048034668,-15.44,-15.25,301.96,302.15,0.0,0.01
1526667125.55680585,78571059,-0.67,-0.87,-0.82,146.037399292,-15.53,-15.28,301.96,302.1,0.0,0.01
1526667125.65676594,78671019,-0.6,-0.88,-0.78,139.221755981,-15.62,-15.33,301.96,302.0,0.0,0.01
1526667125.75672579,78770979,-0.5,-0.81,-0.71,136.26411438,-15.69,-15.4,301.96,301.81,0.0,0.01
1526667125.85668588,78870939,-0.42,-0.71,-0.63,130.640548706,-15.66,-15.49,301.96,301.63,0.0,0.01
1526667125.95664597,78970899,-0.38,-0.7,-0.55,129.641799927,-14.38,-15.51,301.96,301.5,0.0,0.01
1526667126.05660582,79070859,-0.32,-0.71,-0.47,143.96661377,-13.85,-15.27,301.96,301.42,0.0,0.01
1526667126.15656590,79170819,-0.26,-0.72,-0.39,184.278381348,-13.82,-14.89,301.96,301.42,0.0,0.02
1526667126.25652575,79270779,-0.2,-0.65,-0.32,234.018035889,-13.79,-14.57,301.96,301.44,0.0,0.02
1526667126.35648584,79370739,-0.1,-0.54,-0.26,268.540130615,-13.93,-14.34,301.96,301.44,0.0,0.02
1526667126.45644593,79470699,-0.05,-0.44,-0.19,289.207855225,-14.01,-14.26,301.96,301.49,0.0,0.02
1526667126.55640578,79570659,-0.04,-0.41,-0.13,308.501678467,-14.11,-14.21,301.96,301.6,0.0,0.01
1526667126.65636587,79670619,-0.03,-0.36,-0.09,329.541107178,-14.31,-14.21,301.96,301.65,0.0,0.01
1526667126.75632596,79770579,0.0,-0.29,-0.05,343.317962646,-14.51,-14.17,301.96,301.71,0.0,0.01
1526667126.85628581,79870539,0.0,-0.24,-0.03,342.049438477,-14.25,-14.25,167.55,301.83,0.0,0.01
1526667126.95624590,79970499,0.1,-0.77,-0.02,417.249206543,-11.26,-14.29,167.55,301.36,0.0,0.0
1526667127.05703878,80071292,0.42,-1.41,0.03,890.769897461,-9.82,-13.64,167.55,299.95,0.0,0.0
1526667127.15699887,80171252,0.93,-1.7,0.17,28755.0195312,-9.01,-12.47,167.55,297.96,0.0,0.01
1526667127.25695896,80271212,1.59,-1.47,0.44,32770.3554688,-8.45,-11.15,167.55,295.51,0.0,0.02
1526667127.35691881,80371172,2.34,-0.87,0.86,33100.1992188,-7.98,-9.91,167.55,292.74,0.0,0.02
1526667127.45687890,80471132,3.12,-0.03,1.43,31206.6035156,-7.6,-8.89,167.55,289.67,0.0,0.01
1526667127.55683875,80571092,3.91,0.94,2.12,28525.8203125,-7.27,-8.11,167.55,286.42,0.0,0.01
1526667127.65679884,80671052,4.63,1.97,2.9,25585.7832031,-6.94,-7.55,167.55,283.02,0.0,0.0
1526667127.75675893,80771012,5.24,2.88,3.7,23017.6855469,-6.61,-7.13,167.55,279.54,0.0,0.0
1526667127.85671878,80870972,5.79,3.75,4.47,20885.8535156,-6.2,-6.73,167.55,275.93,0.0,0.0
1526667127.95667887,80970932,6.27,4.51,5.19,19133.4902344,-5.77,-6.38,167.55,272.26,0.0,0.01
1526667128.05663896,81070892,6.64,5.21,5.81,17627.0195312,-5.28,-6.0,167.55,268.54,0.0,0.01
1526667128.15659881,81170852,6.89,5.79,6.32,16327.0371094,-4.78,-5.57,167.55,264.78,0.0,0.01
1526667128.25655890,81270812,7.03,6.24,6.71,15177.0263672,-4.25,-5.15,167.55,260.95,0.0,0.01
1526667128.35651875,81370772,7.09,6.61,6.96,14147.8125,-3.67,-4.72,167.55,257.1,0.0,0.04
1526667128.45647883,81470732,7.05,6.94,7.1,13189.3525391,-3.05,-4.26,167.55,253.17,0.0,0.04
1526667128.55643892,81570692,6.94,7.17,7.12,12314.9746094,-2.38,-3.82,167.55,249.17,0.0,0.05
1526667128.65639877,81670652,6.71,7.24,7.04,11556.9082031,-1.73,-3.35,167.55,245.13,0.0,0.05
1526667128.75635886,81770612,6.39,7.16,6.86,10912.5507812,-1.08,-2.89,167.55,241.16,0.0,0.06
1526667128.85631895,81870572,5.98,6.94,6.6,10360.4462891,-0.45,-2.43,167.55,237.18,0.0,0.06
1526667128.95627880,81970532,5.49,6.62,6.25,9878.31835938,0.18,-1.94,167.55,233.25,0.0,0.07
1526667129.05623889,82070492,4.85,6.17,5.82,9448.35644531,0.8,-1.42,167.55,229.36,0.0,0.08
1526667129.15703177,82171285,4.19,5.56,5.31,9040.13964844,1.35,-0.85,167.55,225.44,0.0,0.08
1526667129.25699186,82271245,3.44,4.91,4.72,8648.45605469,1.86,-0.24,167.55,221.46,0.0,0.01
1526667129.35695195,82371205,2.64,4.22,4.06,8284.72363281,2.3,0.32,167.55,217.46,0.0,0.0
1526667129.45691180,82471165,1.78,3.5,3.34,7948.43212891,2.61,0.84,167.55,213.35,0.0,0.0
1526667129.55687189,82571125,0.91,2.78,2.55,7644.51464844,2.76,1.3,167.55,209.23,0.0,0.0
1526667129.65683174,82671085,-0.02,2.07,1.73,7380.57470703,2.72,1.66,167.55,205.11,0.0,0.0
1526667129.75679183,82771045,-1.01,1.32,0.85,1653.14880371,2.46,1.9,167.55,201.07,0.0,0.0
1526667129.85675192,82871005,-2.05,0.57,-0.05,2321.7421875,1.94,1.96,167.55,197.06,0.0,0.0
1526667129.95671177,82970965,-2.94,-0.2,-1.01,3314.15234375,1.27,1.76,167.55,193.12,0.0,0.0
1526667130.05667186,83070925,-3.74,-1.0,-1.99,4554.72460938,0.29,1.33,167.55,189.16,0.0,0.0
1526667130.15663195,83170885,-3.89,-1.76,-2.84,5883.69140625,-0.34,0.72,167.55,185.25,0.0,0.0
1526667130.25659180,83270845,-3.7,-2.43,-3.46,6815.92773438,-0.76,0.16,167.55,181.33,0.0,0.01
1526667130.35655189,83370805,-3.32,-2.94,-3.76,7111.09423828,-1.0,-0.29,167.55,177.42,0.0,0.01
1526667130.45651197,83470765,-2.82,-3.26,-3.75,6763.99511719,-1.11,-0.53,167.55,173.52,0.0,0.06
1526667130.55647182,83570725,-2.24,-3.23,-3.45,6163.54980469,-1.17,-0.69,167.55,169.83,0.0,0.05
1526667130.65643191,83670685,-1.7,-2.95,-2.94,5563.62011719,-1.39,-0.74,167.55,166.66,0.0,0.05
1526667130.75639176,83770645,-1.16,-2.46,-2.3,5066.97705078,-1.67,-0.81,167.55,164.24,0.0,0.05
1526667130.85635185,83870605,-0.7,-1.89,-1.6,4688.25048828,-1.98,-0.97,167.55,162.66,0.0,0.06
1526667130.95631194,83970565,-0.32,-1.37,-0.92,4433.08007812,-2.29,-1.18,167.55,161.95,0.0,0.06
1526667131.05627179,84070525,-0.07,-0.87,-0.32,4300.9609375,-2.63,-1.48,167.55,161.97,0.0,0.07
1526667131.15623188,84170485,0.05,-0.42,0.15,4229.88232422,-2.99,-1.88,167.55,162.65,0.0,0.08
1526667131.25702477,84271278,0.05,-0.08,0.46,4164.5703125,-3.35,-2.37,167.55,163.73,0.0,0.09
1526667131.35698485,84371238,-0.06,0.07,0.6,4093.81030273,-3.73,-2.82,167.55,165.0,0.0,0.04
1526667131.45694494,84471198,-0.25,0.1,0.59,4013.09155273,-4.07,-3.24,167.55,166.21,0.0,0.03
1526667131.55690479,84571158,-0.47,0.03,0.43,3907.17895508,-4.43,-3.67,167.55,167.2,0.0,0.03
1526667131.65686488,84671118,-0.69,-0.14,0.18,3777.39526367,-4.74,-4.09,167.55,167.98,0.0,0.03
1526667131.75682497,84771078,-0.9,-0.36,-0.13,3633.74511719,-5.01,-4.39,167.55,168.51,0.0,0.03
1526667131.85678482,84871038,-1.09,-0.62,-0.46,3485.90869141,-5.27,-4.63,167.55,168.83,0.0,0.03
1526667131.95674491,84970998,-1.12,-0.84,-0.77,3339.90234375,-5.4,-4.83,167.55,168.9,0.0,0.02
1526667132.05670476,85070958,-1.07,-0.95,-1.0,3201.22607422,-5.44,-5.02,167.55,168.84,0.0,0.02
1526667132.15666485,85170918,-0.98,-0.99,-1.13,3077.38549805,-5.5,-5.18,167.55,168.69,0.0,0.01
1526667132.25662494,85270878,-0.86,-1.0,-1.17,2969.62231445,-5.56,-5.32,167.55,168.43,0.0,0.01
1526667132.35658479,85370838,-0.74,-1.03,-1.12,218.517654419,-5.67,-5.46,167.55,168.12,0.0,0.01
1526667132.45654488,85470798,-0.64,-1.09,-1.0,122.476791382,-5.76,-5.53,167.55,167.87,0.0,0.01
1526667132.55650496,85570758,-0.52,-1.06,-0.85,162.599807739,-5.83,-5.58,167.55,167.59,0.0,0.07
1526667132.65646482,85670718,-0.42,-0.93,-0.68,258.538696289,-5.95,-5.65,167.55,167.29,0.0,0.07
1526667132.75642490,85770678,-0.37,-0.76,-0.52,326.050811768,-6.11,-5.7,167.55,167.03,0.0,0.07
1526667132.85638475,85870638,-0.36,-0.56,-0.38,345.266235352,-6.25,-5.79,167.55,166.87,0.0,0.06
1526667132.95634484,85970598,-0.38,-0.44,-0.29,331.003570557,-6.4,-5.9,167.55,166.77,0.0,0.07
1526667133.05630493,86070558,-0.42,-0.34,-0.24,308.378601074,-6.57,-6.06,167.55,166.72,0.0,0.07
1526667133.15626478,86170518,-0.47,-0.26,-0.24,277.4793396,-6.76,-6.26,167.55,166.71,0.0,0.07
1526667133.25622487,86270478,-0.59,-0.25,-0.29,250.133087158,-6.93,-6.42,167.55,166.79,0.0,0.07
1526667133.35701776,86371271,-0.66,-0.22,-0.37,237.310195923,-7.13,-6.65,167.55,166.93,0.0,0.07
1526667133.45697784,86471231,-0.76,-0.25,-0.47,249.457336426,-7.32,-6.9,167.55,167.07,0.0,0.01
1526667133.55693793,86571191,-0.83,-0.38,-0.59,271.285797119,-7.68,-7.13,167.55,167.22,0.0,0.0
1526667133.65689778,86671151,-0.86,-0.53,-0.71,280.638336182,-8.21,-7.36,167.55,167.37,0.0,0.0
1526667133.75685787,86771111,-0.83,-0.62,-0.8,283.459747314,-8.81,-7.69,167.55,167.43,0.0,0.0
1526667133.85681796,86871071,-0.82,-0.7,-0.85,285.168029785,-9.4,-8.11,167.55,167.48,0.0,0.0
1526667133.95677781,86971031,-0.79,-0.69,-0.88,285.733398438,-9.98,-8.58,167.55,167.55,0.0,0.0
1526667134.05673790,87070991,-0.77,-0.64,-0.88,297.996948242,-10.51,-9.08,167.55,167.57,0.0,0.0
1526667134.15669775,87170951,-0.72,-0.58,-0.85,318.039337158,-11.07,-9.63,167.55,167.56,0.0,0.0
1526667134.25665784,87270911,-0.73,-0.51,-0.81,344.710784912,-11.58,-10.22,167.55,167.57,0.0,0.0
1526667134.35661793,87370871,-0.74,-0.49,-0.77,371.394348145,-12.03,-10.77,167.55,167.54,0.0,0.0
1526667134.45657778,87470831,-0.79,-0.5,-0.75,388.117279053,-12.44,-11.3,167.55,167.56,0.0,0.0
1526667134.55653787,87570791,-0.8,-0.55,-0.74,392.001403809,-12.81,-11.81,167.55,167.56,0.0,0.06
1526667134.65649796,87670751,-0.79,-0.57,-0.74,389.170318604,-13.15,-12.23,167.55,167.53,0.0,0.06
1526667134.75645781,87770711,-0.76,-0.59,-0.74,384.885284424,-13.48,-12.64,167.55,167.49,0.0,0.06
1526667134.85641789,87870671,-0.75,-0.61,-0.74,377.540252686,-13.79,-13.0,167.55,167.42,0.0,0.06
1526667134.95637774,87970631,-0.72,-0.57,-0.74,235.816162109,-14.08,-13.39,167.55,167.27,0.0,0.05
1526667135.05633783,88070591,-0.73,-0.52,-0.74,326.256317139,-14.2,-13.76,167.55,167.21,0.0,0.05
1526667135.15629792,88170551,-0.78,-0.58,-0.74,346.616912842,-14.21,-13.99,167.55,167.24,0.0,0.05
1526667135.25625777,88270511,-0.84,-0.68,-0.75,297.610076904,-14.17,-14.13,167.55,167.33,0.0,0.05
1526667135.35621786,88370471,-0.84,-0.82,-0.78,240.628921509,-14.11,-14.27,167.55,167.45,0.0,0.05
1526667135.45701075,88471264,-0.83,-0.98,-0.8,222.951278687,-14.08,-14.39,167.55,167.52,0.0,0.05
1526667135.55697083,88571224,-0.77,-1.07,-0.81,255.866714478,-14.04,-14.46,167.55,167.55,0.0,0.01
1526667135.65693092,88671184,-0.72,-1.16,-0.81,340.648651123,-14.02,-14.45,167.55,167.6,0.0,0.0
1526667135.75689077,88771144,-0.66,-1.19,-0.79,461.309204102,-14.01,-14.39,167.55,167.64,0.0,0.01
1526667135.85685086,88871104,-0.58,-1.17,-0.75,580.690917969,-14.02,-14.33,167.55,167.67,0.0,0.01
1526667135.95681095,88971064,-0.49,-1.11,-0.69,687.015197754,-14.05,-14.32,167.55,167.71,0.0,0.01
1526667136.05677080,89071024,-0.42,-1.08,-0.61,792.517456055,-14.13,-14.33,167.55,167.74,0.0,0.01
1526667136.15673089,89170984,-0.29,-0.99,-0.52,904.260620117,-14.2,-14.31,167.55,167.69,0.0,0.01
1526667136.25669098,89270944,-0.17,-0.88,-0.42,984.976013184,-14.32,-14.25,167.55,167.6,0.0,0.01
1526667136.35665083,89370904,-0.09,-0.71,-0.31,1044.79785156,-14.44,-14.18,167.55,167.5,0.0,0.01
1526667136.45661092,89470864,-0.05,-0.53,-0.21,1056.74633789,-14.59,-14.24,167.55,167.47,0.0,0.01
1526667136.55657077,89570824,-0.04,-0.38,-0.12,1041.99060059,-14.77,-14.32,167.55,167.51,0.0,0.01
1526667136.65653086,89670784,-0.05,-0.24,-0.06,1010.5335083,-14.94,-14.43,167.55,167.55,0.0,0.04
1526667136.75649095,89770744,-0.07,-0.09,-0.03,965.236938477,-15.11,-14.52,167.55,167.55,0.0,0.04
1526667136.85645080,89870704,-0.09,0.06,-0.03,917.996887207,-15.28,-14.69,167.55,167.54,0.0,0.04
1526667136.95641088,89970664,-0.1,0.11,-0.04,881.873352051,-15.46,-14.93,167.55,167.53,0.0,0.04
1526667137.05637097,90070624,-0.15,0.12,-0.07,856.293579102,-15.61,-15.15,167.55,167.5,0.0,0.04
1526667137.15633082,90170584,-0.21,0.13,-0.12,841.214904785,-15.76,-15.38,167.55,167.47,0.0,0.04
1526667137.25629091,90270544,-0.27,0.1,-0.17,836.845153809,-15.88,-15.64,167.55,167.49,0.0,0.04
1526667137.35625076,90370504,-0.34,0.02,-0.23,832.452392578,-15.97,-15.88,167.55,167.54,0.0,0.04
1526667137.45621085,90470464,-0.41,-0.09,-0.3,822.317382812,-16.04,-16.05,167.55,167.58,0.0,0.04
1526667137.55700397,90571257,-0.46,-0.2,-0.37,394.856262207,-16.11,-16.17,167.55,167.67,0.0,0.04
1526667137.65696383,90671217,-0.5,-0.38,-0.44,277.369689941,-16.17,-16.31,167.55,167.76,0.0,0.01
1526667137.75692391,90771177,-0.51,-0.54,-0.49,188.137527466,-16.23,-16.41,167.55,167.79,0.0,0.01
1526667137.85688376,90871137,-0.5,-0.64,-0.53,154.757553101,-16.29,-16.48,167.55,167.81,0.0,0.01
1526667137.95684385,90971097,-0.46,-0.71,-0.55,161.463882446,-16.37,-16.45,167.55,167.78,0.0,0.01
1526667138.05680394,91071057,-0.41,-0.76,-0.55,194.953582764,-16.45,-16.43,167.55,167.77,0.0,0.01
1526667138.15676379,91171017,-0.3,-0.76,-0.51,245.969223022,-16.55,-16.44,167.55,167.66,0.0,0.02
1526667138.25672388,91270977,-0.21,-0.69,-0.45,290.637023926,-16.62,-16.43,167.55,167.54,0.0,0.02
1526667138.35668397,91370937,-0.13,-0.62,-0.36,321.786590576,-16.73,-16.49,167.55,167.54,0.0,0.02
1526667138.45664382,91470897,-0.06,-0.53,-0.26,356.383392334,-16.84,-16.51,167.55,167.57,0.0,0.01
1526667138.55660391,91570857,0.0,-0.38,-0.16,376.992858887,-16.96,-16.49,167.55,167.6,0.0,0.02
1526667138.65656376,91670817,0.08,-0.25,-0.07,377.781341553,-17.09,-16.51,167.55,167.6,0.0,0.02
1526667138.75652385,91770777,0.11,-0.11,0.01,366.599151611,-17.21,-16.62,167.55,167.69,0.0,0.04
1526667138.85648394,91870737,0.1,-0.04,0.07,349.548339844,-17.33,-16.76,167.55,167.81,0.0,0.04
1526667138.95644379,91970697,0.07,-0.01,0.1,337.549987793,-17.44,-16.91,167.55,167.92,0.0,0.04
1526667139.05640388,92070657,0.06,0.07,0.11,321.446472168,-17.54,-17.08,167.55,167.97,0.0,0.04
1526667139.15636396,92170617,0.04,0.09,0.1,303.106964111,-17.6,-17.27,167.55,167.99,0.0,0.04
1526667139.25632381,92270577,0.01,0.08,0.08,286.339263916,-17.49,-17.48,167.55,168.04,0.0,0.04
1526667139.35628390,92370537,0.03,0.05,0.05,271.274597168,-16.96,-17.59,167.55,167.97,0.0,0.04
1526667139.45624375,92470497,0.08,0.03,0.02,257.730407715,-16.81,-17.51,167.55,167.83,0.0,0.03
1526667139.55703688,92571290,0.11,0.08,0.02,245.811279297,-16.74,-17.38,167.55,167.67,0.0,0.03
1526667139.65699697,92671250,0.16,0.09,0.03,236.192047119,-16.54,-17.25,167.55,167.5,0.0,0.03
1526667139.75695682,92771210,0.2,0.04,0.06,226.310760498,-16.3,-17.02,167.55,167.39,0.0,0.02
1526667139.85691690,92871170,0.22,-0.04,0.09,219.620223999,-16.03,-16.72,167.55,167.37,0.0,0.02
1526667139.95687675,92971130,0.26,-0.08,0.13,224.459411621,-15.75,-16.37,167.55,167.33,0.0,0.02
1526667140.05683684,93071090,0.31,-0.09,0.18,239.451782227,-15.47,-16.11,167.55,167.35,0.0,0.02
1526667140.15679693,93171050,0.36,-0.05,0.23,774.992553711,-15.21,-15.88,167.55,167.35,0.0,0.02
1526667140.25675678,93271010,0.42,0.01,0.29,770.96887207,-14.93,-15.64,167.55,167.33,0.0,0.02
1526667140.35671687,93370970,0.49,0.09,0.35,756.48236084,-14.62,-15.37,167.55,167.32,0.0,0.02
1526667140.45667696,93470930,0.56,0.19,0.41,709.30847168,-14.31,-15.12,167.55,167.24,0.0,0.02
1526667140.55663681,93570890,0.64,0.26,0.48,668.826782227,-14.0,-14.84,167.55,167.08,0.0,0.02
1526667140.65659690,93670850,0.73,0.35,0.55,634.345825195,-13.66,-14.54,167.55,166.93,0.0,0.02
1526667140.75655675,93770810,0.81,0.46,0.63,593.030883789,-13.31,-14.19,167.55,166.79,0.0,0.02
1526667140.85651684,93870770,0.87,0.56,0.71,552.893310547,-12.95,-13.82,167.55,166.71,0.0,0.03
1526667140.95647693,93970730,0.89,0.64,0.78,516.266540527,-12.59,-13.47,167.55,166.67,0.0,0.03
1526667141.05643678,94070690,0.91,0.72,0.84,483.527648926,-12.21,-13.11,167.55,166.66,0.0,0.03
1526667141.15639687,94170650,0.9,0.76,0.88,451.855621338,-11.8,-12.79,167.55,166.71,0.0,0.03
1526667141.25635695,94270610,0.87,0.79,0.89,425.194610596,-11.35,-12.4,167.55,166.77,0.0,0.03
1526667141.35631680,94370570,0.8,0.81,0.89,399.751525879,-10.88,-11.99,167.55,166.96,0.0,0.03
1526667141.45627689,94470530,0.72,0.84,0.85,373.413330078,-10.48,-11.57,167.55,167.17,0.0,0.03
1526667141.55623674,94570490,0.67,0.81,0.8,348.661865234,-9.74,-11.18,167.55,167.42,0.0,0.04
1526667141.65702987,94671283,0.61,0.66,0.73,327.975952148,-9.23,-10.71,167.55,167.63,0.0,0.04
1526667141.75698996,94771243,0.58,0.52,0.66,317.255065918,-8.86,-10.14,167.55,167.86,0.0,0.02
1526667141.85694981,94871203,0.55,0.41,0.6,317.124664307,-8.53,-9.6,167.55,168.03,0.0,0.02
1526667141.95690989,94971163,0.53,0.38,0.55,318.081176758,-8.23,-9.1,167.55,168.11,0.0,0.02
1526667142.05686975,95071123,0.55,0.36,0.51,316.088195801,-7.95,-8.73,167.55,168.1,0.0,0.02
1526667142.15682983,95171083,0.59,0.38,0.5,310.18347168,-7.69,-8.37,167.55,167.96,0.0,0.03
1526667142.25678992,95271043,0.65,0.46,0.51,299.957763672,-7.43,-8.08,167.55,167.81,0.0,0.03
1526667142.35674977,95371003,0.71,0.52,0.55,287.292541504,-7.14,-7.78,167.55,167.71,0.0,0.03
1526667142.45670986,95470963,0.77,0.56,0.6,276.087432861,-6.81,-7.47,167.55,167.56,0.0,0.02
1526667142.55666995,95570923,0.79,0.6,0.66,266.490509033,-6.48,-7.1,167.55,167.35,0.0,0.03
1526667142.65662980,95670883,0.83,0.67,0.73,257.834625244,-6.1,-6.75,167.55,167.12,0.0,0.03
1526667142.75658989,95770843,0.86,0.79,0.79,16.9891777039,-5.71,-6.43,167.55,166.95,0.0,0.03
1526667142.85654998,95870803,0.86,0.91,0.84,15.9797849655,-5.27,-6.09,167.55,166.88,0.0,0.03
1526667142.95650983,95970763,0.83,0.92,0.87,24.7850379944,-4.76,-5.77,167.55,166.93,0.0,0.04
1526667143.05646992,96070723,0.78,0.87,0.87,20.5125999451,-4.23,-5.41,167.55,167.02,0.0,0.04
