timestamp,TimeUS,DesR,R,IR,IRErr,DesP,P,DesY,Y,ErrRP,ErrYaw
1526667209.67770600,29573166,0.0,1.09,0.0,9870.68261719,0.0,0.43,355.19,355.19,0.0,0.0
1526667209.77849913,29673959,0.0,1.11,0.0,10005.3710938,0.0,0.43,353.11,353.11,0.0,0.0
1526667209.87845922,29773919,0.0,1.13,0.0,10150.8867188,0.0,0.43,353.03,353.03,0.0,0.0
1526667209.97841907,29873879,0.0,1.14,0.0,10302.1181641,0.0,0.44,352.93,352.93,0.0,0.0
1526667210.07837915,29973839,0.0,1.16,0.0,10457.8896484,0.0,0.45,352.83,352.83,0.0,0.0
1526667210.17833900,30073799,0.0,1.17,0.0,10610.5166016,0.0,0.46,352.73,352.73,0.0,0.0
1526667210.27829909,30173759,0.0,1.2,0.0,10767.5888672,0.0,0.46,352.62,352.62,0.0,0.0
1526667210.37825918,30273719,0.0,1.22,0.0,10938.8066406,0.0,0.45,352.54,352.54,0.0,0.0
1526667210.47821903,30373679,0.0,1.22,0.0,11110.1513672,0.0,0.45,352.46,352.46,0.0,0.0
1526667210.57817912,30473639,0.0,1.22,0.0,11267.2314453,0.0,0.43,352.39,352.39,0.0,0.0
1526667210.67813921,30573599,0.0,1.22,0.0,11411.7568359,0.0,0.41,352.31,352.31,0.0,0.0
1526667210.77809906,30673559,0.0,1.24,0.0,15376.0,0.0,0.4,352.24,352.24,0.0,0.0
1526667210.87805915,30773519,0.0,1.25,0.0,15485.3173828,0.0,0.4,352.19,352.19,0.0,0.0
1526667210.97801900,30873479,0.0,1.26,0.0,15557.3955078,0.0,0.4,352.15,352.15,0.0,0.0
1526667211.07797909,30973439,0.0,1.26,0.0,15662.71875,0.0,0.42,352.14,352.14,0.0,0.0
1526667211.17793918,31073399,0.0,1.27,0.0,15736.1367188,0.0,0.44,352.13,352.13,0.0,0.0
1526667211.27789903,31173359,0.0,1.27,0.0,15814.3183594,0.0,0.45,352.11,352.11,0.0,0.0
1526667211.37785912,31273319,0.0,1.29,0.0,15915.3027344,0.0,0.44,352.12,352.12,0.0,0.0
1526667211.47781920,31373279,0.0,1.29,0.0,16018.6054688,0.0,0.45,352.13,352.13,0.0,0.07
1526667211.57777905,31473239,0.0,1.29,0.0,16096.1621094,0.0,0.44,352.19,352.19,0.0,0.08
1526667211.67773914,31573199,0.0,1.28,0.0,16153.6845703,0.0,0.41,352.27,352.27,0.0,0.08
1526667211.77853203,31673992,0.0,1.27,0.0,16164.5761719,0.0,0.38,352.33,352.33,0.0,0.06
1526667211.87849212,31773952,0.0,1.26,0.0,16147.0068359,0.0,0.36,352.41,352.41,0.0,0.0
1526667211.97845221,31873912,0.0,1.23,0.0,16096.4199219,0.0,0.36,352.49,352.49,0.0,0.0
1526667212.07841206,31973872,0.0,1.18,0.0,15970.0302734,0.0,0.37,352.58,352.58,0.0,0.0
1526667212.17837214,32073832,0.0,1.13,0.0,15776.9052734,0.0,0.37,352.66,352.66,0.0,0.0
1526667212.27833200,32173792,0.0,1.13,0.0,15576.7119141,0.0,0.37,352.74,352.74,0.0,0.0
1526667212.37829208,32273752,0.0,1.12,0.0,15391.3242188,0.0,0.37,352.85,352.85,0.0,0.0
1526667212.47825217,32373712,0.0,1.1,0.0,15210.3476562,0.0,0.37,352.98,352.98,0.0,0.0
1526667212.57821202,32473672,0.0,1.08,0.0,15023.2519531,0.0,0.35,353.1,353.1,0.0,0.0
1526667212.67817211,32573632,0.0,1.08,0.0,14846.6816406,0.0,0.34,353.22,353.22,0.0,0.0
1526667212.77813220,32673592,0.0,1.08,0.0,14687.7460938,0.0,0.32,353.32,353.32,0.0,0.0
1526667212.87809205,32773552,0.0,1.09,0.0,14544.4462891,0.0,0.3,353.43,353.43,0.0,0.0
1526667212.97805214,32873512,0.0,1.11,0.0,14430.4960938,0.0,0.31,353.53,353.53,0.0,0.0
1526667213.07801223,32973472,0.0,1.15,0.0,14358.6474609,0.0,0.29,353.64,353.64,0.0,0.0
1526667213.17797208,33073432,0.0,1.17,0.0,14319.1679688,0.0,0.27,353.75,353.75,0.0,0.0
1526667213.27793217,33173392,0.0,1.18,0.0,14295.3945312,0.0,0.25,353.84,353.84,0.0,0.0
1526667213.37789202,33273352,0.0,1.18,0.0,13924.0,0.0,0.24,353.92,353.92,0.0,0.0
1526667213.47785211,33373312,0.0,1.18,0.0,13924.0,0.0,0.24,354.02,354.02,0.0,0.0
1526667213.57781219,33473272,0.0,1.17,0.0,13918.1972656,0.0,0.24,354.14,354.14,0.0,0.07
1526667213.67777205,33573232,0.0,1.15,0.0,13813.5615234,0.0,0.22,354.28,354.28,0.0,0.07
1526667213.77773213,33673192,0.0,1.12,0.0,13613.484375,0.0,0.19,354.41,354.41,0.0,0.07
1526667213.87852502,33773985,0.0,1.11,0.0,13381.7910156,0.0,0.17,354.56,354.56,0.0,0.06
1526667213.97848511,33873945,0.0,1.1,0.0,13175.4648438,0.0,0.15,354.7,354.7,0.0,0.01
1526667214.07844520,33973905,0.0,1.1,0.0,13022.3740234,0.0,0.11,354.84,354.84,0.0,0.0
1526667214.17840505,34073865,0.0,1.08,0.0,12878.8632812,0.0,0.06,354.97,354.97,0.0,0.0
1526667214.27836514,34173825,0.0,1.03,0.0,12694.1103516,0.0,0.0,355.09,355.09,0.0,0.0
1526667214.37832522,34273785,0.0,1.01,0.0,12464.7177734,0.0,-0.03,355.23,355.23,0.0,0.0
1526667214.47828507,34373745,0.0,0.99,0.0,12233.9589844,0.0,-0.07,355.37,355.37,0.0,0.0
1526667214.57824516,34473705,0.0,0.99,0.0,12031.6337891,0.0,-0.08,355.53,355.53,0.0,0.0
1526667214.67820501,34573665,-0.12,0.76,0.0,11731.8232422,-0.05,-0.17,355.56,355.68,0.0,0.0
1526667214.77816510,34673625,-0.24,0.47,-0.04,11186.2246094,-0.04,-0.22,355.56,355.74,0.0,0.0
1526667214.87812519,34773585,-0.35,0.21,-0.11,10559.4121094,-0.04,-0.25,355.56,355.73,0.0,0.0
1526667214.97808504,34873545,-0.41,0.02,-0.2,9944.87792969,-0.03,-0.27,355.56,355.67,0.0,0.0
1526667215.07804513,34973505,-0.49,-0.12,-0.29,9383.56835938,-0.04,-0.27,355.56,355.59,0.0,0.0
1526667215.17800522,35073465,-0.53,-0.26,-0.38,8876.41992188,-0.02,-0.25,355.56,355.5,0.0,0.0
1526667215.27796507,35173425,-0.52,-0.37,-0.46,8416.89648438,0.0,-0.25,355.56,355.41,0.0,0.0
1526667215.37792516,35273385,-0.46,-0.44,-0.51,8000.40332031,0.0,-0.22,355.56,355.31,0.0,0.0
1526667215.47788501,35373345,-0.42,-0.5,-0.52,7621.41699219,0.01,-0.16,355.56,355.26,0.0,0.0
1526667215.57784510,35473305,-0.34,-0.56,-0.51,7275.61914062,0.04,-0.09,355.56,355.3,0.0,0.0
1526667215.67780519,35573265,-0.28,-0.59,-0.46,6963.37353516,0.08,-0.02,355.56,355.38,0.0,0.07
1526667215.77776504,35673225,-0.16,-0.56,-0.39,6682.58154297,0.08,0.09,355.56,355.54,0.0,0.07
1526667215.87772512,35773185,-0.06,-0.46,-0.29,6427.14794922,0.07,0.24,355.56,355.69,0.0,0.07
1526667215.97851801,35873978,0.04,-0.35,-0.18,268.515930176,0.0,0.36,355.56,355.81,0.0,0.05
1526667216.07847810,35973938,0.13,-0.21,-0.07,241.422210693,-0.06,0.41,355.56,355.9,0.0,0.01
1526667216.17843819,36073898,0.21,-0.03,0.04,179.866500854,-0.15,0.38,355.56,355.97,0.0,0.01
1526667216.27839804,36173858,0.21,0.12,0.14,128.338256836,-0.26,0.29,355.56,356.0,0.0,0.01
1526667216.37835813,36273818,0.16,0.26,0.2,98.7741928101,-0.32,0.15,355.56,355.99,0.0,0.0
1526667216.47831821,36373778,0.07,0.37,0.22,102.381813049,-0.39,-0.06,355.56,355.93,0.0,0.0
1526667216.57827806,36473738,-0.03,0.35,0.2,123.644035339,-0.44,-0.23,355.56,355.84,0.0,0.0
1526667216.67823815,36573698,-0.16,0.26,0.13,130.623046875,-0.42,-0.3,355.56,355.71,0.0,0.0
1526667216.77819800,36673658,-0.3,0.18,0.02,143.286315918,-0.38,-0.44,355.56,355.57,0.0,0.0
1526667216.87815809,36773618,-0.41,0.01,-0.1,149.098175049,-0.31,-0.59,355.56,355.43,0.0,0.0
1526667216.97811818,36873578,-0.42,-0.18,-0.24,144.715316772,-0.2,-0.65,355.56,355.31,0.0,0.0
1526667217.07807803,36973538,-0.4,-0.35,-0.35,133.361190796,-0.07,-0.63,355.56,355.25,0.0,0.0
1526667217.17803812,37073498,-0.33,-0.52,-0.42,125.776809692,0.08,-0.49,355.56,355.21,0.0,0.0
1526667217.27799821,37173458,-0.27,-0.61,-0.44,128.118209839,0.23,-0.33,355.56,355.13,0.0,0.0
1526667217.37795806,37273418,-0.16,-0.67,-0.42,149.684265137,0.36,-0.11,356.79,356.35,0.0,0.0
1526667217.47791815,37373378,-0.04,-0.67,-0.35,198.252456665,0.43,0.13,356.79,356.38,0.0,0.0
1526667217.57787800,37473338,0.04,-0.53,-0.24,241.477813721,0.45,0.44,356.79,356.38,0.0,0.0
1526667217.67783809,37573298,0.12,-0.37,-0.13,268.283569336,0.38,0.63,356.79,356.45,0.0,0.0
1526667217.77779818,37673258,0.19,-0.2,0.0,277.836151123,0.27,0.67,356.79,356.52,0.0,0.06
1526667217.87775803,37773218,0.24,-0.03,0.1,277.322357178,0.19,0.69,356.79,356.62,0.0,0.07
1526667217.97771811,37873178,0.26,0.13,0.19,269.180541992,0.07,0.61,356.79,356.73,0.0,0.06
1526667218.07851100,37973971,0.25,0.31,0.26,256.94708252,-0.07,0.43,356.79,356.78,0.0,0.05
1526667218.17847109,38073931,0.21,0.42,0.29,248.382232666,-0.19,0.23,356.79,356.78,0.0,0.01
1526667218.27843118,38173891,0.1,0.48,0.29,249.178848267,-0.24,0.02,356.79,356.72,0.0,0.0
1526667218.37839103,38273851,-0.01,0.46,0.23,256.213897705,-0.26,-0.21,356.79,356.79,0.0,0.0
1526667218.47835112,38373811,-0.18,0.39,0.14,268.3331604,-0.18,-0.39,356.79,356.85,0.0,0.0
1526667218.57831120,38473771,-0.32,0.13,0.01,126.395805359,-0.03,-0.46,356.79,356.91,0.0,0.0
1526667218.67827106,38573731,-0.37,-0.1,-0.12,38.8518257141,0.1,-0.41,356.79,357.02,0.0,0.0
1526667218.77823114,38673691,-0.38,-0.27,-0.25,20.4093704224,0.22,-0.35,356.79,357.13,0.0,0.0
1526667218.87819099,38773651,-0.34,-0.4,-0.35,17.2276115417,0.32,-0.24,356.79,357.26,0.0,0.0
1526667218.97815108,38873611,-0.22,-0.45,-0.39,17.7554206848,0.43,-0.14,356.79,357.31,0.0,0.0
1526667219.07811117,38973571,-0.11,-0.54,-0.38,37.2881355286,0.5,0.0,356.83,357.38,0.0,0.0
1526667219.17807102,39073531,0.01,-0.59,-0.31,110.802230835,0.56,0.18,356.83,357.39,0.0,0.0
1526667219.27803111,39173491,0.17,-0.52,-0.21,220.837875366,0.56,0.42,356.83,357.45,0.0,0.0
1526667219.37799120,39273451,0.34,-0.34,-0.06,304.599639893,0.53,0.61,356.83,357.44,0.0,0.0
1526667219.47795105,39373411,0.46,-0.08,0.1,333.376800537,0.44,0.77,356.83,357.38,0.0,0.01
1526667219.57791114,39473371,0.55,0.22,0.27,317.706726074,0.34,0.85,356.83,357.28,0.0,0.01
1526667219.67787123,39573331,0.58,0.51,0.43,290.476837158,0.21,0.79,356.83,357.17,0.0,0.01
1526667219.77783108,39673291,0.54,0.72,0.54,281.667510986,0.07,0.61,356.83,357.03,0.0,0.06
1526667219.87779117,39773251,0.45,0.84,0.6,295.184936523,-0.05,0.39,275.36,356.78,0.0,0.07
1526667219.97775102,39873211,-1.42,0.83,0.52,324.684204102,-0.43,0.18,275.36,355.76,0.0,0.08
1526667220.07771111,39973171,-4.12,0.26,-0.19,406.933197021,-1.04,-0.39,275.36,354.04,0.0,0.1
1526667220.17850423,40073964,-6.11,-1.04,-1.51,520.228637695,-1.67,-1.26,275.36,351.67,0.0,0.1
1526667220.27846408,40173924,-7.75,-2.78,-3.22,610.2734375,-2.33,-2.08,275.36,348.95,0.0,0.06
1526667220.37842417,40273884,-9.05,-4.63,-5.13,700.200866699,-3.02,-2.78,275.36,346.0,0.0,0.06
1526667220.47838402,40373844,-9.6,-6.35,-6.98,839.202636719,-3.62,-3.39,275.36,342.82,0.0,0.06
1526667220.57834411,40473804,-9.67,-7.77,-8.52,1041.95507812,-4.17,-3.9,275.36,339.4,0.0,0.06
1526667220.67830420,40573764,-9.43,-8.8,-9.59,1284.04504395,-4.68,-4.26,275.36,335.82,0.0,0.05
1526667220.77826405,40673724,-9.0,-9.42,-10.14,1493.89147949,-5.23,-4.5,275.36,332.12,0.0,0.05
1526667220.87822413,40773684,-8.1,-9.6,-10.16,1615.62451172,-5.64,-4.66,275.36,328.33,0.0,0.04
1526667220.97818422,40873644,-6.97,-9.39,-9.68,1630.61120605,-6.0,-4.79,275.36,324.48,0.0,0.03
1526667221.07814407,40973604,-5.95,-8.82,-8.77,1574.59216309,-6.59,-4.88,275.36,320.59,0.0,0.02
1526667221.17810416,41073564,-5.01,-7.89,-7.61,774.166748047,-7.27,-5.06,275.36,316.64,0.0,0.02
1526667221.27806401,41173524,-4.09,-6.79,-6.33,1398.67785645,-7.99,-5.41,275.36,312.71,0.0,0.01
1526667221.37802410,41273484,-3.27,-5.62,-5.04,2044.12927246,-8.69,-5.9,275.36,308.77,0.0,0.02
1526667221.47798419,41373444,-2.55,-4.42,-3.85,2463.50878906,-9.35,-6.55,275.36,304.82,0.0,0.02
1526667221.57794404,41473404,-1.93,-3.31,-2.81,2567.40917969,-9.95,-7.41,275.36,300.81,0.0,0.03
1526667221.67790413,41573364,-1.42,-2.33,-1.95,2419.03222656,-10.49,-8.33,275.36,296.79,0.0,0.03
1526667221.77786422,41673324,-0.95,-1.6,-1.28,2205.20410156,-10.96,-9.22,275.36,292.75,0.0,0.04
1526667221.87782407,41773284,-0.5,-0.99,-0.78,1986.97180176,-11.33,-10.03,275.36,288.63,0.0,0.04
1526667221.97778416,41873244,0.0,-0.47,-0.39,1766.50219727,-11.6,-10.8,275.36,284.49,0.0,0.03
1526667222.07774401,41973204,0.56,0.0,-0.05,1572.61010742,-11.79,-11.38,275.36,280.43,0.0,0.03
1526667222.17853713,42073997,1.12,0.48,0.27,1433.6015625,-11.9,-11.7,275.36,276.65,0.0,0.01
1526667222.27849722,42173957,1.65,1.04,0.62,1394.66540527,-11.83,-11.73,275.36,273.5,0.0,0.02
1526667222.37845707,42273917,2.0,1.62,1.0,1513.45715332,-11.33,-11.53,275.36,271.11,0.0,0.01
1526667222.47841716,42373877,2.19,2.07,1.36,1743.68334961,-10.69,-11.23,275.36,269.54,0.0,0.0
1526667222.57837701,42473837,2.17,2.42,1.65,2014.03674316,-10.08,-10.85,275.36,268.79,0.0,0.01
1526667222.67833710,42573797,1.96,2.63,1.84,2285.38232422,-9.54,-10.46,275.36,268.72,0.0,0.02
1526667222.77829719,42673757,1.63,2.64,1.88,2518.11962891,-9.06,-10.11,275.36,269.27,0.0,0.02
1526667222.87825704,42773717,1.26,2.44,1.77,2673.44702148,-8.63,-9.79,275.36,270.24,0.0,0.03
1526667222.97821712,42873677,0.85,2.07,1.52,2733.02685547,-8.25,-9.48,275.36,271.51,0.0,0.03
1526667223.07817721,42973637,0.4,1.58,1.16,2712.37988281,-7.92,-9.23,275.36,272.93,0.0,0.03
1526667223.17813706,43073597,0.0,1.01,0.73,2635.08740234,-7.6,-8.9,275.36,274.3,0.0,0.03
1526667223.27809715,43173557,-0.3,0.47,0.26,2535.71728516,-7.29,-8.5,275.36,275.42,0.0,0.03
1526667223.37805700,43273517,-0.51,0.0,-0.17,2436.09790039,-7.03,-8.11,275.36,276.22,0.0,0.02
1526667223.47801709,43373477,-0.63,-0.34,-0.54,2344.37792969,-6.78,-7.72,275.36,276.73,0.0,0.02
1526667223.57797718,43473437,-0.64,-0.57,-0.81,2269.67602539,-6.54,-7.4,275.36,277.0,0.0,0.02
1526667223.67793703,43573397,-0.58,-0.77,-0.97,2201.20581055,-6.33,-7.1,275.36,277.09,0.0,0.02
1526667223.77789712,43673357,-0.46,-0.87,-1.02,232.732406616,-6.13,-6.8,275.36,277.01,0.0,0.01
1526667223.87785721,43773317,-0.29,-0.89,-0.95,131.635437012,-5.9,-6.52,275.36,276.85,0.0,0.01
1526667223.97781706,43873277,-0.14,-0.84,-0.8,73.4077987671,-5.67,-6.21,275.36,276.67,0.0,0.04
1526667224.07777715,43973237,0.0,-0.76,-0.6,84.5488357544,-5.4,-5.85,275.36,276.42,0.0,0.05
1526667224.17773700,44073197,0.13,-0.58,-0.37,146.702392578,-5.09,-5.51,275.36,276.14,0.0,0.05
1526667224.27853012,44173990,0.22,-0.39,-0.15,222.004043579,-4.74,-5.21,275.36,275.81,0.0,0.04
1526667224.37849021,44273950,0.29,-0.2,0.04,285.976623535,-4.29,-4.94,275.36,275.5,0.0,0.01
1526667224.47845006,44373910,0.32,-0.06,0.2,340.15411377,-3.75,-4.66,275.36,275.29,0.0,0.01
1526667224.57841015,44473870,0.34,0.01,0.31,394.233856201,-3.5,-4.33,275.36,275.11,0.0,0.01
1526667224.67837000,44573830,0.35,0.06,0.37,461.32220459,-3.36,-3.95,275.36,274.97,0.0,0.01
1526667224.77833009,44673790,0.34,0.16,0.4,497.797729492,-3.25,-3.61,275.36,274.83,0.0,0.01
1526667224.87829018,44773750,0.3,0.23,0.39,490.716278076,-3.15,-3.37,275.36,274.72,0.0,0.01
1526667224.97825003,44873710,0.26,0.32,0.35,459.135406494,-3.05,-3.28,275.36,274.68,0.0,0.01
1526667225.07821012,44973670,0.23,0.38,0.3,425.303436279,-2.95,-3.21,275.36,274.73,0.0,0.01
1526667225.17817020,45073630,0.18,0.44,0.24,410.433837891,-2.81,-3.11,275.36,274.72,0.0,0.01
1526667225.27813005,45173590,0.1,0.46,0.17,425.586853027,-2.59,-3.0,275.36,274.76,0.0,0.01
1526667225.37809014,45273550,-0.03,0.46,0.09,461.942626953,-2.34,-2.86,84.74,274.96,0.0,0.01
1526667225.47804999,45373510,-0.21,0.46,0.0,536.75604248,-2.01,-2.68,84.74,275.92,0.0,0.02
1526667225.57801008,45473470,-0.38,0.36,-0.12,634.25378418,-1.62,-2.44,84.74,277.6,0.0,0.03
1526667225.67797017,45573430,-0.47,0.18,-0.25,712.288818359,-1.15,-2.13,84.74,279.91,0.0,0.03
1526667225.77793002,45673390,-0.52,-0.03,-0.38,754.137512207,-0.63,-1.73,84.74,282.59,0.0,0.04
1526667225.87789011,45773350,-0.49,-0.2,-0.48,766.09197998,-0.01,-1.28,84.74,285.52,0.0,0.04
1526667225.97785020,45873310,-0.37,-0.33,-0.54,761.36126709,0.66,-0.79,84.74,288.75,0.0,0.06
1526667226.07781005,45973270,-0.16,-0.34,-0.52,744.906005859,1.13,-0.19,84.74,292.18,0.0,0.06
1526667226.17777014,46073230,0.09,-0.23,-0.43,729.033874512,1.42,0.35,84.74,295.85,0.0,0.06
1526667226.27773023,46173190,0.4,-0.06,-0.26,717.345581055,1.6,0.78,84.74,299.63,0.0,0.05
1526667226.37852311,46273983,0.78,0.13,-0.01,206.805709839,1.77,1.19,84.74,303.48,0.0,0.04
1526667226.47848320,46373943,1.19,0.4,0.31,134.257553101,1.82,1.53,84.74,307.4,0.0,0.05
1526667226.57844305,46473903,1.6,0.72,0.69,91.9822616577,1.84,1.83,84.74,311.34,0.0,0.05
1526667226.67840314,46573863,2.1,1.08,1.12,63.4316825867,1.81,1.99,84.74,315.32,0.0,0.05
1526667226.77836323,46673823,2.56,1.54,1.58,52.9236335754,1.71,2.07,84.74,319.32,0.0,0.05
1526667226.87832308,46773783,3.0,2.03,2.06,46.0430374146,1.59,2.04,84.74,323.25,0.0,0.05
1526667226.97828317,46873743,3.45,2.49,2.55,42.5126571655,1.43,1.96,84.74,327.16,0.0,0.04
1526667227.07824302,46973703,3.91,2.93,3.02,45.3186912537,1.2,1.83,84.74,331.06,0.0,0.04
1526667227.17820311,47073663,4.33,3.3,3.49,65.8009872437,0.93,1.69,84.74,335.02,0.0,0.04
1526667227.27816319,47173623,4.72,3.7,3.93,112.147842407,0.64,1.51,84.74,338.98,0.0,0.04
1526667227.37812304,47273583,5.09,4.11,4.35,157.549163818,0.32,1.27,84.74,342.96,0.0,0.04
1526667227.47808313,47373543,5.44,4.5,4.73,194.877548218,-0.02,0.97,84.74,346.95,0.0,0.04
1526667227.57804322,47473503,5.77,4.82,5.09,234.578125,-0.4,0.67,84.74,350.93,0.0,0.04
1526667227.67800307,47573463,6.1,5.15,5.43,277.777923584,-0.9,0.3,84.74,354.89,0.0,0.04
1526667227.77796316,47673423,6.34,5.48,5.74,311.921783447,-1.43,-0.12,84.74,358.89,0.0,0.04
1526667227.87792301,47773383,6.28,5.8,6.0,328.18536377,-1.96,-0.57,84.74,2.84,0.0,0.04
1526667227.97788310,47873343,6.03,6.03,6.14,323.181518555,-2.47,-1.06,84.74,6.76,0.0,0.04
1526667228.07784319,47973303,5.74,6.18,6.14,306.322021484,-2.94,-1.54,84.74,10.68,0.0,0.05
1526667228.17780304,48073263,5.45,6.22,6.02,298.963928223,-3.37,-2.08,84.74,14.57,0.0,0.04
1526667228.27776313,48173223,5.16,6.12,5.79,323.099609375,-3.77,-2.68,84.74,18.47,0.0,0.04
1526667228.37772322,48273183,4.86,5.88,5.49,371.114318848,-4.15,-3.25,84.74,22.41,0.0,0.04
1526667228.47851610,48373976,4.53,5.54,5.14,428.411743164,-4.47,-3.77,84.74,26.39,0.0,0.03
1526667228.57847619,48473936,4.26,5.15,4.78,472.563018799,-4.8,-4.16,84.74,30.33,0.0,0.04
1526667228.67843604,48573896,4.01,4.75,4.43,503.881286621,-5.1,-4.43,84.74,34.25,0.0,0.03
1526667228.77839613,48673856,3.85,4.36,4.12,513.367004395,-5.46,-4.61,84.74,38.23,0.0,0.03
1526667228.87835622,48773816,3.85,4.12,3.87,513.965026855,-6.03,-4.81,84.74,42.24,0.0,0.04
1526667228.97831607,48873776,3.83,4.1,3.72,1424.83666992,-6.72,-5.11,84.74,46.25,0.0,0.04
1526667229.07827616,48973736,3.73,4.11,3.63,1936.7142334,-7.48,-5.63,84.74,50.27,0.0,0.05
1526667229.17823601,49073696,3.5,4.05,3.58,2134.21362305,-8.27,-6.23,84.74,54.3,0.0,0.05
1526667229.27819610,49173656,3.13,3.89,3.51,2032.48376465,-9.08,-6.94,84.74,58.3,0.0,0.05
1526667229.37815619,49273616,2.64,3.62,3.36,1786.28295898,-9.84,-7.69,84.74,62.22,0.0,0.05
1526667229.47811604,49373576,2.05,3.27,3.11,1509.58764648,-10.54,-8.48,84.74,66.1,0.0,0.05
1526667229.57807612,49473536,1.37,2.84,2.73,1285.89160156,-11.13,-9.24,84.74,70.02,0.0,0.05
1526667229.67803621,49573496,0.61,2.32,2.22,1117.10314941,-11.63,-9.98,84.74,73.92,0.0,0.05
1526667229.77799606,49673456,-0.19,1.65,1.59,984.625183105,-12.03,-10.64,84.74,77.76,0.0,0.05
1526667229.87795615,49773416,-0.96,0.8,0.86,877.14654541,-12.33,-11.25,84.74,81.44,0.0,0.05
1526667229.97791600,49873376,-1.71,-0.15,0.07,814.895324707,-12.56,-11.79,84.74,84.72,0.0,0.04
1526667230.07787609,49973336,-2.28,-1.13,-0.72,832.27746582,-12.75,-12.24,84.74,87.33,0.0,0.04
1526667230.17783618,50073296,-2.67,-2.1,-1.47,988.87701416,-12.92,-12.57,84.74,89.25,0.0,0.04
1526667230.27779603,50173256,-2.84,-2.91,-2.1,1317.70861816,-13.03,-12.75,84.74,90.41,0.0,0.02
1526667230.37775612,50273216,-2.73,-3.49,-2.55,1783.50012207,-12.98,-12.85,84.74,90.87,0.0,0.02
1526667230.47771621,50373176,-2.35,-3.8,-2.76,2322.10473633,-12.92,-12.86,84.74,90.68,0.0,0.03
1526667230.57850909,50473969,-1.82,-3.77,-2.71,2861.77197266,-12.85,-12.82,84.74,89.95,0.0,0.03
1526667230.67846918,50573929,-1.16,-3.43,-2.41,3321.51733398,-12.86,-12.73,84.74,88.79,0.0,0.01
1526667230.77842903,50673889,-0.48,-2.84,-1.9,3667.56542969,-12.87,-12.61,84.74,87.53,0.0,0.01
1526667230.87838912,50773849,0.14,-2.1,-1.23,3904.27246094,-12.89,-12.48,84.74,86.33,0.0,0.0
1526667230.97834921,50873809,0.68,-1.3,-0.49,4061.13378906,-12.96,-12.39,84.74,85.3,0.0,0.0
1526667231.07830906,50973769,1.11,-0.43,0.23,4129.06884766,-13.05,-12.35,84.74,84.4,0.0,0.0
1526667231.17826915,51073729,1.4,0.33,0.9,4109.0546875,-13.18,-12.43,84.74,83.67,0.0,0.0
1526667231.27822900,51173689,1.58,0.89,1.45,4070.50219727,-13.31,-12.61,84.74,83.18,0.0,0.0
1526667231.37818909,51273649,1.6,1.35,1.83,4017.51293945,-13.47,-12.78,84.74,83.0,0.0,0.0
1526667231.47814918,51373609,1.49,1.59,2.04,3947.49633789,-13.65,-12.97,84.74,83.13,0.0,0.01
1526667231.57810903,51473569,1.27,1.74,2.08,1163.21838379,-13.83,-13.21,84.74,83.45,0.0,0.01
1526667231.67806911,51573529,0.99,1.75,1.94,727.27935791,-13.98,-13.55,84.74,83.9,0.0,0.01
1526667231.77802920,51673489,0.69,1.58,1.68,481.044952393,-14.11,-13.9,84.74,84.33,0.0,0.01
1526667231.87798905,51773449,0.38,1.27,1.33,344.611785889,-14.2,-14.19,84.74,84.74,0.0,0.01
1526667231.97794914,51873409,0.06,0.9,0.92,263.767242432,-14.27,-14.43,84.74,85.22,0.0,0.01
1526667232.07790899,51973369,-0.19,0.5,0.51,212.142105103,-14.33,-14.59,84.74,85.63,0.0,0.01
1526667232.17786908,52073329,-0.38,0.07,0.12,178.964370728,-14.4,-14.72,84.74,85.94,0.0,0.01
1526667232.27782917,52173289,-0.51,-0.27,-0.2,158.442626953,-14.44,-14.81,84.74,86.12,0.0,0.04
1526667232.37778902,52273249,-0.51,-0.59,-0.46,148.754806519,-13.18,-14.83,84.74,86.16,0.0,0.04
1526667232.47774911,52373209,-0.41,-1.0,-0.6,211.765197754,-11.72,-14.43,84.74,86.06,0.0,0.05
1526667232.57770920,52473169,-0.27,-1.27,-0.63,476.061401367,-11.19,-13.6,84.74,85.89,0.0,0.07
1526667232.67850208,52573962,-0.04,-1.27,-0.55,875.559692383,-10.94,-12.66,84.74,85.59,0.0,0.06
1526667232.77846217,52673922,0.21,-0.96,-0.38,1155.43237305,-10.94,-11.88,84.74,85.23,0.0,0.02
1526667232.87842202,52773882,0.45,-0.5,-0.14,1232.44238281,-11.15,-11.37,84.74,84.89,0.0,0.01
1526667232.97838211,52873842,0.63,-0.02,0.13,1191.80004883,-11.41,-11.12,84.74,84.64,0.0,0.0
1526667233.07834220,52973802,0.78,0.43,0.41,1117.81542969,-11.71,-11.04,84.74,84.37,0.0,0.0
1526667233.17830205,53073762,0.85,0.82,0.67,1054.92468262,-12.07,-11.17,84.74,84.12,0.0,0.0
1526667233.27826214,53173722,0.84,1.07,0.86,1009.87719727,-12.55,-11.4,84.74,83.96,0.0,0.0
1526667233.37822223,53273682,0.77,1.27,0.98,985.864257812,-12.96,-11.72,84.74,83.88,0.0,0.0
1526667233.47818208,53373642,0.64,1.36,1.01,987.717468262,-13.31,-12.16,84.74,83.91,0.0,0.01
1526667233.57814217,53473602,0.49,1.35,0.96,1005.95050049,-13.8,-12.64,84.74,83.98,0.0,0.01
1526667233.67810202,53573562,0.32,1.25,0.84,1032.30969238,-14.14,-13.11,84.74,84.09,0.0,0.01
1526667233.77806211,53673522,0.13,1.06,0.66,1059.31726074,-14.4,-13.58,84.74,84.24,0.0,0.01
1526667233.87802219,53773482,-0.02,0.86,0.45,1079.45617676,-14.71,-14.02,84.74,84.35,0.0,0.01
1526667233.97798204,53873442,-0.17,0.63,0.23,1103.81140137,-14.82,-14.33,84.74,84.48,0.0,0.01
1526667234.07794213,53973402,-0.24,0.4,0.02,1119.79431152,-15.0,-14.6,84.74,84.62,0.0,0.01
1526667234.17790222,54073362,-0.33,0.16,-0.14,955.483520508,-15.02,-14.8,84.74,84.83,0.0,0.0
1526667234.27786207,54173322,-0.4,-0.07,-0.28,736.872497559,-15.07,-14.98,84.74,85.05,0.0,0.01
1526667234.37782216,54273282,-0.47,-0.35,-0.39,464.659759521,-15.1,-15.15,84.74,85.3,0.0,0.04
1526667234.47778201,54373242,-0.5,-0.6,-0.47,324.939239502,-14.99,-15.24,84.74,85.52,0.0,0.04
1526667234.57774210,54473202,-0.47,-0.73,-0.51,318.74331665,-14.95,-15.25,84.74,85.65,0.0,0.04
1526667234.67853522,54573995,-0.41,-0.83,-0.51,395.94543457,-14.79,-15.24,84.74,85.72,0.0,0.04
1526667234.77849507,54673955,-0.33,-0.9,-0.48,557.627868652,-14.78,-15.15,84.74,85.76,0.0,0.0
1526667234.87845516,54773915,-0.2,-0.9,-0.41,771.030883789,-14.62,-15.06,84.74,85.76,0.0,0.0
1526667234.97841501,54873875,-0.07,-0.8,-0.31,992.350830078,-14.49,-14.88,246.53,85.73,0.0,0.0
1526667235.07837510,54973835,0.13,-0.23,-0.18,969.977844238,-11.0,-14.29,246.53,85.98,0.0,0.0
1526667235.17833519,55073795,0.12,0.09,-0.03,880.128417969,-8.89,-13.12,246.53,87.08,0.0,0.01
1526667235.27829504,55173755,-0.07,0.24,0.06,823.121520996,-7.81,-11.7,246.53,88.85,0.0,0.01
1526667235.37825513,55273715,-0.39,0.22,0.08,777.15612793,-7.14,-10.29,246.53,91.13,0.0,0.0
1526667235.47821522,55373675,-0.8,0.2,-0.02,738.391052246,-6.7,-9.04,246.53,93.87,0.0,0.0
1526667235.57817507,55473635,-1.27,0.15,-0.26,764.400634766,-6.41,-8.23,246.53,96.9,0.0,0.0
1526667235.67813516,55573595,-1.81,-0.08,-0.61,866.482299805,-6.21,-7.63,246.53,100.12,0.0,0.01
1526667235.77809501,55673555,-2.39,-0.47,-1.08,1021.52935791,-6.01,-7.12,246.53,103.54,0.0,0.02
1526667235.87805510,55773515,-2.98,-0.95,-1.64,1213.23620605,-5.79,-6.65,246.53,107.13,0.0,0.02
1526667235.97801518,55873475,-3.55,-1.5,-2.25,1433.94763184,-5.53,-6.27,246.53,110.86,0.0,0.03
1526667236.07797503,55973435,-4.05,-2.09,-2.87,1677.50366211,-5.25,-5.95,246.53,114.53,0.0,0.03
1526667236.17793512,56073395,-4.49,-2.66,-3.48,1918.58898926,-4.9,-5.62,246.53,118.29,0.0,0.03
1526667236.27789521,56173355,-4.88,-3.22,-4.04,2154.4831543,-4.49,-5.29,246.53,122.12,0.0,0.03
1526667236.37785506,56273315,-5.18,-3.75,-4.54,2361.75976562,-4.04,-4.93,246.53,125.97,0.0,0.04
1526667236.47781515,56373275,-5.41,-4.25,-4.95,2503.69628906,-3.54,-4.53,246.53,129.8,0.0,0.05
1526667236.57777500,56473235,-5.5,-4.71,-5.26,2566.83154297,-3.01,-4.09,246.53,133.63,0.0,0.06
1526667236.67773509,56573195,-5.52,-5.07,-5.47,2558.44042969,-2.42,-3.59,246.53,137.48,0.0,0.06
1526667236.77852821,56673988,-5.36,-5.3,-5.56,694.501342773,-1.79,-3.0,246.53,141.45,0.0,0.05
1526667236.87848806,56773948,-5.1,-5.35,-5.52,479.258148193,-1.27,-2.38,246.53,145.44,0.0,0.03
1526667236.97844815,56873908,-4.72,-5.25,-5.36,349.447357178,-0.79,-1.8,246.53,149.4,0.0,0.02
1526667237.07840800,56973868,-4.26,-5.02,-5.08,260.97064209,-0.37,-1.28,246.53,153.34,0.0,0.02
1526667237.17836809,57073828,-3.7,-4.72,-4.69,198.92086792,-0.02,-0.79,246.53,157.3,0.0,0.02
1526667237.27832818,57173788,-3.02,-4.33,-4.19,173.478469849,0.21,-0.35,246.53,161.28,0.0,0.02
1526667237.37828803,57273748,-2.28,-3.86,-3.6,207.15713501,0.38,0.0,246.53,165.35,0.0,0.02
1526667237.47824812,57373708,-1.44,-3.28,-2.92,311.298919678,0.49,0.29,246.53,169.44,0.0,0.02
1526667237.57820821,57473668,-0.52,-2.59,-2.15,459.158477783,0.43,0.51,246.53,173.58,0.0,0.01
1526667237.67816806,57573628,0.53,-1.79,-1.31,640.348571777,0.21,0.62,246.53,177.69,0.0,0.01
1526667237.77812815,57673588,1.77,-0.84,-0.37,797.037963867,-0.12,0.6,246.53,181.78,0.0,0.01
1526667237.87808800,57773548,2.79,0.22,0.67,917.968200684,-0.57,0.39,246.53,185.9,0.0,0.0
1526667237.97804809,57873508,3.0,1.23,1.67,1006.0803833,-0.99,0.04,246.53,190.08,0.0,0.0
1526667238.07800817,57973468,2.82,1.99,2.44,1079.36914062,-1.29,-0.43,246.53,194.25,0.0,0.01
1526667238.17796803,58073428,2.4,2.46,2.89,1144.34545898,-1.47,-0.92,246.53,198.36,0.0,0.01
1526667238.27792811,58173388,1.88,2.62,2.99,1174.47302246,-1.53,-1.4,246.53,202.53,0.0,0.02
1526667238.37788820,58273348,1.39,2.44,2.77,1178.57678223,-1.54,-1.73,246.53,206.67,0.0,0.02
1526667238.47784805,58373308,1.14,2.13,2.34,1157.88891602,-1.76,-1.88,246.53,210.78,0.0,0.03
1526667238.57780814,58473268,0.97,1.81,1.82,1102.71606445,-2.04,-1.92,246.53,214.84,0.0,0.11
1526667238.67776799,58573228,0.86,1.52,1.31,1052.3692627,-2.36,-1.92,246.53,218.89,0.0,0.12
1526667238.77772808,58673188,0.73,1.32,0.86,1058.79150391,-2.73,-1.98,246.53,222.98,0.0,0.11
1526667238.87852120,58773981,0.57,1.19,0.5,1172.99035645,-3.21,-2.18,246.53,227.03,0.0,0.09
1526667238.97848105,58873941,0.36,1.08,0.23,1389.85400391,-3.7,-2.51,246.53,230.95,0.0,0.02
1526667239.07844114,58973901,0.13,0.92,0.02,1666.64331055,-4.2,-2.96,246.53,234.89,0.0,0.01
1526667239.17840099,59073861,-0.11,0.7,-0.14,1918.24560547,-4.68,-3.42,246.53,238.82,0.0,0.01
1526667239.27836108,59173821,-0.39,0.35,-0.29,2064.80273438,-5.15,-3.92,246.53,242.63,0.0,0.01
1526667239.37832117,59273781,-0.71,0.0,-0.45,2039.32055664,-5.61,-4.42,246.53,246.01,0.0,0.01
1526667239.47828102,59373741,-1.01,-0.4,-0.63,1303.76855469,-5.83,-4.88,246.53,248.76,0.0,0.01
1526667239.57824111,59473701,-1.18,-0.78,-0.84,767.371398926,-5.79,-5.22,246.53,250.69,0.0,0.02
1526667239.67820120,59573661,-1.24,-1.05,-1.03,517.28338623,-5.74,-5.49,246.53,251.79,0.0,0.02
1526667239.77816105,59673621,-1.19,-1.29,-1.18,401.591308594,-5.73,-5.66,246.53,252.15,0.0,0.03
1526667239.87812114,59773581,-1.03,-1.43,-1.25,363.579101562,-5.75,-5.73,246.53,251.87,0.0,0.03
1526667239.97808123,59873541,-0.82,-1.47,-1.24,372.816131592,-5.84,-5.79,246.53,251.07,0.0,0.04
1526667240.07804108,59973501,-0.59,-1.43,-1.13,419.219146729,-5.97,-5.8,246.53,249.97,0.0,0.04
1526667240.17800117,60073461,-0.3,-1.26,-0.95,483.013183594,-6.11,-5.83,246.53,248.73,0.0,0.04
1526667240.27796102,60173421,0.0,-0.94,-0.7,509.093841553,-6.25,-5.87,246.53,247.59,0.0,0.04
1526667240.37792110,60273381,0.24,-0.58,-0.4,501.831787109,-6.44,-5.94,246.53,246.69,0.0,0.04
1526667240.47788119,60373341,0.41,-0.21,-0.09,474.052856445,-6.63,-6.08,246.53,246.03,0.0,0.04
1526667240.57784104,60473301,0.53,0.09,0.18,443.209991455,-6.85,-6.23,246.53,245.57,0.0,0.04
1526667240.67780113,60573261,0.6,0.35,0.41,415.134490967,-7.1,-6.38,246.53,245.3,0.0,0.03
1526667240.77776122,60673221,0.6,0.55,0.58,387.173736572,-7.36,-6.6,246.53,245.2,0.0,0.03
1526667240.87772107,60773181,0.56,0.64,0.68,362.644561768,-7.61,-6.83,246.53,245.24,0.0,0.03
1526667240.97851419,60873974,0.47,0.69,0.71,340.698638916,-7.88,-7.11,246.53,245.47,0.0,0.03
1526667241.07847404,60973934,0.38,0.69,0.66,320.820037842,-8.35,-7.43,246.53,245.77,0.0,0.03
1526667241.17843413,61073894,0.25,0.66,0.57,304.745025635,-8.91,-7.79,246.53,246.09,0.0,0.03
1526667241.27839422,61173854,0.09,0.64,0.43,300.114685059,-9.5,-8.21,246.53,246.41,0.0,0.03
1526667241.37835407,61273814,-0.06,0.56,0.26,316.736450195,-10.11,-8.74,246.53,246.69,0.0,0.03
1526667241.47831416,61373774,-0.17,0.43,0.08,350.793762207,-10.66,-9.3,246.53,246.89,0.0,0.04
1526667241.57827401,61473734,-0.28,0.29,-0.08,393.088348389,-11.19,-9.87,246.53,246.96,0.0,0.04
1526667241.67823410,61573694,-0.33,0.19,-0.23,445.758666992,-11.69,-10.44,246.53,246.94,0.0,0.04
1526667241.77819419,61673654,-0.35,0.07,-0.35,502.635192871,-12.16,-11.0,246.53,246.88,0.0,0.04
1526667241.87815404,61773614,-0.33,-0.01,-0.42,551.75579834,-12.62,-11.51,246.53,246.76,0.0,0.04
1526667241.97811413,61873574,-0.32,-0.12,-0.45,1153.59741211,-13.06,-11.98,246.53,246.67,0.0,0.04
1526667242.07807422,61973534,-0.28,-0.16,-0.45,1017.14050293,-13.44,-12.43,246.53,246.54,0.0,0.04
1526667242.17803407,62073494,-0.23,-0.2,-0.42,859.775939941,-13.84,-12.88,246.53,246.47,0.0,0.04
1526667242.27799416,62173454,-0.18,-0.21,-0.36,691.895874023,-14.22,-13.29,246.53,246.47,0.0,0.03
1526667242.37795401,62273414,-0.13,-0.19,-0.29,562.128356934,-14.59,-13.67,246.53,246.47,0.0,0.03
1526667242.47791409,62373374,-0.09,-0.17,-0.21,463.162811279,-14.95,-14.02,246.53,246.52,0.0,0.03
1526667242.57787418,62473334,-0.07,-0.16,-0.14,387.175109863,-15.09,-14.39,246.53,246.67,0.0,0.03
1526667242.67783403,62573294,0.06,-0.31,-0.08,348.991729736,-11.58,-14.55,246.53,246.78,0.0,0.03
1526667242.77779412,62673254,0.15,-0.69,0.0,596.067382812,-9.54,-13.77,246.53,246.87,0.0,0.07
1526667242.87775421,62773214,0.25,-0.9,0.07,1362.27575684,-8.68,-12.45,246.53,246.95,0.0,0.09
1526667242.97771406,62873174,0.38,-0.87,0.16,2274.99169922,-8.28,-11.15,246.53,246.98,0.0,0.08
1526667243.07850718,62973967,0.51,-0.68,0.27,2980.80957031,-8.16,-10.08,246.53,246.99,0.0,0.06
1526667243.17846704,63073927,0.62,-0.43,0.38,3387.30566406,-8.45,-9.27,246.53,246.93,0.0,0.01
1526667243.27842712,63173887,0.73,-0.04,0.49,3481.21118164,-8.82,-8.75,246.53,246.93,0.0,0.01
1526667243.37838721,63273847,0.8,0.37,0.61,3341.14086914,-9.1,-8.61,246.53,246.88,0.0,0.02
1526667243.47834706,63373807,0.82,0.7,0.7,3130.73461914,-9.4,-8.74,246.53,246.82,0.0,0.03
1526667243.57830715,63473767,0.8,0.91,0.77,2939.56762695,-9.73,-8.97,246.53,246.72,0.0,0.03
1526667243.67826700,63573727,0.72,1.05,0.8,2787.74951172,-10.26,-9.28,246.53,246.64,0.0,0.03
1526667243.77822709,63673687,0.63,1.1,0.79,2677.7590332,-10.55,-9.67,246.53,246.49,0.0,0.03
1526667243.87818718,63773647,0.52,1.06,0.74,2587.13183594,-10.75,-10.03,246.53,246.32,0.0,0.03
1526667243.97814703,63873607,0.4,0.99,0.66,2507.69042969,-11.17,-10.4,246.53,246.19,0.0,0.03
1526667244.07810712,63973567,0.29,0.91,0.54,2445.12036133,-11.54,-10.76,246.53,246.11,0.0,0.03
1526667244.17806721,64073527,0.19,0.81,0.42,2397.88085938,-11.68,-11.06,246.53,246.11,0.0,0.03
1526667244.27802706,64173487,0.11,0.65,0.29,2355.75561523,-11.82,-11.33,246.53,246.11,0.0,0.02
1526667244.37798715,64273447,0.02,0.51,0.17,2308.44677734,-12.01,-11.6,246.53,246.17,0.0,0.02
1526667244.47794700,64373407,-0.03,0.38,0.06,2259.8581543,-12.08,-11.81,246.53,246.26,0.0,0.02
1526667244.57790709,64473367,-0.07,0.27,-0.02,868.024719238,-12.02,-12.0,246.53,246.3,0.0,0.02
1526667244.67786717,64573327,-0.11,0.17,-0.09,784.670227051,-12.23,-12.12,246.53,246.3,0.0,0.02
1526667244.77782702,64673287,-0.13,0.07,-0.13,658.95300293,-12.44,-12.23,246.53,246.36,0.0,0.05
1526667244.87778711,64773247,-0.15,0.03,-0.16,565.422729492,-12.41,-12.35,246.53,246.49,0.0,0.05
1526667244.97774720,64873207,-0.18,-0.03,-0.17,501.25894165,-12.34,-12.47,246.53,246.62,0.0,0.05
1526667245.07770705,64973167,-0.21,-0.11,-0.18,429.401275635,-12.27,-12.53,246.53,246.74,0.0,0.05
1526667245.17850018,65073960,-0.23,-0.22,-0.19,361.597045898,-12.25,-12.56,246.53,246.86,0.0,0.05
1526667245.27846003,65173920,-0.23,-0.33,-0.2,321.18737793,-12.3,-12.59,246.53,246.99,0.0,0.02
1526667245.37842011,65273880,-0.22,-0.42,-0.2,321.854888916,-12.27,-12.59,246.53,247.13,0.0,0.02
1526667245.47838020,65373840,-0.2,-0.46,-0.2,352.411499023,-12.15,-12.5,246.53,247.29,0.0,0.02
1526667245.57834005,65473800,-0.16,-0.5,-0.19,398.535797119,-12.27,-12.38,246.53,247.35,0.0,0.02
1526667245.67830014,65573760,-0.08,-0.52,-0.16,465.075683594,-12.33,-12.26,246.53,247.36,0.0,0.02
1526667245.77825999,65673720,0.02,-0.54,-0.12,547.874145508,-12.2,-12.2,246.53,247.32,0.0,0.02
1526667245.87822008,65773680,0.1,-0.54,-0.05,664.295532227,-12.14,-12.19,246.53,247.25,0.0,0.02
1526667245.97818017,65873640,0.19,-0.47,0.01,790.440246582,-12.2,-12.09,246.53,247.1,0.0,0.02
1526667246.07814002,65973600,0.34,-0.32,0.1,881.185913086,-12.34,-12.07,246.53,246.93,0.0,0.02
1526667246.17810011,66073560,0.47,-0.14,0.22,922.413024902,-12.55,-12.1,246.53,246.76,0.0,0.02
1526667246.27806020,66173520,0.56,-0.01,0.34,940.451660156,-12.4,-12.17,246.53,246.66,0.0,0.02
1526667246.37802005,66273480,0.62,0.1,0.45,960.414123535,-12.39,-12.19,246.53,246.56,0.0,0.02
1526667246.47798014,66373440,0.64,0.22,0.55,973.972839355,-12.65,-12.18,246.53,246.5,0.0,0.02
1526667246.57794023,66473400,0.67,0.4,0.63,968.20300293,-12.52,-12.2,246.53,246.46,0.0,0.02
1526667246.67790008,66573360,0.67,0.58,0.68,934.415161133,-12.66,-12.28,246.53,246.45,0.0,0.02
1526667246.77786016,66673320,0.64,0.69,0.7,893.691101074,-12.85,-12.41,246.53,246.5,0.0,0.02
1526667246.87782001,66773280,0.56,0.72,0.7,854.93939209,-12.99,-12.51,246.53,246.54,0.0,0.05
1526667246.97778010,66873240,0.5,0.71,0.66,819.748291016,-12.99,-12.64,246.53,246.59,0.0,0.05
1526667247.07774019,66973200,0.41,0.69,0.59,789.051452637,-13.03,-12.77,246.53,246.66,0.0,0.05
1526667247.17853308,67073993,0.3,0.64,0.51,154.639404297,-12.84,-12.93,246.53,246.74,0.0,0.05
1526667247.27849317,67173953,0.2,0.51,0.41,131.478393555,-12.96,-13.06,246.53,246.8,0.0,0.02
1526667247.37845302,67273913,0.12,0.35,0.3,88.8009185791,-12.91,-13.14,246.53,246.89,0.0,0.02
1526667247.47841311,67373873,0.05,0.22,0.19,62.7906265259,-12.94,-13.19,246.53,247.03,0.0,0.02
1526667247.57837319,67473833,0.0,0.09,0.1,48.0043373108,-12.84,-13.23,246.53,247.12,0.0,0.02
1526667247.67833304,67573793,0.01,-0.07,0.02,46.564666748,-12.88,-13.23,246.53,247.12,0.0,0.02
1526667247.77829313,67673753,0.04,-0.16,-0.01,68.1619567871,-13.0,-13.22,246.53,247.07,0.0,0.02
1526667247.87825322,67773713,0.07,-0.19,-0.03,88.2289428711,-12.85,-13.22,246.53,246.94,0.0,0.02
1526667247.97821307,67873673,0.11,-0.23,-0.01,121.075080872,-12.88,-13.18,246.53,246.9,0.0,0.01
1526667248.07817316,67973633,0.19,-0.25,0.02,176.451522827,-12.84,-13.12,246.53,246.75,0.0,0.01
1526667248.17813301,68073593,0.27,-0.21,0.08,242.102493286,-12.85,-12.98,246.53,246.63,0.0,0.01
1526667248.27809310,68173553,0.35,-0.13,0.16,300.319580078,-12.82,-12.83,246.53,246.52,0.0,0.01
1526667248.37805319,68273513,0.4,-0.01,0.25,346.439239502,-12.83,-12.7,246.53,246.53,0.0,0.01
1526667248.47801304,68373473,0.44,0.12,0.34,370.191070557,-12.86,-12.63,246.53,246.53,0.0,0.01
1526667248.57797313,68473433,0.44,0.26,0.41,366.347839355,-13.0,-12.64,246.53,246.58,0.0,0.01
1526667248.67793322,68573393,0.42,0.33,0.46,354.570587158,-13.12,-12.66,246.53,246.68,0.0,0.01
1526667248.77789307,68673353,0.38,0.43,0.48,338.535797119,-13.07,-12.74,246.53,246.7,0.0,0.01
1526667248.87785316,68773313,0.35,0.48,0.47,319.006713867,-13.18,-12.83,246.53,246.63,0.0,0.01
1526667248.97781301,68873273,0.32,0.53,0.44,302.607910156,-13.26,-12.89,246.53,246.54,0.0,0.05
1526667249.07777309,68973233,0.28,0.59,0.4,297.007751465,-13.34,-13.0,246.53,246.46,0.0,0.06
1526667249.17773318,69073193,0.24,0.63,0.35,309.538879395,-13.4,-13.13,246.53,246.38,0.0,0.05
1526667249.27852607,69173986,0.18,0.58,0.3,331.473327637,-13.34,-13.23,246.53,246.36,0.0,0.05
1526667249.37848616,69273946,0.11,0.49,0.24,346.465484619,-13.36,-13.34,246.53,246.45,0.0,0.02
1526667249.47844601,69373906,0.03,0.4,0.17,354.818084717,-13.26,-13.45,246.53,246.57,0.0,0.02
1526667249.57840610,69473866,-0.02,0.23,0.1,354.139556885,-13.24,-13.54,246.53,246.67,0.0,0.01
1526667249.67836618,69573826,-0.03,0.03,0.03,341.891540527,-13.25,-13.58,246.53,246.74,0.0,0.01
1526667249.77832603,69673786,-0.03,-0.12,-0.01,120.859596252,-13.21,-13.59,246.53,246.79,0.0,0.01
1526667249.87828612,69773746,-0.03,-0.26,-0.04,284.284973145,-13.12,-13.53,246.53,246.79,0.0,0.01
1526667249.97824621,69873706,0.0,-0.33,-0.05,457.709259033,-13.16,-13.41,246.53,246.72,0.0,0.01
1526667250.07820606,69973666,0.07,-0.33,-0.04,567.837890625,-13.26,-13.26,246.53,246.64,0.0,0.01
1526667250.17816615,70073626,0.15,-0.27,0.0,619.812927246,-13.24,-13.16,246.53,246.56,0.0,0.01
1526667250.27812600,70173586,0.22,-0.19,0.05,631.677978516,-13.03,-13.09,246.53,246.52,0.0,0.01
1526667250.37808609,70273546,0.27,-0.16,0.12,646.406921387,-13.11,-13.07,246.53,246.58,0.0,0.01
1526667250.47804618,70373506,0.3,-0.1,0.2,682.074523926,-13.0,-13.0,246.53,246.67,0.0,0.01
1526667250.57800603,70473466,0.32,-0.02,0.26,698.761779785,-12.96,-12.93,246.53,246.7,0.0,0.01
1526667250.67796612,70573426,0.35,0.09,0.32,701.954467773,-13.14,-12.89,246.53,246.69,0.0,0.01
1526667250.77792621,70673386,0.35,0.22,0.36,667.783874512,-13.11,-12.91,246.53,246.75,0.0,0.01
1526667250.87788606,70773346,0.3,0.36,0.38,614.034667969,-13.26,-12.98,246.53,246.87,0.0,0.01
1526667250.97784615,70873306,0.26,0.43,0.37,563.585083008,-13.21,-13.12,246.53,246.98,0.0,0.01
1526667251.07780600,70973266,0.19,0.41,0.34,522.57598877,-13.24,-13.25,246.53,247.02,0.0,0.06
1526667251.17776608,71073226,0.14,0.4,0.3,490.66595459,-13.21,-13.33,246.53,246.93,0.0,0.06
1526667251.27772617,71173186,0.13,0.31,0.24,463.53729248,-13.13,-13.36,246.53,246.82,0.0,0.06
1526667251.37851906,71273979,0.17,0.2,0.19,435.351837158,-13.15,-13.34,246.53,246.53,0.0,0.05
1526667251.47847915,71373939,0.23,0.18,0.16,409.860412598,-13.05,-13.32,246.53,246.2,0.0,0.02
1526667251.57843900,71473899,0.25,0.12,0.16,387.443450928,-13.2,-13.28,246.53,246.04,0.0,0.01
1526667251.67839909,71573859,0.27,0.14,0.18,368.562347412,-13.35,-13.26,246.53,245.92,0.0,0.01
1526667251.77835917,71673819,0.3,0.17,0.2,350.901611328,-13.35,-13.31,246.53,245.82,0.0,0.01
1526667251.87831903,71773779,0.32,0.18,0.24,335.410003662,-13.23,-13.34,246.53,245.83,0.0,0.01
1526667251.97827911,71873739,0.31,0.17,0.27,323.80267334,-12.98,-13.3,246.53,245.91,0.0,0.01
1526667252.07823920,71973699,0.25,0.18,0.29,315.71383667,-13.18,-13.21,246.53,246.13,0.0,0.01
1526667252.17819905,72073659,0.18,0.2,0.29,307.155426025,-13.35,-13.14,246.53,246.41,0.0,0.01
1526667252.27815914,72173619,0.1,0.14,0.27,299.719604492,-13.33,-13.13,246.53,246.75,0.0,0.01
1526667252.37811899,72273579,0.03,0.06,0.21,252.92918396,-13.48,-13.15,246.53,247.08,0.0,0.01
1526667252.47807908,72373539,0.05,-0.13,0.15,310.128082275,-12.26,-13.27,88.31,247.17,0.0,0.01
1526667252.57803917,72473499,0.28,-0.85,0.12,2188.89575195,-8.65,-13.03,88.31,246.51,0.0,0.01
1526667252.67799902,72573459,0.63,-1.58,0.17,8036.81005859,-6.87,-11.82,88.31,244.95,0.0,0.0
1526667252.77795911,72673419,1.1,-1.85,0.32,15980.4785156,-5.72,-10.09,88.31,242.75,0.0,0.01
1526667252.87791920,72773379,1.67,-1.58,0.6,22506.0371094,-4.81,-8.22,88.31,240.14,0.0,0.0
1526667252.97787905,72873339,2.28,-0.94,1.01,25896.0234375,-4.05,-6.58,88.31,237.22,0.0,0.0
1526667253.07783914,72973299,2.83,-0.11,1.52,26844.3554688,-3.43,-5.22,88.31,234.15,0.0,0.01
1526667253.17779922,73073259,3.27,0.8,2.09,26174.96875,-2.88,-4.17,88.31,230.95,0.0,0.04
1526667253.27775908,73173219,3.61,1.71,2.66,24672.078125,-2.39,-3.37,88.31,227.61,0.0,0.04
1526667253.37771916,73273179,3.79,2.47,3.18,22876.3613281,-1.91,-2.76,88.31,224.16,0.0,0.03
1526667253.47851205,73373972,3.84,3.08,3.59,21134.6152344,-1.44,-2.22,88.31,220.48,0.0,0.03
1526667253.57847214,73473932,3.74,3.54,3.86,19524.4453125,-1.03,-1.79,88.31,216.65,0.0,0.03
1526667253.67843223,73573892,3.48,3.85,3.96,18065.0195312,-0.62,-1.47,88.31,212.75,0.0,0.03
1526667253.77839208,73673852,3.07,3.9,3.89,16779.2773438,-0.19,-1.23,88.31,208.79,0.0,0.03
1526667253.87835217,73773812,2.55,3.76,3.64,15666.0361328,0.22,-0.98,88.31,204.85,0.0,0.03
1526667253.97831202,73873772,1.86,3.42,3.22,14704.2109375,0.66,-0.72,88.31,200.94,0.0,0.02
1526667254.07827210,73973732,1.03,2.88,2.64,13866.8222656,1.1,-0.49,88.31,197.01,0.0,0.02
1526667254.17823219,74073692,0.03,2.16,1.9,13131.7167969,1.56,-0.22,88.31,193.08,0.0,0.01
1526667254.27819204,74173652,-1.21,1.29,1.01,12479.4130859,1.97,0.12,88.31,189.15,0.0,0.01
1526667254.37815213,74273612,-2.64,0.26,-0.06,11902.1210938,2.23,0.46,88.31,185.21,0.0,0.01
1526667254.47811222,74373572,-3.27,-0.86,-1.22,11392.0292969,2.12,0.78,88.31,181.29,0.0,0.0
1526667254.57807207,74473532,-3.4,-1.82,-2.27,10954.1796875,1.86,1.04,88.31,177.4,0.0,0.01
1526667254.67803216,74573492,-3.28,-2.57,-3.07,10585.3466797,1.55,1.25,88.31,173.49,0.0,0.01
1526667254.77799201,74673452,-2.98,-3.08,-3.53,10241.6914062,1.22,1.47,88.31,169.64,0.0,0.01
1526667254.87795210,74773412,-2.53,-3.22,-3.65,9909.80078125,0.91,1.69,88.31,165.74,0.0,0.02
1526667254.97791219,74873372,-2.29,-3.02,-3.48,2164.26269531,0.5,1.78,88.31,161.85,0.0,0.03
1526667255.07787204,74973332,-2.23,-2.67,-3.14,2174.16699219,-0.07,1.66,88.31,157.97,0.0,0.03
1526667255.17783213,75073292,-2.22,-2.28,-2.75,2183.21679688,-0.71,1.36,88.31,154.05,0.0,0.04
1526667255.27779222,75173252,-2.3,-1.93,-2.4,2219.79833984,-1.35,0.78,88.31,150.12,0.0,0.01
1526667255.37775207,75273212,-2.43,-1.66,-2.14,2222.14086914,-1.95,0.02,88.31,146.14,0.0,0.01
1526667255.47771215,75373172,-2.6,-1.56,-2.0,2206.4140625,-2.45,-0.77,88.31,142.22,0.0,0.01
1526667255.57850504,75473965,-2.8,-1.59,-2.0,2141.13354492,-2.95,-1.58,88.31,138.32,0.0,0.01
1526667255.67846513,75573925,-2.98,-1.74,-2.11,2059.81884766,-3.43,-2.3,88.31,134.44,0.0,0.01
1526667255.77842522,75673885,-3.15,-1.97,-2.31,1962.73498535,-3.9,-2.98,88.31,130.51,0.0,0.01
1526667255.87838507,75773845,-3.29,-2.25,-2.56,1863.53271484,-4.33,-3.58,88.31,126.55,0.0,0.01
1526667255.97834516,75873805,-3.36,-2.51,-2.81,1769.61218262,-4.77,-4.17,88.31,122.55,0.0,0.01
1526667256.07830501,75973765,-3.29,-2.74,-3.04,1696.63525391,-5.16,-4.71,88.31,118.51,0.0,0.02
1526667256.17826509,76073725,-2.98,-2.94,-3.17,1618.33410645,-5.35,-5.12,88.31,114.45,0.0,0.02
1526667256.27822518,76173685,-2.54,-3.05,-3.16,1520.55639648,-5.47,-5.37,88.31,110.47,0.0,0.02
1526667256.37818503,76273645,-2.05,-3.04,-2.98,1414.45996094,-5.6,-5.48,88.31,106.57,0.0,0.02
1526667256.47814512,76373605,-1.52,-2.91,-2.65,1336.6505127,-5.73,-5.46,88.31,102.67,0.0,0.03
1526667256.57810521,76473565,-0.97,-2.62,-2.2,1330.63867188,-5.88,-5.4,88.31,98.78,0.0,0.03
1526667256.67806506,76573525,-0.42,-2.16,-1.66,1380.11096191,-6.03,-5.37,88.31,94.91,0.0,0.03
1526667256.77802515,76673485,0.12,-1.45,-1.06,1418.78186035,-6.19,-5.3,88.31,91.21,0.0,0.03
1526667256.87798500,76773445,0.62,-0.67,-0.45,1391.09375,-6.35,-5.32,88.31,88.0,0.0,0.02
1526667256.97794509,76873405,0.97,0.1,0.13,1330.19543457,-6.54,-5.44,88.31,85.44,0.0,0.02
1526667257.07790518,76973365,1.16,0.78,0.64,1269.36938477,-6.72,-5.62,88.31,83.67,0.0,0.01
1526667257.17786503,77073325,1.17,1.28,1.03,1229.24035645,-6.96,-5.86,88.31,82.77,0.0,0.0
1526667257.27782512,77173285,1.07,1.58,1.27,1208.28430176,-7.21,-6.15,88.31,82.58,0.0,0.02
1526667257.37778521,77273245,0.83,1.72,1.34,1207.58190918,-7.47,-6.51,88.31,83.04,0.0,0.02
1526667257.47774506,77373205,0.49,1.67,1.24,1226.11535645,-7.7,-6.96,88.31,83.97,0.0,0.01
1526667257.57853818,77473998,0.06,1.4,0.99,1641.24328613,-7.91,-7.35,88.31,85.22,0.0,0.0
1526667257.67849803,77573958,-0.36,0.96,0.61,1378.42321777,-8.13,-7.67,88.31,86.56,0.0,0.0
1526667257.77845812,77673918,-0.72,0.43,0.16,1145.71166992,-8.56,-7.96,88.31,87.84,0.0,0.02
1526667257.87841821,77773878,-1.0,-0.08,-0.3,961.867858887,-9.05,-8.24,88.31,88.93,0.0,0.02
1526667257.97837806,77873838,-1.2,-0.49,-0.75,862.996520996,-9.56,-8.5,88.31,89.66,0.0,0.02
1526667258.07833815,77973798,-1.3,-0.78,-1.13,883.350891113,-10.07,-8.87,88.31,90.02,0.0,0.02
1526667258.17829800,78073758,-1.31,-1.0,-1.4,977.06036377,-10.6,-9.26,88.31,90.12,0.0,0.02
1526667258.27825809,78173718,-1.27,-1.12,-1.56,1105.8626709,-11.11,-9.72,88.31,90.04,0.0,0.02
1526667258.37821817,78273678,-1.17,-1.18,-1.61,1219.26940918,-11.6,-10.22,88.31,89.78,0.0,0.02
1526667258.47817802,78373638,-1.01,-1.17,-1.56,1280.05761719,-12.06,-10.72,88.31,89.42,0.0,0.01
1526667258.57813811,78473598,-0.85,-1.11,-1.42,1275.90722656,-12.5,-11.15,88.31,89.04,0.0,0.01
1526667258.67809820,78573558,-0.71,-0.99,-1.23,1228.55981445,-12.96,-11.56,88.31,88.61,0.0,0.01
1526667258.77805805,78673518,-0.54,-0.82,-1.01,1164.36315918,-13.4,-12.03,88.31,88.18,0.0,0.01
1526667258.87801814,78773478,-0.38,-0.61,-0.78,1099.97741699,-13.81,-12.52,88.31,87.75,0.0,0.01
1526667258.97797799,78873438,-0.28,-0.41,-0.56,1041.71655273,-14.22,-13.0,88.31,87.43,0.0,0.01
1526667259.07793808,78973398,-0.21,-0.26,-0.37,982.359191895,-14.61,-13.45,88.31,87.24,0.0,0.02
1526667259.17789817,79073358,-0.18,-0.12,-0.22,928.232055664,-14.97,-13.86,88.31,87.18,0.0,0.02
1526667259.27785802,79173318,-0.23,-0.03,-0.13,880.202087402,-15.12,-14.26,88.31,87.26,0.0,0.02
1526667259.37781811,79273278,-0.32,0.0,-0.11,838.543762207,-15.19,-14.66,88.31,87.4,0.0,0.02
1526667259.47777820,79373238,-0.39,-0.02,-0.14,802.962402344,-15.2,-15.03,88.31,87.54,0.0,0.02
1526667259.57773805,79473198,-0.5,-0.17,-0.21,767.804382324,-15.2,-15.35,88.31,87.72,0.0,0.02
1526667259.67853117,79573991,-0.59,-0.43,-0.33,732.649108887,-15.16,-15.53,88.31,87.93,0.0,0.02
1526667259.77849102,79673951,-0.67,-0.67,-0.45,712.550598145,-14.87,-15.61,88.31,88.07,0.0,0.01
1526667259.87845111,79773911,-0.88,-1.03,-0.59,723.848754883,-11.48,-15.24,88.31,88.21,0.0,0.01
1526667259.97841120,79873871,-0.92,-1.45,-0.75,831.079956055,-10.01,-14.12,88.31,88.36,0.0,0.01
1526667260.07837105,79973831,-0.85,-1.72,-0.87,1050.7220459,-9.3,-12.73,88.31,88.43,0.0,0.02
1526667260.17833114,80073791,-0.69,-1.72,-0.93,6209.03662109,-9.14,-11.48,88.31,88.38,0.0,0.02
1526667260.27829123,80173751,-0.5,-1.51,-0.91,4936.55175781,-9.26,-10.48,88.31,88.4,0.0,0.01
1526667260.37825108,80273711,-0.34,-1.13,-0.82,3543.14111328,-9.54,-9.83,88.31,88.45,0.0,0.01
1526667260.47821116,80373671,-0.21,-0.72,-0.67,2475.37792969,-9.7,-9.5,88.31,88.5,0.0,0.0
1526667260.57817101,80473631,-0.13,-0.39,-0.5,1872.02270508,-9.93,-9.45,88.31,88.49,0.0,0.0
1526667260.67813110,80573591,-0.1,-0.14,-0.34,1553.27905273,-10.42,-9.61,88.31,88.49,0.0,0.01
1526667260.77809119,80673551,-0.13,0.03,-0.21,1388.54553223,-10.87,-9.95,88.31,88.5,0.0,0.01
1526667260.87805104,80773511,-0.18,0.06,-0.12,1258.3581543,-11.34,-10.35,88.31,88.52,0.0,0.01
1526667260.97801113,80873471,-0.25,0.04,-0.09,1132.15844727,-11.54,-10.7,88.31,88.51,0.0,0.01
1526667261.07797122,80973431,-0.29,0.0,-0.11,1021.23034668,-11.81,-11.05,88.31,88.49,0.0,0.01
1526667261.17793107,81073391,-0.33,-0.03,-0.15,935.542175293,-12.29,-11.35,88.31,88.47,0.0,0.01
1526667261.27789116,81173351,-0.36,-0.07,-0.22,869.062133789,-12.56,-11.64,88.31,88.44,0.0,0.01
1526667261.37785101,81273311,-0.41,-0.17,-0.29,812.381774902,-12.68,-11.92,88.31,88.38,0.0,0.01
1526667261.47781110,81373271,-0.46,-0.25,-0.37,761.360351562,-13.03,-12.16,88.31,88.31,0.0,0.02
1526667261.57777119,81473231,-0.48,-0.25,-0.44,724.151184082,-13.06,-12.4,88.31,88.19,0.0,0.02
1526667261.67773104,81573191,-0.45,-0.24,-0.49,710.689453125,-13.19,-12.62,88.31,88.02,0.0,0.03
1526667261.77852416,81673984,-0.44,-0.26,-0.52,711.93157959,-13.34,-12.8,88.31,87.86,0.0,0.02
1526667261.87848401,81773944,-0.43,-0.31,-0.53,706.02355957,-13.2,-12.94,88.31,87.8,0.0,0.01
1526667261.97844410,81873904,-0.43,-0.37,-0.52,685.923461914,-13.23,-13.07,88.31,87.79,0.0,0.01
1526667262.07840419,81973864,-0.42,-0.39,-0.5,659.008850098,-13.25,-13.13,88.31,87.86,0.0,0.01
1526667262.17836404,82073824,-0.42,-0.42,-0.48,630.991638184,-13.07,-13.18,88.31,88.01,0.0,0.01
1526667262.27832413,82173784,-0.42,-0.54,-0.46,601.832885742,-13.37,-13.22,88.31,88.16,0.0,0.01
1526667262.37828422,82273744,-0.41,-0.62,-0.44,582.716674805,-13.25,-13.23,88.31,88.24,0.0,0.01
1526667262.47824407,82373704,-0.39,-0.67,-0.43,576.699523926,-13.37,-13.23,88.31,88.27,0.0,0.01
1526667262.57820415,82473664,-0.33,-0.65,-0.41,578.088134766,-13.44,-13.28,88.31,88.2,0.0,0.01
1526667262.67816401,82573624,-0.23,-0.57,-0.37,574.880859375,-13.4,-13.3,88.31,88.09,0.0,0.01
1526667262.77812409,82673584,-0.15,-0.46,-0.32,174.193389893,-13.27,-13.31,88.31,88.0,0.0,0.01
1526667262.87808418,82773544,-0.11,-0.39,-0.26,149.780670166,-13.29,-13.28,88.31,87.99,0.0,0.01
1526667262.97804403,82873504,-0.11,-0.28,-0.2,124.471954346,-13.33,-13.23,88.31,88.03,0.0,0.01
1526667263.07800412,82973464,-0.14,-0.17,-0.16,91.0534591675,-13.42,-13.23,88.31,88.12,0.0,0.01
1526667263.17796421,83073424,-0.17,-0.06,-0.14,72.5103378296,-13.48,-13.27,88.31,88.21,0.0,0.01
1526667263.27792406,83173384,-0.23,0.0,-0.14,88.1105422974,-13.51,-13.37,88.31,88.35,0.0,0.01
1526667263.37788415,83273344,-0.29,0.0,-0.16,115.464958191,-13.55,-13.51,88.31,88.45,0.0,0.01
1526667263.47784400,83373304,-0.33,-0.06,-0.21,139.217422485,-13.53,-13.62,88.31,88.55,0.0,0.01
1526667263.57780409,83473264,-0.37,-0.17,-0.26,139.962493896,-13.58,-13.68,88.31,88.64,0.0,0.03
1526667263.67776418,83573224,-0.37,-0.19,-0.32,137.102813721,-13.47,-13.76,88.31,88.65,0.0,0.03
1526667263.77772403,83673184,-0.39,-0.22,-0.37,143.44128418,-13.57,-13.79,88.31,88.64,0.0,0.03
1526667263.87851715,83773977,-0.4,-0.2,-0.4,159.196121216,-13.61,-13.78,88.31,88.59,0.0,0.03
1526667263.97847700,83873937,-0.38,-0.2,-0.43,187.198547363,-13.58,-13.78,88.31,88.5,0.0,0.01
1526667264.07843709,83973897,-0.35,-0.26,-0.43,207.719833374,-13.57,-13.71,88.31,88.45,0.0,0.01
1526667264.17839718,84073857,-0.33,-0.3,-0.42,208.145690918,-13.71,-13.67,88.31,88.41,0.0,0.01
1526667264.27835703,84173817,-0.3,-0.33,-0.4,203.0650177,-13.68,-13.75,71.76,88.45,0.0,0.01
1526667264.37831712,84273777,-2.13,-0.96,-0.56,217.245223999,-13.31,-14.07,71.76,88.1,0.0,0.01
1526667264.47827721,84373737,-2.76,-1.97,-1.03,491.097686768,-13.35,-14.28,71.76,86.92,0.0,0.0
1526667264.57823706,84473697,-2.71,-2.8,-1.6,1127.89001465,-13.56,-14.29,71.76,84.98,0.0,0.01
1526667264.67819715,84573657,-2.22,-3.25,-2.06,1834.93859863,-13.82,-14.25,71.76,82.44,0.0,0.01
1526667264.77815700,84673617,-1.4,-3.33,-2.27,2377.83227539,-14.07,-14.19,71.76,79.52,0.0,0.02
1526667264.87811708,84773577,-0.36,-2.86,-2.14,2653.3984375,-14.31,-13.95,71.76,76.43,0.0,0.02
1526667264.97807717,84873537,0.71,-1.93,-1.65,2652.69604492,-14.52,-13.68,71.76,73.51,0.0,0.02
1526667265.07803702,84973497,1.72,-0.65,-0.86,2546.10742188,-14.76,-13.5,71.76,70.97,0.0,0.01
1526667265.17799711,85073457,2.53,0.74,0.13,2521.0402832,-15.03,-13.52,71.76,69.05,0.0,0.0
1526667265.27795720,85173417,3.04,1.98,1.18,2626.07714844,-15.2,-13.7,71.76,67.83,0.0,0.01
1526667265.37791705,85273377,3.3,2.94,2.15,6161.43554688,-15.3,-13.99,71.76,67.22,0.0,0.01
1526667265.47787714,85373337,3.29,3.52,2.92,4969.33691406,-15.4,-14.31,71.76,67.17,0.0,0.02
1526667265.57783723,85473297,3.02,3.73,3.42,3518.55981445,-15.47,-14.6,71.76,67.65,0.0,0.02
1526667265.67779708,85573257,2.6,3.73,3.6,2497.66162109,-15.53,-14.91,71.76,68.4,0.0,0.04
1526667265.77775717,85673217,2.1,3.56,3.47,1899.18786621,-15.59,-15.26,71.76,69.25,0.0,0.04
1526667265.87771702,85773177,1.54,3.19,3.1,1535.44055176,-15.61,-15.58,71.76,70.14,0.0,0.04
1526667265.97851014,85873970,0.96,2.64,2.52,1298.0793457,-15.56,-15.83,71.76,71.02,0.0,0.03
1526667266.07846999,85973930,0.45,1.92,1.84,1125.66345215,-15.53,-15.98,71.76,71.78,0.0,0.02
1526667266.17843008,86073890,0.04,1.21,1.12,991.863525391,-15.48,-16.05,71.76,72.36,0.0,0.01
1526667266.27839017,86173850,-0.21,0.58,0.45,892.800292969,-15.41,-16.02,71.76,72.72,0.0,0.01
1526667266.37835002,86273810,-0.36,0.08,-0.09,823.361877441,-15.36,-15.89,71.76,72.94,0.0,0.01
1526667266.47831011,86373770,-0.42,-0.2,-0.49,800.262390137,-15.34,-15.77,71.76,73.02,0.0,0.01
1526667266.57827020,86473730,-0.4,-0.37,-0.74,832.797973633,-15.33,-15.66,71.76,72.95,0.0,0.01
1526667266.67823005,86573690,-0.31,-0.49,-0.83,877.401855469,-15.34,-15.56,71.76,72.78,0.0,0.01
1526667266.77819014,86673650,-0.15,-0.59,-0.78,868.834777832,-15.37,-15.46,71.76,72.55,0.0,0.01
1526667266.87815022,86773610,0.05,-0.57,-0.63,822.072875977,-15.39,-15.39,71.76,72.22,0.0,0.01
1526667266.97811007,86873570,0.25,-0.49,-0.39,772.354309082,-15.27,-15.34,71.76,71.89,0.0,0.01
1526667267.07807016,86973530,0.43,-0.3,-0.11,740.983642578,-15.09,-15.24,71.76,71.64,0.0,0.01
1526667267.17803001,87073490,0.59,-0.09,0.17,727.743469238,-14.88,-15.11,71.76,71.42,0.0,0.01
1526667267.27799010,87173450,0.72,0.13,0.44,733.034423828,-14.68,-14.98,71.76,71.24,0.0,0.01
1526667267.37795019,87273410,0.77,0.35,0.66,746.489135742,-14.48,-14.86,71.76,71.17,0.0,0.01
1526667267.47791004,87373370,0.77,0.5,0.83,760.596252441,-14.25,-14.72,71.76,71.15,0.0,0.01
1526667267.57787013,87473330,0.71,0.6,0.92,776.162658691,-14.01,-14.58,71.76,71.23,0.0,0.01
1526667267.67783022,87573290,0.65,0.63,0.94,788.733093262,-13.75,-14.43,71.76,71.32,0.0,0.05
1526667267.77779007,87673250,0.59,0.66,0.9,787.671813965,-13.48,-14.22,71.76,71.42,0.0,0.05
1526667267.87775016,87773210,0.49,0.66,0.81,770.756652832,-13.2,-14.02,71.76,71.5,0.0,0.05
1526667267.97771001,87873170,0.38,0.6,0.69,98.3759384155,-12.9,-13.77,71.76,71.54,0.0,0.05
1526667268.07850313,87973963,0.29,0.56,0.56,36.2260704041,-12.58,-13.55,71.76,71.5,0.0,0.05
1526667268.17846322,88073923,0.2,0.52,0.42,35.5795898438,-12.25,-13.29,71.76,71.53,0.0,0.01
1526667268.27842307,88173883,0.09,0.37,0.29,51.8636207581,-11.92,-12.95,71.76,71.64,0.0,0.0
1526667268.37838316,88273843,-0.02,0.18,0.16,46.3339881897,-11.56,-12.62,71.76,71.8,0.0,0.0
1526667268.47834301,88373803,-0.11,-0.03,0.04,40.9361724854,-11.2,-12.29,71.76,71.96,0.0,0.0
1526667268.57830310,88473763,-0.17,-0.23,-0.05,64.0877990723,-10.82,-11.94,71.76,72.04,0.0,0.0
1526667268.67826319,88573723,-0.17,-0.34,-0.13,106.730003357,-10.4,-11.56,71.76,72.06,0.0,0.0
1526667268.77822304,88673683,-0.16,-0.44,-0.18,163.816436768,-9.95,-11.12,71.76,72.09,0.0,0.0
1526667268.87818313,88773643,-0.13,-0.46,-0.2,221.75112915,-9.49,-10.64,71.76,72.1,0.0,0.0
1526667268.97814322,88873603,-0.09,-0.44,-0.19,262.080230713,-9.0,-10.16,71.76,72.08,0.0,0.0
1526667269.07810307,88973563,-0.05,-0.39,-0.15,290.15536499,-8.48,-9.71,71.76,72.08,0.0,0.0
1526667269.17806315,89073523,-0.02,-0.4,-0.1,320.906188965,-8.04,-9.28,71.76,72.07,0.0,0.0
1526667269.27802300,89173483,0.0,-0.37,-0.05,366.430969238,-7.23,-8.76,71.76,71.97,0.0,0.0
1526667269.37798309,89273443,0.04,-0.34,0.0,410.255462646,-6.74,-8.14,71.76,71.86,0.0,0.0
1526667269.47794318,89373403,0.06,-0.29,0.04,461.022979736,-6.35,-7.52,71.76,71.73,0.0,0.0
1526667269.57790303,89473363,0.05,-0.21,0.07,492.195404053,-6.03,-7.03,71.76,71.69,0.0,0.0
1526667269.67786312,89573323,0.03,-0.14,0.09,504.402709961,-5.74,-6.6,71.76,71.72,0.0,0.0
1526667269.77782321,89673283,0.0,-0.08,0.1,502.156890869,-5.44,-6.22,71.76,71.76,0.0,0.04
1526667269.87778306,89773243,-0.05,-0.03,0.08,488.424865723,-5.11,-5.84,71.76,71.78,0.0,0.05
1526667269.97774315,89873203,-0.1,0.03,0.05,466.849456787,-4.78,-5.51,71.76,71.79,0.0,0.05
1526667270.07853603,89973996,-0.13,0.01,0.0,444.680480957,-4.36,-5.2,71.76,71.81,0.0,0.04
1526667270.17849612,90073956,-0.16,-0.03,-0.04,424.548980713,-4.0,-4.88,71.76,71.81,0.0,0.0
1526667270.27845621,90173916,-0.19,-0.07,-0.09,406.197784424,-3.56,-4.54,71.76,71.8,0.0,0.0
1526667270.37841606,90273876,-0.23,-0.12,-0.14,389.569152832,-3.06,-4.18,71.76,71.85,0.0,0.0
1526667270.47837615,90373836,-0.23,-0.19,-0.18,374.034667969,-2.51,-3.79,71.76,71.9,0.0,0.0
1526667270.57833600,90473796,-1.1,-0.31,-0.25,28.4289512634,-0.39,-3.3,71.77,71.94,0.0,0.0
1526667270.67829609,90573756,-1.04,-0.82,-0.46,365.004577637,5.26,-2.19,71.77,71.99,0.0,0.01
1526667270.77825618,90673716,-0.89,-1.72,-0.66,2864.6418457,9.98,0.35,71.77,72.01,0.0,0.04
1526667270.87821603,90773676,-0.66,-2.2,-0.78,7479.55761719,11.35,3.79,71.77,71.93,0.0,0.07
1526667270.97817612,90873636,-0.34,-1.99,-0.79,10120.1435547,11.28,6.88,71.77,71.88,0.0,0.06
1526667271.07813621,90973596,-0.02,-1.29,-0.68,9828.8984375,10.27,9.05,71.77,71.85,0.0,0.05
1526667271.17809606,91073556,0.24,-0.37,-0.48,8356.63867188,8.77,10.04,71.77,71.9,0.0,0.02
1526667271.27805614,91173516,0.41,0.43,-0.21,7431.87060547,6.95,9.99,71.77,71.87,0.0,0.0
1526667271.37801600,91273476,0.41,1.06,0.05,7414.39501953,5.07,9.16,71.77,71.83,0.0,0.01
1526667271.47797608,91373436,0.3,1.44,0.26,7973.89208984,3.24,7.77,71.77,71.85,0.0,0.03
1526667271.57793617,91473396,0.09,1.57,0.38,8584.30859375,1.61,6.18,71.77,71.89,0.0,0.03
1526667271.67789602,91573356,-0.08,1.51,0.38,9037.39550781,0.22,4.54,71.77,71.91,0.0,0.04
1526667271.77785611,91673316,-0.28,1.27,0.29,9194.61230469,-0.88,2.95,71.77,71.9,0.0,0.04
1526667271.87781620,91773276,-0.47,0.95,0.12,9101.91015625,-1.66,1.52,71.77,71.99,0.0,0.01
1526667271.97777605,91873236,-0.64,0.57,-0.09,8846.39746094,-2.18,0.33,71.77,72.09,0.0,0.0
1526667272.07773614,91973196,-0.76,0.23,-0.32,8495.02050781,-2.44,-0.59,71.77,72.18,0.0,0.01
1526667272.17852902,92073989,-0.8,-0.04,-0.55,8142.92529297,-2.48,-1.31,71.77,72.22,0.0,0.01
1526667272.27848911,92173949,-0.78,-0.32,-0.72,7788.77587891,-2.39,-1.84,71.77,72.21,0.0,0.02
1526667272.37844920,92273909,-0.7,-0.59,-0.83,7417.05566406,-2.18,-2.19,71.77,72.23,0.0,0.01
1526667272.47840905,92373869,-0.56,-0.77,-0.86,7042.39404297,-1.83,-2.3,71.77,72.15,0.0,0.01
1526667272.57836914,92473829,-0.4,-0.85,-0.81,6691.6875,-1.44,-2.16,71.77,72.01,0.0,0.0
1526667272.67832899,92573789,-0.22,-0.8,-0.69,6375.77587891,-1.01,-1.91,71.77,71.87,0.0,0.0
1526667272.77828908,92673749,-0.05,-0.74,-0.52,6098.09814453,-0.61,-1.59,71.77,71.72,0.0,0.0
1526667272.87824917,92773709,0.1,-0.65,-0.32,5866.46728516,-0.29,-1.15,71.77,71.62,0.0,0.0
1526667272.97820902,92873669,0.28,-0.53,-0.11,5680.06640625,0.0,-0.69,71.77,71.61,0.0,0.0
1526667273.07816911,92973629,0.49,-0.35,0.1,5532.35644531,0.16,-0.27,71.77,71.58,0.0,0.0
1526667273.17812920,93073589,0.66,-0.14,0.32,2155.01098633,0.27,0.0,71.77,71.6,0.0,0.0
1526667273.27808905,93173549,0.78,0.08,0.52,2059.03857422,0.31,0.17,71.77,71.61,0.0,0.0
1526667273.37804914,93273509,0.88,0.29,0.69,1933.92822266,0.35,0.3,71.77,71.6,0.0,0.0
1526667273.47800922,93373469,0.9,0.49,0.83,1762.2487793,0.39,0.41,71.77,71.6,0.0,0.0
1526667273.57796907,93473429,0.9,0.66,0.92,1544.47973633,0.42,0.47,71.77,71.54,0.0,0.0
1526667273.67792916,93573389,0.85,0.74,0.96,1356.03430176,0.42,0.49,71.77,71.4,0.0,0.0
1526667273.77788901,93673349,0.81,0.79,0.95,1196.8807373,0.42,0.45,71.77,71.29,0.0,0.01
1526667273.87784910,93773309,0.76,0.83,0.91,1046.72241211,0.43,0.41,71.77,71.19,0.0,0.01
1526667273.97780919,93873269,0.69,0.83,0.84,920.037963867,0.43,0.36,71.77,71.15,0.0,0.03
1526667274.07776904,93973229,0.64,0.8,0.76,818.383300781,0.39,0.29,71.77,71.14,0.0,0.03
1526667274.17772913,94073189,0.58,0.74,0.68,738.618530273,0.4,0.23,71.77,71.16,0.0,0.03
