timestamp,TimeUS,DesR,R,IR,IRErr,DesP,P,DesY,Y,ErrRP,ErrYaw
1526667435.15597606,26571867,0.0,0.91,0.0,7677.91113281,0.0,0.16,354.87,354.87,0.0,0.0
1526667435.25593615,26671827,0.0,0.91,0.0,7728.16894531,0.0,0.16,354.8,354.8,0.0,0.0
1526667435.35589600,26771787,0.0,0.89,0.0,7755.76904297,0.0,0.15,354.75,354.75,0.0,0.0
1526667435.45585608,26871747,0.0,0.85,0.0,7737.24121094,0.0,0.15,354.7,354.7,0.0,0.0
1526667435.55581617,26971707,0.0,0.81,0.0,7677.47167969,0.0,0.18,354.65,354.65,0.0,0.0
1526667435.65577602,27071667,0.0,0.77,0.0,7589.72949219,0.0,0.21,354.6,354.6,0.0,0.0
1526667435.75573611,27171627,0.0,0.75,0.0,7486.42041016,0.0,0.23,354.56,354.56,0.0,0.0
1526667435.85569596,27271587,0.0,0.72,0.0,7371.51123047,0.0,0.24,354.52,354.52,0.0,0.0
1526667435.95565605,27371547,0.0,0.69,0.0,7242.03027344,0.0,0.25,354.47,354.47,0.0,0.0
1526667436.05561614,27471507,0.0,0.66,0.0,7107.43359375,0.0,0.24,354.41,354.41,0.0,0.0
1526667436.15557599,27571467,0.0,0.67,0.0,6978.78808594,0.0,0.22,354.33,354.33,0.0,0.0
1526667436.25553608,27671427,0.0,0.7,0.0,6874.41943359,0.0,0.21,354.23,354.23,0.0,0.0
1526667436.35549617,27771387,0.0,0.73,0.0,6797.23144531,0.0,0.22,354.16,354.16,0.0,0.0
1526667436.45545602,27871347,0.0,0.75,0.0,6743.43652344,0.0,0.25,354.1,354.1,0.0,0.0
1526667436.55541611,27971307,0.0,0.77,0.0,6707.19091797,0.0,0.3,354.02,354.02,0.0,0.0
1526667436.65537596,28071267,0.0,0.79,0.0,6682.79638672,0.0,0.35,353.92,353.92,0.0,0.0
1526667436.75533605,28171227,0.0,0.81,0.0,6484.67480469,0.0,0.4,353.83,353.83,0.0,0.0
1526667436.85529613,28271187,0.0,0.83,0.0,6608.6875,0.0,0.44,353.75,353.75,0.0,0.0
1526667436.95525599,28371147,0.0,0.86,0.0,6820.04150391,0.0,0.48,353.67,353.67,0.0,0.0
1526667437.05521607,28471107,0.0,0.89,0.0,7053.40625,0.0,0.52,353.57,353.57,0.0,0.0
1526667437.15517616,28571067,0.0,0.91,0.0,7270.91015625,0.0,0.56,353.47,353.47,0.0,0.0
1526667437.25596905,28671860,0.0,0.92,0.0,7443.83349609,0.0,0.59,353.34,353.34,0.0,0.0
1526667437.35592914,28771820,0.0,0.93,0.0,7592.875,0.0,0.59,353.22,353.22,0.0,0.0
1526667437.45588899,28871780,0.0,0.94,0.0,7727.22802734,0.0,0.59,353.11,353.11,0.0,0.0
1526667437.55584908,28971740,0.0,0.94,0.0,7850.42480469,0.0,0.59,353.01,353.01,0.0,0.0
1526667437.65580916,29071700,0.0,0.95,0.0,7957.01513672,0.0,0.58,352.9,352.9,0.0,0.0
1526667437.75576901,29171660,0.0,0.96,0.0,8066.69335938,0.0,0.59,352.78,352.78,0.0,0.0
1526667437.85572910,29271620,0.0,0.96,0.0,8162.46875,0.0,0.61,352.64,352.64,0.0,0.0
1526667437.95568895,29371580,0.0,0.98,0.0,8252.80371094,0.0,0.63,352.49,352.49,0.0,0.0
1526667438.05564904,29471540,0.0,1.01,0.0,8367.68945312,0.0,0.63,352.38,352.38,0.0,0.0
1526667438.15560913,29571500,0.0,1.04,0.0,8504.17285156,0.0,0.62,352.28,352.28,0.0,0.0
1526667438.25556898,29671460,0.0,1.07,0.0,8665.40136719,0.0,0.62,352.19,352.19,0.0,0.0
1526667438.35552907,29771420,0.0,1.09,0.0,8845.64257812,0.0,0.62,352.07,352.07,0.0,0.0
1526667438.45548916,29871380,0.0,1.11,0.0,9031.6640625,0.0,0.62,351.94,351.94,0.0,0.0
1526667438.55544901,29971340,0.0,1.13,0.0,9221.26269531,0.0,0.63,351.81,351.81,0.0,0.0
1526667438.65540910,30071300,0.0,1.14,0.0,9408.01367188,0.0,0.64,351.68,351.68,0.0,0.0
1526667438.75536919,30171260,0.0,1.16,0.0,9589.80566406,0.0,0.64,351.54,351.54,0.0,0.0
1526667438.85532904,30271220,0.0,1.18,0.0,9780.93945312,0.0,0.63,351.43,351.43,0.0,0.0
1526667438.95528913,30371180,0.0,1.19,0.0,9970.86230469,0.0,0.63,351.32,351.32,0.0,0.0
1526667439.05524898,30471140,0.0,1.18,0.0,10141.0068359,0.0,0.6,351.22,351.22,0.0,0.0
1526667439.15520906,30571100,0.0,1.19,0.0,10293.2753906,0.0,0.59,351.12,351.12,0.0,0.0
1526667439.25516915,30671060,0.0,1.2,0.0,10448.2382812,0.0,0.58,351.02,351.02,0.0,0.0
1526667439.35596204,30771853,0.0,1.21,0.0,14598.8251953,0.0,0.57,350.94,350.94,0.0,0.0
1526667439.45592213,30871813,0.0,1.22,0.0,14644.2128906,0.0,0.58,350.88,350.88,0.0,0.0
1526667439.55588198,30971773,0.0,1.23,0.0,14730.2666016,0.0,0.59,350.84,350.84,0.0,0.0
1526667439.65584207,31071733,0.0,1.23,0.0,14822.2939453,0.0,0.61,350.81,350.81,0.0,0.0
1526667439.75580215,31171693,0.0,1.24,0.0,14900.9248047,0.0,0.62,350.77,350.77,0.0,0.0
1526667439.85576200,31271653,0.0,1.25,0.0,14999.8164062,0.0,0.62,350.74,350.74,0.0,0.0
1526667439.95572209,31371613,0.0,1.26,0.0,15101.6787109,0.0,0.63,350.73,350.73,0.0,0.0
1526667440.05568218,31471573,-0.11,1.24,0.0,15196.1933594,0.01,0.58,350.75,350.76,0.0,0.0
1526667440.15564203,31571533,-0.26,0.88,-0.04,14823.3125,-0.12,0.28,350.75,350.82,0.0,0.01
1526667440.25560212,31671493,-0.36,0.51,-0.11,13932.7802734,-0.22,0.04,350.75,350.84,0.0,0.01
1526667440.35556197,31771453,-0.43,0.22,-0.21,12913.0615234,-0.27,-0.11,350.75,350.87,0.0,0.01
1526667440.45552206,31871413,-0.46,0.0,-0.3,11946.1982422,-0.3,-0.21,350.75,350.88,0.0,0.01
1526667440.55548215,31971373,-0.54,-0.2,-0.39,11074.2558594,-0.34,-0.26,350.75,350.89,0.0,0.0
1526667440.65544200,32071333,-0.54,-0.35,-0.47,10301.0673828,-0.37,-0.31,350.75,350.88,0.0,0.0
1526667440.75540209,32171293,-0.53,-0.41,-0.53,9624.47949219,-0.35,-0.34,350.75,350.88,0.0,0.0
1526667440.85536218,32271253,-0.47,-0.45,-0.55,9031.57421875,-0.31,-0.36,350.75,350.93,0.0,0.0
1526667440.95532203,32371213,-0.41,-0.51,-0.54,8503.61328125,-0.23,-0.37,350.75,350.99,0.0,0.0
1526667441.05528212,32471173,-0.31,-0.57,-0.5,8031.8125,-0.15,-0.37,350.75,351.02,0.0,0.0
1526667441.15524197,32571133,-0.27,-0.57,-0.43,7614.22363281,-0.1,-0.31,350.75,351.0,0.0,0.0
1526667441.25520205,32671093,-0.17,-0.55,-0.35,7245.56005859,-0.05,-0.27,350.75,350.93,0.0,0.0
1526667441.35599518,32771886,-0.09,-0.5,-0.26,6922.04101562,-0.01,-0.19,350.75,350.88,0.0,0.0
1526667441.45595503,32871846,0.0,-0.38,-0.16,6631.28710938,0.04,-0.08,350.75,350.85,0.0,0.0
1526667441.55591512,32971806,0.08,-0.23,-0.06,6358.45507812,0.07,-0.07,350.75,350.85,0.0,0.0
1526667441.65587497,33071766,0.16,-0.14,0.02,6105.43261719,0.09,-0.05,350.75,350.85,0.0,0.0
1526667441.75583506,33171726,0.16,-0.09,0.11,5875.48925781,0.08,-0.04,350.75,350.77,0.0,0.0
1526667441.85579515,33271686,0.17,-0.05,0.16,5668.24121094,0.1,-0.01,350.75,350.68,0.0,0.0
1526667441.95575500,33371646,0.19,-0.03,0.2,503.305267334,0.11,0.05,350.75,350.67,0.0,0.0
1526667442.05571508,33471606,0.18,-0.02,0.22,530.558105469,0.12,0.08,350.75,350.77,0.0,0.0
1526667442.15567517,33571566,0.14,-0.05,0.21,564.097839355,0.15,0.12,350.75,350.9,0.0,0.0
1526667442.25563502,33671526,0.09,-0.09,0.19,607.606811523,0.15,0.12,350.75,351.03,0.0,0.0
1526667442.35559511,33771486,0.04,-0.08,0.15,622.292053223,0.13,0.13,350.75,351.17,0.0,0.0
1526667442.45555496,33871446,0.0,-0.06,0.09,588.859130859,0.12,0.13,350.75,351.22,0.0,0.0
1526667442.55551505,33971406,-0.02,-0.02,0.04,521.357116699,0.1,0.07,350.75,351.27,0.0,0.0
1526667442.65547514,34071366,-0.04,-0.07,0.0,461.266998291,0.06,0.0,350.75,351.25,0.0,0.0
1526667442.75543499,34171326,-0.02,-0.18,-0.04,421.107513428,0.08,-0.02,350.75,351.16,0.0,0.0
1526667442.85539508,34271286,0.01,-0.2,-0.06,398.655822754,0.13,0.02,352.07,352.41,0.0,0.0
1526667442.95535517,34371246,0.05,-0.18,-0.05,379.154083252,0.15,0.07,352.07,352.39,0.0,0.0
1526667443.05531502,34471206,0.09,-0.12,-0.03,356.489379883,0.16,0.17,352.07,352.43,0.0,0.0
1526667443.15527511,34571166,0.12,-0.06,0.0,332.910461426,0.14,0.25,352.07,352.41,0.0,0.0
1526667443.25523496,34671126,0.16,0.05,0.04,309.922698975,0.1,0.34,352.07,352.34,0.0,0.0
1526667443.35519505,34771086,0.16,0.11,0.08,289.478973389,0.04,0.39,352.07,352.21,0.0,0.0
1526667443.45598817,34871879,0.15,0.21,0.12,272.86920166,-0.01,0.38,352.07,352.0,0.0,0.0
1526667443.55594802,34971839,0.07,0.35,0.14,268.800689697,-0.11,0.31,352.07,351.76,0.0,0.0
1526667443.65590811,35071799,-0.03,0.42,0.12,291.394683838,-0.18,0.21,352.07,351.49,0.0,0.0
1526667443.75586796,35171759,-0.14,0.4,0.07,327.276855469,-0.21,0.05,352.07,351.28,0.0,0.0
1526667443.85582805,35271719,-0.26,0.36,0.0,371.438995361,-0.23,-0.1,352.07,351.06,0.0,0.0
1526667443.95578814,35371679,-0.39,0.25,-0.11,415.055725098,-0.22,-0.18,352.07,350.96,0.0,0.0
1526667444.05574799,35471639,-0.47,0.09,-0.23,450.620056152,-0.18,-0.25,352.07,351.03,0.0,0.0
1526667444.15570807,35571599,-0.51,-0.04,-0.35,472.744171143,-0.12,-0.28,352.07,351.21,0.0,0.0
1526667444.25566816,35671559,-0.53,-0.16,-0.45,492.342773438,-0.04,-0.25,352.07,351.51,0.0,0.0
1526667444.35562801,35771519,-0.52,-0.24,-0.52,504.798614502,-0.02,-0.14,352.07,351.82,0.0,0.0
1526667444.45558810,35871479,-0.46,-0.34,-0.55,510.142242432,0.0,-0.03,352.07,352.1,0.0,0.0
1526667444.55554795,35971439,-0.35,-0.44,-0.54,263.646850586,0.0,0.07,352.1,352.36,0.0,0.0
1526667444.65550804,36071399,-0.22,-0.44,-0.49,165.555145264,0.0,0.14,352.1,352.55,0.0,0.0
1526667444.75546813,36171359,-0.11,-0.41,-0.39,113.571243286,-0.03,0.17,352.1,352.68,0.0,0.0
1526667444.85542798,36271319,-0.01,-0.33,-0.27,87.8474807739,-0.04,0.18,352.1,352.73,0.0,0.0
1526667444.95538807,36371279,0.06,-0.21,-0.15,76.6302261353,-0.05,0.12,352.1,352.7,0.0,0.0
1526667445.05534816,36471239,0.14,-0.14,-0.02,75.6150894165,-0.1,0.1,352.1,352.61,0.0,0.0
1526667445.15530801,36571199,0.18,-0.08,0.08,95.2665252686,-0.13,0.14,352.1,352.46,0.0,0.0
1526667445.25526810,36671159,0.22,0.02,0.17,111.630104065,-0.15,0.09,352.1,352.3,0.0,0.0
1526667445.35522819,36771119,0.26,0.07,0.23,129.309112549,-0.18,-0.02,352.1,352.12,0.0,0.0
1526667445.45518804,36871079,0.34,0.1,0.29,149.424163818,-0.18,-0.12,352.1,351.97,0.0,0.0
1526667445.55598116,36971872,0.41,0.14,0.33,170.402633667,-0.15,-0.2,352.1,351.86,0.0,0.0
1526667445.65594101,37071832,0.44,0.15,0.38,198.267166138,-0.13,-0.21,241.39,351.75,0.0,0.0
1526667445.75590110,37171792,0.43,0.19,0.41,220.361099243,-0.1,-0.24,241.39,351.08,0.0,0.01
1526667445.85586119,37271752,0.04,0.18,0.4,239.75151062,0.04,-0.22,241.39,349.63,0.0,0.02
1526667445.95582104,37371712,-0.94,0.03,0.21,253.59072876,0.38,-0.23,241.39,347.54,0.0,0.03
1526667446.05578113,37471672,-2.17,-0.33,-0.24,247.80708313,0.7,-0.18,241.39,344.92,0.0,0.04
1526667446.15574098,37571632,-3.57,-1.07,-1.01,235.785461426,0.89,-0.19,241.39,341.97,0.0,0.06
1526667446.25570107,37671592,-4.98,-2.13,-2.07,224.182876587,0.93,-0.24,241.39,338.75,0.0,0.07
1526667446.35566115,37771552,-6.31,-3.37,-3.35,213.169464111,0.82,-0.25,241.39,335.34,0.0,0.08
1526667446.45562100,37871512,-7.08,-4.61,-4.71,203.83190918,0.55,-0.27,241.39,331.79,0.0,0.08
1526667446.55558109,37971472,-7.55,-5.68,-5.96,212.482391357,0.18,-0.31,241.39,328.09,0.0,0.08
1526667446.65554118,38071432,-7.86,-6.57,-6.99,260.981811523,-0.29,-0.37,241.39,324.28,0.0,0.07
1526667446.75550103,38171392,-8.03,-7.22,-7.76,357.371337891,-0.86,-0.52,241.39,320.4,0.0,0.07
1526667446.85546112,38271352,-8.1,-7.69,-8.26,474.902832031,-1.52,-0.76,241.39,316.58,0.0,0.06
1526667446.95542097,38371312,-8.1,-7.95,-8.5,587.160400391,-2.24,-1.1,241.39,312.73,0.0,0.06
1526667447.05538106,38471272,-7.99,-8.15,-8.53,653.617614746,-3.0,-1.48,241.39,308.86,0.0,0.06
1526667447.15534115,38571232,-7.54,-8.14,-8.37,941.600280762,-3.69,-1.87,241.39,305.02,0.0,0.05
1526667447.25530100,38671192,-6.92,-7.9,-8.01,632.531066895,-4.36,-2.36,241.39,301.18,0.0,0.05
1526667447.35526109,38771152,-6.22,-7.51,-7.47,432.8956604,-4.99,-2.88,241.39,297.37,0.0,0.05
1526667447.45522118,38871112,-5.51,-6.96,-6.81,348.159088135,-5.56,-3.45,241.39,293.49,0.0,0.05
1526667447.55518103,38971072,-5.05,-6.41,-6.09,395.330657959,-6.27,-4.04,241.39,289.63,0.0,0.05
1526667447.65597415,39071865,-4.72,-5.8,-5.41,548.162780762,-7.05,-4.7,241.39,285.71,0.0,0.05
1526667447.75593400,39171825,-4.48,-5.18,-4.82,680.894165039,-7.83,-5.42,241.39,281.9,0.0,0.05
1526667447.85589409,39271785,-4.24,-4.6,-4.36,708.480102539,-8.58,-6.27,241.39,278.05,0.0,0.06
1526667447.95585418,39371745,-3.95,-4.09,-4.01,657.956726074,-9.32,-7.17,241.39,274.16,0.0,0.06
1526667448.05581403,39471705,-3.63,-3.66,-3.74,594.843505859,-10.0,-8.07,241.39,270.23,0.0,0.06
1526667448.15577412,39571665,-3.26,-3.3,-3.52,566.546569824,-10.65,-8.98,241.39,266.29,0.0,0.06
1526667448.25573397,39671625,-2.8,-2.97,-3.29,587.79498291,-11.22,-9.85,241.39,262.29,0.0,0.06
1526667448.35569406,39771585,-2.25,-2.66,-3.03,642.250915527,-11.73,-10.63,241.39,258.31,0.0,0.06
1526667448.45565414,39871545,-1.61,-2.32,-2.68,694.392883301,-12.18,-11.25,241.39,254.3,0.0,0.06
1526667448.55561399,39971505,-0.89,-1.89,-2.24,735.692504883,-12.54,-11.78,241.39,250.31,0.0,0.05
1526667448.65557408,40071465,-0.06,-1.33,-1.68,766.781982422,-12.83,-12.21,241.39,246.29,0.0,0.05
1526667448.75553417,40171425,0.76,-0.6,-1.01,802.869384766,-13.06,-12.4,241.39,242.62,0.0,0.04
1526667448.85549402,40271385,1.49,0.28,-0.26,882.761535645,-13.27,-12.4,241.39,239.65,0.0,0.03
1526667448.95545411,40371345,2.04,1.25,0.5,1057.06689453,-13.51,-12.41,241.39,237.48,0.0,0.02
1526667449.05541396,40471305,2.39,2.13,1.21,1351.3125,-13.64,-12.55,241.39,236.12,0.0,0.02
1526667449.15537405,40571265,2.49,2.79,1.81,1718.01428223,-13.65,-12.74,241.39,235.55,0.0,0.01
1526667449.25533414,40671225,2.32,3.15,2.21,2058.01733398,-13.66,-12.95,241.39,235.67,0.0,0.0
1526667449.35529399,40771185,1.93,3.24,2.37,2321.83081055,-13.69,-13.19,241.39,236.34,0.0,0.0
1526667449.45525408,40871145,1.42,3.02,2.27,2495.94750977,-13.69,-13.49,241.39,237.35,0.0,0.01
1526667449.55521417,40971105,0.84,2.5,1.95,2563.99731445,-13.51,-13.74,241.39,238.53,0.0,0.02
1526667449.65517402,41071065,0.29,1.85,1.44,2547.6574707,-13.22,-13.86,241.39,239.68,0.0,0.02
1526667449.75596714,41171858,-0.19,1.1,0.83,1121.33422852,-12.84,-13.84,241.39,240.78,0.0,0.02
1526667449.85592699,41271818,-0.57,0.37,0.19,799.391906738,-12.46,-13.63,241.39,241.69,0.0,0.02
1526667449.95588708,41371778,-0.82,-0.24,-0.4,618.650695801,-12.09,-13.29,241.39,242.36,0.0,0.02
1526667450.05584717,41471738,-0.93,-0.73,-0.89,527.399414062,-11.74,-12.95,241.39,242.73,0.0,0.02
1526667450.15580702,41571698,-0.9,-1.04,-1.24,494.30947876,-11.43,-12.57,241.39,242.86,0.0,0.02
1526667450.25576711,41671658,-0.79,-1.25,-1.41,472.450073242,-11.13,-12.17,241.39,242.78,0.0,0.01
1526667450.35572696,41771618,-0.6,-1.3,-1.42,436.668029785,-10.89,-11.76,241.39,242.51,0.0,0.01
1526667450.45568705,41871578,-0.36,-1.18,-1.29,399.542633057,-10.66,-11.41,241.39,242.11,0.0,0.0
1526667450.55564713,41971538,-0.13,-0.99,-1.04,363.302093506,-10.44,-11.1,241.39,241.74,0.0,0.0
1526667450.65560699,42071498,0.09,-0.77,-0.73,327.695068359,-10.24,-10.79,241.39,241.39,0.0,0.0
1526667450.75556707,42171458,0.28,-0.51,-0.39,304.137542725,-10.03,-10.47,241.39,241.12,0.0,0.0
1526667450.85552716,42271418,0.42,-0.24,-0.07,295.595001221,-9.83,-10.15,241.39,240.9,0.0,0.0
1526667450.95548701,42371378,0.51,-0.03,0.2,306.807403564,-9.64,-9.91,241.39,240.74,0.0,0.0
1526667451.05544710,42471338,0.56,0.16,0.42,332.26675415,-9.43,-9.69,241.39,240.64,0.0,0.0
1526667451.15540695,42571298,0.56,0.34,0.57,352.710021973,-9.2,-9.49,241.39,240.57,0.0,0.0
1526667451.25536704,42671258,0.54,0.45,0.64,359.98449707,-8.94,-9.32,241.39,240.58,0.0,0.0
1526667451.35532713,42771218,0.51,0.5,0.65,356.325317383,-8.63,-9.16,241.39,240.62,0.0,0.0
1526667451.45528698,42871178,0.46,0.48,0.61,347.972381592,-8.28,-8.99,241.39,240.74,0.0,0.01
1526667451.55524707,42971138,0.37,0.41,0.54,338.180114746,-7.88,-8.81,241.39,240.93,0.0,0.01
1526667451.65520716,43071098,0.27,0.3,0.43,330.291259766,-7.43,-8.52,241.39,241.12,0.0,0.01
1526667451.75600004,43171891,0.19,0.2,0.31,322.54498291,-7.02,-8.12,241.39,241.23,0.0,0.01
1526667451.85596013,43271851,0.14,0.07,0.2,314.287689209,-6.19,-7.64,241.39,241.24,0.0,0.01
1526667451.95591998,43371811,0.12,0.02,0.1,306.531768799,-5.76,-7.07,241.39,241.21,0.0,0.01
1526667452.05588007,43471771,0.11,0.02,0.03,294.793395996,-5.46,-6.57,241.39,241.19,0.0,0.01
1526667452.15584016,43571731,0.11,0.01,-0.01,283.046508789,-5.21,-6.13,241.39,241.2,0.0,0.01
1526667452.25580001,43671691,0.1,0.01,-0.02,272.455596924,-4.98,-5.76,241.39,241.23,0.0,0.01
1526667452.35576010,43771651,0.08,0.04,-0.03,31.8147926331,-4.76,-5.46,241.39,241.32,0.0,0.01
1526667452.45572019,43871611,0.05,0.03,-0.02,39.002571106,-4.53,-5.2,241.39,241.49,0.0,0.01
1526667452.55568004,43971571,0.02,-0.04,-0.02,29.288640976,-4.28,-4.87,241.39,241.64,0.0,0.01
1526667452.65564013,44071531,0.0,-0.05,-0.02,24.0078449249,-4.01,-4.57,241.39,241.75,0.0,0.01
1526667452.75559998,44171491,0.0,-0.09,-0.02,25.8827590942,-3.73,-4.3,241.39,241.77,0.0,0.01
1526667452.85556006,44271451,-0.02,-0.08,-0.02,28.6977119446,-3.43,-4.02,241.39,241.75,0.0,0.01
1526667452.95552015,44371411,-0.04,-0.07,-0.03,28.1037082672,-3.07,-3.76,241.39,241.75,0.0,0.01
1526667453.05548000,44471371,-0.06,-0.1,-0.04,26.791759491,-2.68,-3.48,241.39,241.7,0.0,0.01
1526667453.15544009,44571331,-0.16,-0.18,-0.06,30.8320941925,-2.26,-3.13,141.12,241.59,0.0,0.01
1526667453.25540018,44671291,-0.9,-0.33,-0.17,46.5592918396,-1.69,-2.81,141.12,240.86,0.0,0.0
1526667453.35536003,44771251,-2.01,-0.7,-0.49,71.4550857544,-1.01,-2.51,141.12,239.27,0.0,0.0
1526667453.45532012,44871211,-3.34,-1.36,-1.11,108.169166565,-0.3,-2.21,141.12,237.06,0.0,0.0
1526667453.55527997,44971171,-4.53,-2.32,-2.0,159.982513428,0.43,-1.79,141.12,234.4,0.0,0.0
1526667453.65524006,45071131,-5.31,-3.4,-3.05,226.964126587,1.17,-1.19,141.12,231.29,0.0,0.0
1526667453.75520015,45171091,-5.84,-4.44,-4.11,286.707702637,1.75,-0.47,141.12,227.93,0.0,0.0
1526667453.85599303,45271884,-6.28,-5.3,-5.07,321.49786377,1.72,0.22,141.12,224.32,0.0,0.0
1526667453.95595312,45371844,-6.58,-5.88,-5.87,313.795440674,1.21,0.76,141.12,220.61,0.0,0.01
1526667454.05591297,45471804,-6.76,-6.27,-6.48,305.81640625,0.45,1.05,141.12,216.79,0.0,0.01
1526667454.15587306,45571764,-6.77,-6.45,-6.88,349.509124756,-0.44,1.1,141.12,213.01,0.0,0.02
1526667454.25583315,45671724,-6.68,-6.44,-7.07,479.007354736,-1.48,0.85,141.12,209.14,0.0,0.03
1526667454.35579300,45771684,-6.45,-6.23,-7.06,712.574829102,-2.57,0.29,141.12,205.23,0.0,0.04
1526667454.45575309,45871644,-6.16,-5.94,-6.88,1051.06115723,-3.67,-0.54,141.12,201.37,0.0,0.04
1526667454.55571318,45971604,-5.88,-5.58,-6.58,1427.0291748,-4.66,-1.54,141.12,197.53,0.0,0.05
1526667454.65567303,46071564,-5.45,-5.22,-6.2,1788.89135742,-5.39,-2.59,141.12,193.77,0.0,0.05
1526667454.75563312,46171524,-4.89,-4.92,-5.74,2054.80957031,-5.89,-3.64,141.12,190.03,0.0,0.04
1526667454.85559297,46271484,-4.32,-4.64,-5.22,2170.59179688,-6.27,-4.48,141.12,186.2,0.0,0.04
1526667454.95555305,46371444,-3.79,-4.34,-4.66,2021.84667969,-6.55,-5.15,141.12,182.4,0.0,0.04
1526667455.05551314,46471404,-3.31,-4.04,-4.09,1234.16540527,-6.76,-5.63,141.12,178.54,0.0,0.03
1526667455.15547299,46571364,-2.86,-3.74,-3.55,856.232543945,-6.92,-6.05,141.12,174.69,0.0,0.03
1526667455.25543308,46671324,-2.43,-3.34,-3.05,796.10546875,-7.06,-6.38,141.12,170.83,0.0,0.03
1526667455.35539317,46771284,-2.07,-2.87,-2.59,796.859375,-7.24,-6.69,141.12,166.9,0.0,0.04
1526667455.45535302,46871244,-1.75,-2.42,-2.2,770.06640625,-7.68,-6.97,141.12,162.92,0.0,0.04
1526667455.55531311,46971204,-1.42,-1.98,-1.86,699.964416504,-8.24,-7.31,141.12,158.93,0.0,0.04
1526667455.65527296,47071164,-1.03,-1.6,-1.55,622.249145508,-8.82,-7.66,141.12,154.98,0.0,0.03
1526667455.75523305,47171124,-0.57,-1.19,-1.24,553.928588867,-9.39,-8.07,141.12,151.02,0.0,0.03
1526667455.85519314,47271084,-0.04,-0.69,-0.91,520.342834473,-9.92,-8.53,141.12,147.09,0.0,0.03
1526667455.95598602,47371877,0.52,-0.07,-0.53,587.612854004,-10.38,-8.97,141.12,143.36,0.0,0.03
1526667456.05594611,47471837,1.08,0.55,-0.09,793.05645752,-10.84,-9.32,141.12,140.17,0.0,0.03
1526667456.15590596,47571797,1.56,1.2,0.38,1159.56152344,-11.25,-9.69,141.12,137.72,0.0,0.02
1526667456.25586605,47671757,1.86,1.79,0.86,1627.0748291,-11.66,-10.06,141.12,136.15,0.0,0.01
1526667456.35582614,47771717,1.92,2.25,1.28,2121.296875,-12.07,-10.45,141.12,135.37,0.0,0.0
1526667456.45578599,47871677,1.78,2.56,1.58,2580.0090332,-12.49,-10.92,141.12,135.27,0.0,0.01
1526667456.55574608,47971637,1.42,2.69,1.7,2993.74267578,-12.9,-11.39,141.12,135.75,0.0,0.02
1526667456.65570617,48071597,0.93,2.63,1.62,3383.68920898,-13.28,-11.99,141.12,136.61,0.0,0.03
1526667456.75566602,48171557,0.34,2.27,1.34,3704.3137207,-13.6,-12.67,141.12,137.71,0.0,0.04
1526667456.85562611,48271517,-0.26,1.64,0.89,3866.87573242,-13.8,-13.29,141.12,138.94,0.0,0.05
1526667456.95558596,48371477,-0.83,0.84,0.31,3880.32080078,-13.74,-13.79,141.12,140.12,0.0,0.05
1526667457.05554605,48471437,-1.33,-0.02,-0.32,3777.97070312,-13.59,-14.04,141.12,141.15,0.0,0.05
1526667457.15550613,48571397,-1.68,-0.86,-0.96,3633.6003418,-13.4,-14.05,141.12,141.93,0.0,0.04
1526667457.25546598,48671357,-1.89,-1.61,-1.52,3483.34838867,-13.21,-13.88,141.12,142.49,0.0,0.03
1526667457.35542607,48771317,-1.97,-2.14,-1.97,3351.93139648,-13.06,-13.64,141.12,142.82,0.0,0.02
1526667457.45538616,48871277,-1.92,-2.39,-2.25,3233.16723633,-12.95,-13.4,141.12,142.92,0.0,0.01
1526667457.55534601,48971237,-1.74,-2.46,-2.37,108.95035553,-12.93,-13.23,141.12,142.83,0.0,0.01
1526667457.65530610,49071197,-1.52,-2.42,-2.32,86.9778137207,-12.96,-13.03,141.12,142.6,0.0,0.0
1526667457.75526595,49171157,-1.26,-2.24,-2.14,85.0994644165,-13.03,-12.85,141.12,142.25,0.0,0.0
1526667457.85522604,49271117,-1.0,-1.98,-1.86,91.3777160645,-13.16,-12.75,141.12,141.76,0.0,0.0
1526667457.95518613,49371077,-0.73,-1.63,-1.52,102.192489624,-13.35,-12.74,141.12,141.23,0.0,0.0
1526667458.05597901,49471870,-0.5,-1.2,-1.15,96.5041275024,-13.51,-12.82,141.12,140.76,0.0,0.0
1526667458.15593910,49571830,-0.31,-0.78,-0.8,83.3152999878,-13.72,-12.99,141.12,140.35,0.0,0.0
1526667458.25589895,49671790,-0.17,-0.45,-0.49,73.9457244873,-13.95,-13.2,141.12,139.99,0.0,0.0
1526667458.35585904,49771750,-0.11,-0.17,-0.24,68.5713195801,-14.15,-13.4,303.37,139.73,0.0,0.0
1526667458.45581913,49871710,-0.69,0.19,-0.13,111.49030304,-10.24,-13.23,303.37,139.95,0.0,0.0
1526667458.55577898,49971670,-1.24,0.08,-0.24,206.464630127,-7.47,-12.23,303.37,140.94,0.0,0.0
1526667458.65573907,50071630,-1.68,-0.3,-0.54,258.417816162,-6.15,-10.69,303.37,142.68,0.0,0.0
1526667458.75569916,50171590,-2.11,-0.69,-0.97,288.889831543,-5.36,-9.06,303.37,144.94,0.0,0.01
1526667458.85565901,50271550,-2.56,-1.05,-1.48,355.430511475,-4.84,-7.65,303.37,147.63,0.0,0.02
1526667458.95561910,50371510,-3.0,-1.41,-2.03,516.793518066,-4.49,-6.54,303.37,150.6,0.0,0.03
1526667459.05557919,50471470,-3.44,-1.72,-2.58,840.529296875,-4.24,-5.72,303.37,153.78,0.0,0.03
1526667459.15553904,50571430,-3.88,-2.06,-3.13,1354.88232422,-4.05,-5.15,303.37,157.03,0.0,0.04
1526667459.25549912,50671390,-4.31,-2.49,-3.64,1974.80725098,-3.86,-4.73,303.37,160.48,0.0,0.04
1526667459.35545897,50771350,-4.72,-3.0,-4.11,2549.8112793,-3.63,-4.37,303.37,164.08,0.0,0.05
1526667459.45541906,50871310,-5.08,-3.53,-4.54,2987.55908203,-3.36,-4.02,303.37,167.82,0.0,0.05
1526667459.55537915,50971270,-5.36,-3.99,-4.92,3292.0625,-3.06,-3.65,303.37,171.57,0.0,0.05
1526667459.65533900,51071230,-5.58,-4.4,-5.24,3513.02734375,-2.73,-3.29,303.37,175.31,0.0,0.05
1526667459.75529909,51171190,-5.72,-4.85,-5.49,3600.64648438,-2.34,-2.99,303.37,179.1,0.0,0.05
1526667459.85525918,51271150,-5.78,-5.21,-5.68,3580.81005859,-1.93,-2.63,303.37,182.95,0.0,0.05
1526667459.95521903,51371110,-5.73,-5.51,-5.78,3492.67919922,-1.51,-2.2,303.37,186.89,0.0,0.05
1526667460.05517912,51471070,-5.59,-5.62,-5.8,3376.91967773,-1.06,-1.76,303.37,190.86,0.0,0.04
1526667460.15597200,51571863,-5.32,-5.62,-5.73,222.365432739,-0.61,-1.37,303.37,194.91,0.0,0.04
1526667460.25593209,51671823,-5.03,-5.54,-5.56,136.276901245,-0.21,-0.99,303.37,198.87,0.0,0.04
1526667460.35589218,51771783,-4.65,-5.38,-5.31,96.2792053223,0.15,-0.6,303.37,202.82,0.0,0.04
1526667460.45585203,51871743,-4.2,-5.11,-4.98,98.1022109985,0.51,-0.24,303.37,206.86,0.0,0.03
1526667460.55581212,51971703,-3.68,-4.77,-4.58,135.002822876,0.81,0.11,303.37,210.91,0.0,0.03
1526667460.65577197,52071663,-3.11,-4.38,-4.11,200.154785156,1.08,0.42,303.37,214.97,0.0,0.03
1526667460.75573206,52171623,-2.46,-3.91,-3.57,311.57901001,1.31,0.7,303.37,219.01,0.0,0.03
1526667460.85569215,52271583,-1.78,-3.38,-2.98,434.6015625,1.43,0.95,303.37,223.02,0.0,0.02
1526667460.95565200,52371543,-1.06,-2.81,-2.35,591.256713867,1.45,1.14,303.37,227.0,0.0,0.02
1526667461.05561209,52471503,-0.29,-2.14,-1.66,751.032653809,1.35,1.3,303.37,230.99,0.0,0.02
1526667461.15557218,52571463,0.53,-1.39,-0.94,882.871948242,1.02,1.37,303.37,234.9,0.0,0.02
1526667461.25553203,52671423,1.42,-0.52,-0.18,938.391357422,0.5,1.26,303.37,238.76,0.0,0.01
1526667461.35549212,52771383,2.28,0.38,0.63,933.072143555,-0.15,0.97,303.37,242.62,0.0,0.01
1526667461.45545197,52871343,2.51,1.22,1.39,897.949645996,-0.61,0.51,303.37,246.52,0.0,0.0
1526667461.55541205,52971303,2.35,1.82,1.98,857.709228516,-0.91,0.02,303.37,250.33,0.0,0.01
1526667461.65537214,53071263,2.14,2.16,2.31,818.485107422,-1.18,-0.47,303.37,254.11,0.0,0.01
1526667461.75533199,53171223,2.02,2.27,2.42,787.021972656,-1.58,-0.89,303.37,257.89,0.0,0.01
1526667461.85529208,53271183,1.88,2.32,2.36,750.487182617,-1.99,-1.23,303.37,261.69,0.0,0.01
1526667461.95525217,53371143,1.7,2.28,2.17,712.618835449,-2.38,-1.6,303.37,265.54,0.0,0.01
1526667462.05521202,53471103,1.51,2.19,1.89,699.793273926,-2.77,-2.0,303.37,269.37,0.0,0.01
1526667462.15517211,53571063,1.28,2.05,1.58,736.324951172,-3.14,-2.35,303.37,273.2,0.0,0.01
1526667462.25596499,53671856,1.04,1.85,1.26,832.433898926,-3.52,-2.72,303.37,277.09,0.0,0.01
1526667462.35592508,53771816,0.79,1.64,0.94,973.776367188,-3.88,-3.08,303.37,280.93,0.0,0.01
1526667462.45588517,53871776,0.54,1.41,0.65,1160.35510254,-4.25,-3.41,303.37,284.79,0.0,0.01
1526667462.55584502,53971736,0.24,1.15,0.37,1352.18579102,-4.63,-3.75,303.37,288.67,0.0,0.01
1526667462.65580511,54071696,-0.06,0.84,0.1,1519.04455566,-5.01,-4.1,303.37,292.64,0.0,0.01
1526667462.75576496,54171656,-0.37,0.49,-0.15,4873.36376953,-5.38,-4.48,303.37,296.62,0.0,0.01
1526667462.85572505,54271616,-0.71,0.05,-0.41,3963.17626953,-5.74,-4.88,303.37,300.51,0.0,0.0
1526667462.95568514,54371576,-1.03,-0.41,-0.68,3111.56958008,-6.06,-5.24,303.37,303.95,0.0,0.0
1526667463.05564499,54471536,-1.28,-0.83,-0.95,2431.21899414,-6.09,-5.57,303.37,306.64,0.0,0.01
1526667463.15560508,54571496,-1.4,-1.27,-1.19,1951.47277832,-5.94,-5.85,303.37,308.47,0.0,0.02
1526667463.25556517,54671456,-1.41,-1.65,-1.38,1680.11474609,-5.8,-5.99,303.37,309.47,0.0,0.03
1526667463.35552502,54771416,-1.26,-1.89,-1.49,1597.83605957,-5.73,-6.03,303.37,309.69,0.0,0.03
1526667463.45548511,54871376,-1.0,-1.97,-1.49,1642.39025879,-5.72,-5.97,303.37,309.28,0.0,0.04
1526667463.55544496,54971336,-0.63,-1.82,-1.36,1709.04064941,-5.78,-5.87,303.37,308.32,0.0,0.04
1526667463.65540504,55071296,-0.26,-1.54,-1.12,1729.89575195,-5.88,-5.79,303.37,307.1,0.0,0.04
1526667463.75536513,55171256,0.06,-1.18,-0.79,1722.47619629,-5.97,-5.79,303.37,305.77,0.0,0.04
1526667463.85532498,55271216,0.35,-0.84,-0.41,1713.81616211,-6.1,-5.79,303.37,304.47,0.0,0.04
1526667463.95528507,55371176,0.64,-0.36,-0.02,1704.54321289,-6.23,-5.74,303.37,303.35,0.0,0.03
1526667464.05524516,55471136,0.85,0.19,0.34,1626.42077637,-6.41,-5.89,303.37,302.45,0.0,0.03
1526667464.15520501,55571096,0.99,0.62,0.66,1524.57421875,-6.64,-6.08,303.37,301.78,0.0,0.03
1526667464.25599813,55671889,1.01,0.95,0.91,1429.77368164,-7.02,-6.24,303.37,301.39,0.0,0.03
1526667464.35595798,55771849,0.97,1.2,1.07,1350.00085449,-7.6,-6.45,303.37,301.32,0.0,0.02
1526667464.45591807,55871809,0.8,1.36,1.12,1293.07556152,-8.27,-6.86,303.37,301.49,0.0,0.03
1526667464.55587816,55971769,0.57,1.4,1.05,1273.20410156,-8.92,-7.44,303.37,301.67,0.0,0.03
1526667464.65583801,56071729,0.31,1.33,0.89,1283.64550781,-9.52,-8.05,303.37,301.99,0.0,0.03
1526667464.75579810,56171689,0.03,1.15,0.65,1329.09362793,-10.09,-8.72,303.37,302.38,0.0,0.04
1526667464.85575795,56271649,-0.25,0.85,0.35,1383.52246094,-10.6,-9.35,303.37,302.79,0.0,0.04
1526667464.95571804,56371609,-0.47,0.49,0.03,1421.3293457,-11.05,-9.91,303.37,303.11,0.0,0.04
1526667465.05567813,56471569,-0.64,0.15,-0.27,1443.29101562,-11.44,-10.43,303.37,303.36,0.0,0.04
1526667465.15563798,56571529,-0.73,-0.14,-0.55,1457.54187012,-11.74,-10.88,303.37,303.58,0.0,0.04
1526667465.25559807,56671489,-0.81,-0.41,-0.76,1455.3137207,-12.02,-11.27,303.37,303.82,0.0,0.04
1526667465.35555816,56771449,-0.84,-0.59,-0.91,1131.53100586,-12.26,-11.59,303.37,304.03,0.0,0.03
1526667465.45551801,56871409,-0.8,-0.7,-0.99,1008.29571533,-12.5,-11.89,303.37,304.14,0.0,0.03
1526667465.55547810,56971369,-0.73,-0.73,-1.0,933.396179199,-12.73,-12.17,303.37,304.13,0.0,0.03
1526667465.65543818,57071329,-0.64,-0.75,-0.94,838.820983887,-12.95,-12.42,303.37,304.08,0.0,0.03
1526667465.75539804,57171289,-0.53,-0.79,-0.85,714.099060059,-13.07,-12.62,303.37,303.98,0.0,0.03
1526667465.85535812,57271249,-0.42,-0.86,-0.72,603.331481934,-13.03,-12.8,303.37,303.96,0.0,0.03
1526667465.95531797,57371209,-0.29,-0.94,-0.57,613.991821289,-12.94,-12.9,303.37,303.94,0.0,0.03
1526667466.05527806,57471169,-0.18,-0.98,-0.42,809.574951172,-12.87,-12.9,303.37,303.96,0.0,0.02
1526667466.15523815,57571129,-0.08,-0.96,-0.27,1175.74951172,-12.81,-12.85,303.37,303.95,0.0,0.02
1526667466.25519800,57671089,0.04,-0.81,-0.13,1547.08544922,-12.76,-12.75,303.37,303.89,0.0,0.02
1526667466.35599113,57771882,0.15,-0.61,0.0,1791.25427246,-12.7,-12.72,303.37,303.87,0.0,0.02
1526667466.45595098,57871842,0.22,-0.43,0.11,1910.22241211,-11.66,-12.68,303.37,303.94,0.0,0.02
1526667466.55591106,57971802,0.32,-0.49,0.2,2044.64013672,-9.25,-12.33,303.37,304.01,0.0,0.01
1526667466.65587115,58071762,0.41,-0.6,0.29,2368.23583984,-8.35,-11.52,303.37,303.97,0.0,0.01
1526667466.75583100,58171722,0.54,-0.58,0.37,2797.65307617,-7.99,-10.55,303.37,304.0,0.0,0.0
1526667466.85579109,58271682,0.65,-0.46,0.46,3191.54614258,-7.83,-9.66,303.37,303.99,0.0,0.0
1526667466.95575118,58371642,0.74,-0.23,0.55,3442.94750977,-7.93,-8.91,303.37,303.93,0.0,0.0
1526667467.05571103,58471602,0.79,0.08,0.63,3500.37231445,-8.12,-8.37,303.37,303.79,0.0,0.0
1526667467.15567112,58571562,0.79,0.4,0.7,3416.96386719,-8.39,-8.06,303.37,303.66,0.0,0.0
1526667467.25563097,58671522,0.74,0.71,0.74,3262.66308594,-8.82,-8.03,303.37,303.58,0.0,0.01
1526667467.35559106,58771482,0.67,0.96,0.75,3114.29248047,-9.2,-8.25,303.37,303.45,0.0,0.01
1526667467.45555115,58871442,0.58,1.12,0.72,3017.6027832,-9.57,-8.63,303.37,303.21,0.0,0.02
1526667467.55551100,58971402,0.47,1.15,0.66,2974.07910156,-10.02,-9.08,303.37,303.03,0.0,0.03
1526667467.65547109,59071362,0.37,1.08,0.57,2956.71801758,-10.38,-9.51,303.37,302.88,0.0,0.03
1526667467.75543118,59171322,0.26,0.92,0.46,2931.75317383,-10.77,-9.92,303.37,302.77,0.0,0.03
1526667467.85539103,59271282,0.15,0.81,0.34,2899.69287109,-11.08,-10.31,303.37,302.67,0.0,0.03
1526667467.95535111,59371242,0.04,0.68,0.21,2181.95458984,-11.36,-10.62,303.37,302.69,0.0,0.02
1526667468.05531096,59471202,-0.05,0.57,0.09,2112.16064453,-11.67,-10.89,303.37,302.76,0.0,0.02
1526667468.15527105,59571162,-0.13,0.51,-0.01,2241.68432617,-11.89,-11.17,303.37,302.86,0.0,0.02
1526667468.25523114,59671122,-0.21,0.4,-0.1,2363.57250977,-12.02,-11.46,303.37,303.03,0.0,0.02
1526667468.35519099,59771082,-0.32,0.23,-0.2,2334.46630859,-12.18,-11.69,303.37,303.23,0.0,0.02
1526667468.45598412,59871875,-0.4,0.07,-0.28,2201.07080078,-12.35,-11.93,303.37,303.36,0.0,0.02
1526667468.55594397,59971835,-0.43,-0.1,-0.35,2027.48754883,-12.43,-12.1,303.37,303.44,0.0,0.02
1526667468.65590405,60071795,-0.44,-0.23,-0.41,1831.79882812,-12.46,-12.28,303.37,303.46,0.0,0.02
1526667468.75586414,60171755,-0.44,-0.29,-0.44,1664.70019531,-12.44,-12.45,303.37,303.53,0.0,0.02
1526667468.85582399,60271715,-0.43,-0.38,-0.46,1512.22705078,-12.42,-12.61,303.37,303.68,0.0,0.02
1526667468.95578408,60371675,-0.41,-0.5,-0.45,1376.16149902,-12.4,-12.74,303.37,303.83,0.0,0.02
1526667469.05574417,60471635,-0.38,-0.62,-0.43,1273.49682617,-12.34,-12.77,303.37,303.91,0.0,0.02
1526667469.15570402,60571595,-0.3,-0.71,-0.4,1224.98937988,-12.28,-12.7,303.37,303.88,0.0,0.01
1526667469.25566411,60671555,-0.18,-0.76,-0.34,1226.48376465,-12.17,-12.6,303.37,303.77,0.0,0.01
1526667469.35562396,60771515,-0.04,-0.77,-0.26,1287.68518066,-12.06,-12.42,303.37,303.6,0.0,0.01
1526667469.45558405,60871475,0.09,-0.68,-0.15,1374.79736328,-12.01,-12.22,303.37,303.47,0.0,0.01
1526667469.55554414,60971435,0.22,-0.5,-0.03,1445.89648438,-11.98,-12.05,114.27,303.36,0.0,0.01
1526667469.65550399,61071395,0.35,-0.07,0.1,1420.97058105,-8.46,-11.48,114.27,303.62,0.0,0.01
1526667469.75546408,61171355,0.35,0.17,0.23,1352.98120117,-6.33,-10.3,114.27,304.67,0.0,0.02
1526667469.85542417,61271315,0.23,0.3,0.31,1286.15820312,-5.27,-8.87,114.27,306.41,0.0,0.04
1526667469.95538402,61371275,0.0,0.38,0.32,1225.3137207,-4.64,-7.51,114.27,308.65,0.0,0.04
1526667470.05534410,61471235,-0.3,0.4,0.23,1175.6418457,-4.25,-6.41,114.27,311.23,0.0,0.04
1526667470.15530396,61571195,-0.64,0.38,0.05,1150.6151123,-4.0,-5.59,114.27,314.09,0.0,0.04
1526667470.25526404,61671155,-1.02,0.24,-0.22,1169.41564941,-3.82,-5.02,114.27,317.2,0.0,0.03
1526667470.35522413,61771115,-1.42,0.0,-0.56,1228.87097168,-3.7,-4.6,114.27,320.49,0.0,0.03
1526667470.45518398,61871075,-1.86,-0.35,-0.96,1321.33117676,-3.55,-4.28,114.27,323.96,0.0,0.02
1526667470.55597711,61971868,-2.26,-0.77,-1.41,3925.90478516,-3.32,-4.01,114.27,327.55,0.0,0.02
1526667470.65593696,62071828,-2.64,-1.2,-1.86,4109.36230469,-3.09,-3.76,114.27,331.22,0.0,0.02
1526667470.75589705,62171788,-2.94,-1.64,-2.29,4142.37158203,-2.81,-3.51,114.27,335.01,0.0,0.02
1526667470.85585713,62271748,-3.17,-2.05,-2.68,4156.11035156,-2.48,-3.22,114.27,338.81,0.0,0.02
1526667470.95581698,62371708,-3.33,-2.42,-3.01,4098.37695312,-2.09,-2.9,114.27,342.68,0.0,0.02
1526667471.05577707,62471668,-3.38,-2.74,-3.26,3930.26416016,-1.64,-2.54,114.27,346.66,0.0,0.02
1526667471.15573716,62571628,-3.26,-3.01,-3.4,3674.09692383,-1.19,-2.17,114.27,350.64,0.0,0.03
1526667471.25569701,62671588,-3.02,-3.13,-3.42,3362.30126953,-0.74,-1.68,114.27,354.61,0.0,0.03
1526667471.35565710,62771548,-2.67,-3.08,-3.3,3059.33056641,-0.31,-1.17,114.27,358.61,0.0,0.03
1526667471.45561695,62871508,-2.21,-2.91,-3.06,2792.63818359,0.07,-0.75,114.27,2.57,0.0,0.04
1526667471.55557704,62971468,-1.58,-2.65,-2.67,2547.1809082,0.36,-0.35,114.27,6.55,0.0,0.04
1526667471.65553713,63071428,-0.83,-2.29,-2.15,2339.72412109,0.6,0.04,114.27,10.47,0.0,0.04
1526667471.75549698,63171388,0.09,-1.71,-1.49,2185.98706055,0.77,0.45,114.27,14.46,0.0,0.04
1526667471.85545707,63271348,1.23,-0.94,-0.69,2065.81518555,0.84,0.7,114.27,18.41,0.0,0.05
1526667471.95541716,63371308,2.0,-0.07,0.23,1981.30358887,0.72,0.83,114.27,22.38,0.0,0.05
1526667472.05537701,63471268,2.26,0.73,1.11,1931.35778809,0.43,0.83,114.27,26.32,0.0,0.05
1526667472.15533710,63571228,2.26,1.44,1.83,1911.03063965,0.13,0.71,114.27,30.29,0.0,0.05
1526667472.25529718,63671188,2.05,1.92,2.29,1886.1973877,-0.17,0.46,114.27,34.18,0.0,0.05
1526667472.35525703,63771148,1.73,2.13,2.48,1860.30444336,-0.45,0.15,114.27,38.03,0.0,0.04
1526667472.45521712,63871108,1.61,2.14,2.43,1820.95751953,-0.74,-0.19,114.27,41.87,0.0,0.04
1526667472.55517697,63971068,1.64,2.09,2.25,1759.84460449,-1.05,-0.47,114.27,45.74,0.0,0.04
1526667472.65597010,64071861,1.76,2.04,2.03,1683.88684082,-1.36,-0.67,114.27,49.68,0.0,0.04
1526667472.75593019,64171821,1.85,1.95,1.84,1612.8807373,-1.73,-0.86,114.27,53.57,0.0,0.04
1526667472.85589004,64271781,1.96,1.93,1.7,1557.96936035,-2.12,-1.13,114.27,57.47,0.0,0.04
1526667472.95585012,64371741,2.09,1.98,1.64,1527.17553711,-2.57,-1.43,114.27,61.41,0.0,0.04
1526667473.05580997,64471701,2.2,2.06,1.65,1522.40161133,-3.04,-1.81,114.27,65.28,0.0,0.04
1526667473.15577006,64571661,2.29,2.17,1.74,1835.90002441,-3.52,-2.21,114.27,69.14,0.0,0.05
1526667473.25573015,64671621,2.3,2.25,1.85,1765.14868164,-4.03,-2.68,114.27,73.04,0.0,0.05
1526667473.35569000,64771581,2.27,2.33,1.97,1631.7923584,-4.5,-3.18,114.27,77.03,0.0,0.05
1526667473.45565009,64871541,2.17,2.37,2.05,1513.4720459,-5.01,-3.71,114.27,81.04,0.0,0.05
1526667473.55561018,64971501,2.02,2.35,2.09,1371.00341797,-5.51,-4.21,114.27,85.07,0.0,0.05
1526667473.65557003,65071461,1.72,2.25,2.05,1228.58959961,-5.92,-4.74,114.27,89.11,0.0,0.05
1526667473.75553012,65171421,1.29,2.06,1.91,1091.48303223,-6.03,-5.24,114.27,93.2,0.0,0.05
1526667473.85548997,65271381,0.82,1.79,1.65,980.739746094,-6.04,-5.67,114.27,97.33,0.0,0.05
1526667473.95545006,65371341,0.32,1.45,1.28,897.020202637,-6.05,-5.93,114.27,101.53,0.0,0.05
1526667474.05541015,65471301,-0.16,1.03,0.83,838.517578125,-6.05,-6.07,114.27,105.69,0.0,0.05
1526667474.15537000,65571261,-0.64,0.53,0.33,796.922302246,-6.05,-6.16,114.27,109.77,0.0,0.04
1526667474.25533009,65671221,-1.07,-0.08,-0.18,749.76751709,-6.04,-6.24,114.27,113.48,0.0,0.04
1526667474.35529017,65771181,-1.42,-0.75,-0.68,694.37298584,-6.05,-6.31,114.27,116.54,0.0,0.04
1526667474.45525002,65871141,-1.65,-1.31,-1.14,656.179504395,-6.09,-6.25,114.27,118.67,0.0,0.02
1526667474.55521011,65971101,-1.73,-1.71,-1.5,636.823486328,-6.18,-6.25,114.27,119.88,0.0,0.01
1526667474.65516996,66071061,-1.66,-2.0,-1.74,629.064025879,-6.32,-6.28,114.27,120.27,0.0,0.0
1526667474.75596309,66171854,-1.43,-2.19,-1.83,646.01159668,-6.51,-6.31,114.27,120.01,0.0,0.0
1526667474.85592318,66271814,-1.13,-2.18,-1.77,693.059753418,-6.72,-6.3,114.27,119.21,0.0,0.01
1526667474.95588303,66371774,-0.76,-1.98,-1.56,748.858154297,-6.95,-6.27,114.27,118.1,0.0,0.02
1526667475.05584311,66471734,-0.37,-1.54,-1.23,781.086425781,-7.46,-6.32,114.27,116.87,0.0,0.03
1526667475.15580297,66571694,-0.03,-0.94,-0.83,763.873352051,-8.12,-6.58,114.27,115.65,0.0,0.02
1526667475.25576305,66671654,0.22,-0.37,-0.4,730.309509277,-8.81,-7.02,114.27,114.61,0.0,0.02
1526667475.35572314,66771614,0.42,0.12,0.0,702.312927246,-9.5,-7.55,114.27,113.76,0.0,0.01
1526667475.45568299,66871574,0.52,0.51,0.34,681.996826172,-10.16,-8.21,114.27,113.17,0.0,0.0
1526667475.55564308,66971534,0.58,0.81,0.6,669.603820801,-10.78,-8.93,114.27,112.87,0.0,0.0
1526667475.65560317,67071494,0.51,0.97,0.75,660.823791504,-11.35,-9.69,114.27,112.82,0.0,0.0
1526667475.75556302,67171454,0.38,0.99,0.8,410.35345459,-11.89,-10.43,114.27,112.93,0.0,0.01
1526667475.85552311,67271414,0.19,0.87,0.74,323.971282959,-12.36,-11.07,114.27,113.25,0.0,0.01
1526667475.95548296,67371374,-0.03,0.7,0.58,264.684997559,-12.77,-11.68,114.27,113.7,0.0,0.01
1526667476.05544305,67471334,-0.26,0.44,0.36,223.652801514,-13.14,-12.26,114.27,114.16,0.0,0.01
1526667476.15540314,67571294,-0.43,0.12,0.09,183.450073242,-13.47,-12.76,114.27,114.54,0.0,0.01
1526667476.25536299,67671254,-0.56,-0.13,-0.16,153.766143799,-13.77,-13.19,114.27,114.82,0.0,0.01
1526667476.35532308,67771214,-0.64,-0.36,-0.4,134.751159668,-14.06,-13.58,114.27,114.97,0.0,0.0
1526667476.45528316,67871174,-0.7,-0.57,-0.6,119.938720703,-14.33,-13.9,114.27,115.13,0.0,0.0
1526667476.55524302,67971134,-0.66,-0.74,-0.73,106.987640381,-14.4,-14.2,114.27,115.11,0.0,0.0
1526667476.65520310,68071094,-0.6,-0.85,-0.79,97.6449813843,-14.37,-14.37,114.27,115.04,0.0,0.0
1526667476.75599599,68171887,-0.51,-0.95,-0.78,98.9040298462,-14.32,-14.45,114.27,114.93,0.0,0.0
1526667476.85595608,68271847,-0.41,-1.0,-0.72,133.891372681,-14.26,-14.43,114.27,114.89,0.0,0.0
1526667476.95591617,68371807,-0.27,-0.99,-0.61,208.57711792,-14.24,-14.39,114.27,114.82,0.0,0.01
1526667477.05587602,68471767,-0.15,-0.91,-0.46,307.608642578,-14.24,-14.38,114.27,114.78,0.0,0.01
1526667477.15583611,68571727,-0.07,-0.85,-0.31,448.342193604,-14.27,-14.3,114.27,114.77,0.0,0.01
1526667477.25579596,68671687,0.03,-0.67,-0.16,596.342102051,-14.33,-14.23,114.27,114.68,0.0,0.01
1526667477.35575604,68771647,0.16,-0.49,-0.01,706.179626465,-14.41,-14.19,114.27,114.5,0.0,0.01
1526667477.45571613,68871607,0.26,-0.25,0.11,766.500793457,-14.53,-14.17,114.27,114.31,0.0,0.01
1526667477.55567598,68971567,0.32,0.02,0.23,768.443725586,-14.68,-14.22,114.27,114.16,0.0,0.01
1526667477.65563607,69071527,0.34,0.25,0.31,739.653686523,-14.85,-14.35,114.27,114.05,0.0,0.01
1526667477.75559616,69171487,0.34,0.37,0.37,705.014587402,-15.02,-14.49,114.27,114.01,0.0,0.0
1526667477.85555601,69271447,0.27,0.42,0.39,673.009277344,-15.18,-14.7,114.27,114.11,0.0,0.0
1526667477.95551610,69371407,0.17,0.45,0.37,644.814331055,-15.31,-14.93,114.27,114.25,0.0,0.0
1526667478.05547595,69471367,0.07,0.39,0.3,621.024108887,-15.44,-15.18,114.27,114.37,0.0,0.0
1526667478.15543604,69571327,-0.01,0.27,0.21,597.950866699,-15.54,-15.41,114.27,114.47,0.0,0.0
1526667478.25539613,69671287,-0.09,0.14,0.11,575.691894531,-15.64,-15.64,114.27,114.55,0.0,0.0
1526667478.35535598,69771247,-0.17,-0.01,0.0,2.12532091141,-15.73,-15.82,114.27,114.58,0.0,0.0
1526667478.45531607,69871207,-0.21,-0.13,-0.1,3.97392082214,-15.81,-15.92,114.27,114.54,0.0,0.0
1526667478.55527616,69971167,-0.21,-0.23,-0.18,6.70356082916,-15.91,-15.97,114.27,114.48,0.0,0.0
1526667478.65523601,70071127,-0.19,-0.34,-0.24,17.6696968079,-16.01,-15.99,114.27,114.41,0.0,0.0
1526667478.75519609,70171087,-0.19,-0.42,-0.26,47.3530654907,-16.12,-16.01,114.27,114.37,0.0,0.0
1526667478.85598898,70271880,-0.17,-0.51,-0.26,102.267623901,-16.2,-16.06,114.27,114.44,0.0,0.0
1526667478.95594907,70371840,-0.17,-0.51,-0.25,182.110397339,-16.33,-16.04,114.27,114.53,0.0,0.0
1526667479.05590916,70471800,-0.14,-0.45,-0.22,228.557937622,-16.43,-16.05,114.27,114.55,0.0,0.0
1526667479.15586901,70571760,-0.08,-0.33,-0.18,243.166732788,-16.55,-16.1,114.27,114.54,0.0,0.0
1526667479.25582910,70671720,-0.06,-0.2,-0.13,229.569473267,-16.67,-16.22,114.27,114.59,0.0,0.0
1526667479.35578918,70771680,-0.09,-0.07,-0.09,209.531997681,-16.8,-16.38,114.27,114.71,0.0,0.0
1526667479.45574903,70871640,-0.14,-0.04,-0.07,193.013916016,-16.53,-16.6,114.27,114.83,0.0,0.0
1526667479.55570912,70971600,-0.18,-0.19,-0.07,180.396148682,-15.76,-16.68,114.27,114.88,0.0,0.0
1526667479.65566897,71071560,-0.19,-0.34,-0.09,190.255523682,-15.45,-16.54,114.27,114.79,0.0,0.0
1526667479.75562906,71171520,-0.15,-0.51,-0.11,246.770629883,-15.3,-16.26,114.27,114.68,0.0,0.01
1526667479.85558915,71271480,-0.03,-0.56,-0.12,352.434509277,-15.3,-15.93,114.27,114.38,0.0,0.01
1526667479.95554900,71371440,0.09,-0.43,-0.09,421.14755249,-15.25,-15.65,114.27,114.01,0.0,0.02
1526667480.05550909,71471400,0.18,-0.27,-0.03,444.515197754,-15.51,-15.45,114.27,113.81,0.0,0.01
1526667480.15546918,71571360,0.25,-0.03,0.04,437.476104736,-15.81,-15.38,114.27,113.66,0.0,0.01
1526667480.25542903,71671320,0.3,0.19,0.13,416.423461914,-15.95,-15.46,114.27,113.52,0.0,0.01
1526667480.35538912,71771280,0.32,0.34,0.21,400.925933838,-15.97,-15.58,114.27,113.51,0.0,0.0
1526667480.45534897,71871240,0.29,0.4,0.27,389.956207275,-15.83,-15.69,114.27,113.56,0.0,0.0
1526667480.55530906,71971200,0.18,0.44,0.3,380.13760376,-16.15,-15.75,114.27,113.78,0.0,0.0
1526667480.65526915,72071160,0.04,0.46,0.27,376.316772461,-16.48,-15.88,114.27,114.07,0.0,0.0
1526667480.75522900,72171120,-0.11,0.34,0.2,372.342468262,-16.57,-16.09,114.27,114.44,0.0,0.0
1526667480.85518909,72271080,-0.28,0.16,0.08,362.121826172,-16.83,-16.33,114.27,114.81,0.0,0.0
1526667480.95598197,72371873,-0.41,0.0,-0.06,58.5936813354,-16.75,-16.55,114.27,115.03,0.0,0.0
1526667481.05594206,72471833,-0.51,-0.21,-0.22,42.5413093567,-16.71,-16.77,114.27,115.16,0.0,0.0
1526667481.15590215,72571793,-0.56,-0.46,-0.38,33.2451324463,-16.8,-16.91,114.27,115.14,0.0,0.0
1526667481.25586200,72671753,-0.55,-0.67,-0.5,63.4782028198,-16.78,-16.96,114.27,115.03,0.0,0.0
1526667481.35582209,72771713,-0.48,-0.93,-0.57,157.157577515,-16.48,-16.94,10.62,114.88,0.0,0.0
1526667481.45578218,72871673,-0.19,-1.65,-0.57,1002.84844971,-13.11,-16.73,10.62,114.19,0.0,0.0
1526667481.55574203,72971633,0.24,-2.33,-0.45,4204.58496094,-11.42,-15.7,10.62,112.77,0.0,0.03
1526667481.65570211,73071593,0.84,-2.52,-0.19,9446.96679688,-10.42,-14.2,10.62,110.77,0.0,0.06
1526667481.75566196,73171553,1.54,-2.14,0.21,14676.453125,-9.68,-12.64,10.62,108.33,0.0,0.07
1526667481.85562205,73271513,2.27,-1.38,0.77,18357.1347656,-9.1,-11.24,10.62,105.58,0.0,0.08
1526667481.95558214,73371473,3.01,-0.39,1.45,20354.9472656,-8.59,-10.06,10.62,102.5,0.0,0.08
1526667482.05554199,73471433,3.71,0.68,2.19,21011.8398438,-8.16,-9.12,10.62,99.11,0.0,0.08
1526667482.15550208,73571393,4.35,1.77,2.97,20821.9707031,-7.76,-8.43,10.62,95.57,0.0,0.07
1526667482.25546217,73671353,4.91,2.74,3.73,20181.9042969,-7.37,-7.88,10.62,91.9,0.0,0.07
1526667482.35542202,73771313,5.36,3.63,4.42,19365.6054688,-6.99,-7.42,10.62,88.2,0.0,0.07
1526667482.45538211,73871273,5.72,4.4,5.03,18474.0996094,-6.59,-7.0,10.62,84.49,0.0,0.06
1526667482.55534196,73971233,6.0,5.06,5.52,17568.3886719,-6.16,-6.69,10.62,80.7,0.0,0.06
1526667482.65530205,74071193,6.2,5.63,5.9,16667.0253906,-5.68,-6.41,10.62,76.9,0.0,0.06
1526667482.75526214,74171153,6.3,6.04,6.16,15810.7167969,-5.13,-6.1,10.62,73.07,0.0,0.06
1526667482.85522199,74271113,6.29,6.32,6.31,15022.2695312,-4.57,-5.76,10.62,69.22,0.0,0.06
1526667482.95518208,74371073,6.19,6.44,6.35,14308.0146484,-3.97,-5.41,10.62,65.37,0.0,0.06
1526667483.05597496,74471866,5.98,6.46,6.29,13665.3242188,-3.36,-5.02,10.62,61.53,0.0,0.06
1526667483.15593505,74571826,5.69,6.31,6.13,13085.8007812,-2.81,-4.65,10.62,57.68,0.0,0.06
1526667483.25589514,74671786,5.31,6.0,5.88,12549.390625,-2.28,-4.18,10.62,53.88,0.0,0.07
1526667483.35585499,74771746,4.87,5.65,5.55,12051.4667969,-1.77,-3.67,10.62,50.06,0.0,0.07
1526667483.45581508,74871706,4.35,5.29,5.14,11593.7177734,-1.32,-3.15,10.62,46.22,0.0,0.07
1526667483.55577517,74971666,3.73,4.87,4.67,289.067749023,-0.95,-2.71,10.62,42.38,0.0,0.07
1526667483.65573502,75071626,3.04,4.36,4.12,368.588500977,-0.69,-2.23,10.62,38.49,0.0,0.07
1526667483.75569510,75171586,2.31,3.83,3.51,510.664642334,-0.55,-1.88,10.62,34.57,0.0,0.07
1526667483.85565495,75271546,1.52,3.26,2.84,719.866577148,-0.57,-1.64,10.62,30.6,0.0,0.07
1526667483.95561504,75371506,0.63,2.62,2.11,1012.67828369,-0.73,-1.51,10.62,26.68,0.0,0.07
1526667484.05557513,75471466,-0.35,1.91,1.31,1366.83093262,-1.06,-1.49,10.62,22.82,0.0,0.07
1526667484.15553498,75571426,-1.47,1.16,0.43,1814.32897949,-1.58,-1.61,10.62,18.94,0.0,0.07
1526667484.25549507,75671386,-2.81,0.29,-0.55,2361.61962891,-2.25,-1.91,10.62,15.09,0.0,0.08
1526667484.35545516,75771346,-4.19,-0.68,-1.68,3068.52148438,-2.96,-2.43,10.62,11.59,0.0,0.07
1526667484.45541501,75871306,-4.51,-1.7,-2.79,3873.61401367,-3.58,-3.06,10.62,8.71,0.0,0.07
1526667484.55537510,75971266,-4.31,-2.52,-3.67,4686.81152344,-4.07,-3.6,10.62,6.61,0.0,0.06
1526667484.65533495,76071226,-3.87,-3.12,-4.2,5351.20751953,-4.42,-3.94,10.62,5.35,0.0,0.04
1526667484.75529504,76171186,-3.28,-3.44,-4.34,5701.45947266,-4.65,-4.09,10.62,4.97,0.0,0.03
1526667484.85525513,76271146,-2.66,-3.48,-4.12,5720.71435547,-4.85,-4.13,10.62,5.34,0.0,0.01
1526667484.95521498,76371106,-2.08,-3.28,-3.61,5506.9296875,-5.07,-4.14,10.62,6.21,0.0,0.0
1526667485.05517507,76471066,-1.59,-2.95,-2.94,5184.46533203,-5.32,-4.22,10.62,7.37,0.0,0.01
1526667485.15596795,76571859,-1.17,-2.55,-2.2,4904.02880859,-5.57,-4.4,10.62,8.65,0.0,0.01
1526667485.25592804,76671819,-0.84,-2.09,-1.48,4767.90820312,-5.86,-4.59,10.62,9.86,0.0,0.01
1526667485.35588813,76771779,-0.65,-1.65,-0.85,4780.73193359,-6.17,-4.85,10.62,10.91,0.0,0.01
1526667485.45584798,76871739,-0.48,-1.26,-0.37,4900.62304688,-6.3,-5.16,10.62,11.63,0.0,0.01
1526667485.55580807,76971699,-0.33,-0.97,-0.03,5066.88916016,-6.26,-5.44,10.62,12.03,0.0,0.0
1526667485.65576816,77071659,-0.22,-0.76,0.17,5234.16308594,-6.2,-5.67,10.62,12.2,0.0,0.0
1526667485.75572801,77171619,-0.12,-0.6,0.27,5366.73193359,-6.19,-5.83,10.62,12.09,0.0,0.0
1526667485.85568810,77271579,-0.09,-0.43,0.3,5416.12255859,-6.2,-5.94,10.62,11.86,0.0,0.0
1526667485.95564818,77371539,-0.11,-0.26,0.26,5355.57617188,-6.22,-6.09,10.62,11.58,0.0,0.0
1526667486.05560803,77471499,-0.16,-0.16,0.17,5220.82958984,-6.27,-6.16,10.62,11.33,0.0,0.0
1526667486.15556812,77571459,-0.2,-0.14,0.06,725.485961914,-6.37,-6.21,10.62,11.11,0.0,0.0
1526667486.25552797,77671419,-0.29,-0.15,-0.04,485.138244629,-6.49,-6.29,10.62,10.95,0.0,0.0
1526667486.35548806,77771379,-0.39,-0.21,-0.17,339.736328125,-6.62,-6.37,10.62,10.84,0.0,0.0
1526667486.45544815,77871339,-0.49,-0.27,-0.29,256.249328613,-6.74,-6.42,10.62,10.69,0.0,0.01
1526667486.55540800,77971299,-0.62,-0.3,-0.42,217.166091919,-6.85,-6.53,10.62,10.48,0.0,0.0
1526667486.65536809,78071259,-0.68,-0.36,-0.53,221.231536865,-7.22,-6.66,10.62,10.33,0.0,0.0
1526667486.75532818,78171219,-0.68,-0.37,-0.63,263.004180908,-7.82,-6.9,10.62,10.29,0.0,0.0
1526667486.85528803,78271179,-0.68,-0.4,-0.69,329.362243652,-8.47,-7.25,10.62,10.27,0.0,0.0
1526667486.95524812,78371139,-0.68,-0.4,-0.72,403.857727051,-9.1,-7.73,10.62,10.3,0.0,0.0
1526667487.05520797,78471099,-0.71,-0.42,-0.73,467.02053833,-9.7,-8.22,10.62,10.37,0.0,0.0
1526667487.15600109,78571892,-0.78,-0.47,-0.74,503.963745117,-10.29,-8.76,10.62,10.4,0.0,0.0
1526667487.25596118,78671852,-0.84,-0.53,-0.75,514.195739746,-10.82,-9.34,10.62,10.39,0.0,0.0
1526667487.35592103,78771812,-0.86,-0.56,-0.77,513.630554199,-11.32,-9.94,10.62,10.31,0.0,0.0
1526667487.45588112,78871772,-0.89,-0.6,-0.8,510.998779297,-11.76,-10.53,10.62,10.24,0.0,0.0
1526667487.55584097,78971732,-0.89,-0.66,-0.82,497.514526367,-12.18,-11.06,10.62,10.21,0.0,0.0
1526667487.65580106,79071692,-0.9,-0.69,-0.84,482.484680176,-12.55,-11.53,10.62,10.21,0.0,0.0
1526667487.75576115,79171652,-0.93,-0.71,-0.86,467.254150391,-12.9,-11.95,10.62,10.26,0.0,0.0
1526667487.85572100,79271612,-0.96,-0.73,-0.88,454.195098877,-13.22,-12.4,10.62,10.3,0.0,0.0
1526667487.95568109,79371572,-0.96,-0.74,-0.9,444.747955322,-13.53,-12.84,10.62,10.3,0.0,0.0
1526667488.05564117,79471532,-0.96,-0.8,-0.92,434.041015625,-13.83,-13.29,10.62,10.33,0.0,0.0
1526667488.15560102,79571492,-1.04,-0.93,-0.94,416.381103516,-13.94,-13.67,10.62,10.41,0.0,0.0
1526667488.25556111,79671452,-1.12,-1.08,-0.98,398.855895996,-13.9,-13.98,10.62,10.41,0.0,0.0
1526667488.35552096,79771412,-1.16,-1.25,-1.03,393.221466064,-13.82,-14.1,10.62,10.42,0.0,0.0
1526667488.45548105,79871372,-1.19,-1.35,-1.08,402.095489502,-13.73,-14.11,10.62,10.5,0.0,0.0
1526667488.55544114,79971332,-1.2,-1.46,-1.12,423.476531982,-13.65,-14.08,10.62,10.55,0.0,0.0
1526667488.65540099,80071292,-1.16,-1.52,-1.16,454.856689453,-13.59,-14.06,10.62,10.49,0.0,0.0
1526667488.75536108,80171252,-1.11,-1.55,-1.17,1366.36853027,-13.55,-13.99,10.62,10.5,0.0,0.0
1526667488.85532117,80271212,-1.06,-1.5,-1.16,1322.45373535,-13.54,-13.9,10.62,10.55,0.0,0.0
1526667488.95528102,80371172,-1.02,-1.44,-1.13,1208.76916504,-13.57,-13.78,10.62,10.62,0.0,0.0
1526667489.05524111,80471132,-0.98,-1.39,-1.09,1130.81481934,-13.64,-13.73,10.62,10.67,0.0,0.0
1526667489.15520096,80571092,-0.96,-1.34,-1.04,1087.63049316,-13.74,-13.76,10.62,10.73,0.0,0.0
1526667489.25599408,80671885,-0.95,-1.26,-0.99,1030.55322266,-13.82,-13.88,10.62,10.81,0.0,0.0
1526667489.35595417,80771845,-0.95,-1.31,-0.96,1011.38427734,-13.96,-14.01,10.62,10.91,0.0,0.0
1526667489.45591402,80871805,-0.95,-1.36,-0.94,1072.14770508,-14.08,-14.07,10.62,10.97,0.0,0.0
1526667489.55587411,80971765,-0.92,-1.39,-0.92,1177.45397949,-14.21,-14.13,10.62,11.01,0.0,0.0
1526667489.65583396,81071725,-0.89,-1.36,-0.91,1259.3560791,-14.34,-14.15,10.62,11.03,0.0,0.0
1526667489.75579405,81171685,-0.85,-1.29,-0.89,1303.68847656,-14.52,-14.13,10.62,11.01,0.0,0.0
1526667489.85575414,81271645,-0.8,-1.2,-0.87,1302.12878418,-14.72,-14.14,10.62,10.95,0.0,0.0
1526667489.95571399,81371605,-0.78,-1.05,-0.85,1254.98193359,-14.91,-14.22,10.62,10.87,0.0,0.0
1526667490.05567408,81471565,-0.77,-0.86,-0.83,1176.4675293,-15.11,-14.37,10.62,10.73,0.0,0.0
1526667490.15563416,81571525,-0.75,-0.68,-0.8,1101.21240234,-15.32,-14.57,10.62,10.53,0.0,0.0
1526667490.25559402,81671485,-0.76,-0.57,-0.78,1053.65063477,-15.53,-14.79,10.62,10.32,0.0,0.0
1526667490.35555410,81771445,-0.76,-0.53,-0.77,1024.68603516,-15.7,-15.01,10.62,10.21,0.0,0.0
1526667490.45551395,81871405,-0.79,-0.5,-0.77,1005.515625,-15.87,-15.24,10.62,10.16,0.0,0.0
1526667490.55547404,81971365,-0.83,-0.46,-0.78,999.194335938,-16.03,-15.45,10.62,10.19,0.0,0.0
1526667490.65543413,82071325,-0.9,-0.48,-0.81,1006.24127197,-16.17,-15.69,10.62,10.31,0.0,0.0
1526667490.75539398,82171285,-0.99,-0.63,-0.86,997.887695312,-16.3,-15.9,10.62,10.45,0.0,0.0
1526667490.85535407,82271245,-1.05,-0.8,-0.92,967.60534668,-16.31,-16.04,10.62,10.52,0.0,0.0
1526667490.95531416,82371205,-1.12,-0.98,-0.99,928.57409668,-16.19,-16.14,10.62,10.56,0.0,0.0
1526667491.05527401,82471165,-1.14,-1.11,-1.07,890.094360352,-16.01,-16.24,10.62,10.49,0.0,0.0
1526667491.15523410,82571125,-1.09,-1.19,-1.12,855.805297852,-15.79,-16.25,10.62,10.38,0.0,0.0
1526667491.25519395,82671085,-1.03,-1.2,-1.14,824.074829102,-15.56,-16.17,10.62,10.3,0.0,0.0
1526667491.35598707,82771878,-0.98,-1.25,-1.14,63.22813797,-15.27,-15.98,10.62,10.3,0.0,0.0
1526667491.45594716,82871838,-0.95,-1.25,-1.11,105.309890747,-15.03,-15.74,10.62,10.37,0.0,0.0
1526667491.55590701,82971798,-0.9,-1.23,-1.06,145.673995972,-14.78,-15.51,10.62,10.5,0.0,0.0
1526667491.65586710,83071758,-0.88,-1.19,-1.01,187.944900513,-14.52,-15.27,10.62,10.62,0.0,0.0
1526667491.75582695,83171718,-0.88,-1.16,-0.95,216.637573242,-14.27,-15.05,10.62,10.78,0.0,0.0
1526667491.85578704,83271678,-0.89,-1.14,-0.92,250.959671021,-14.02,-14.84,10.62,10.9,0.0,0.0
1526667491.95574713,83371638,-0.88,-1.19,-0.89,308.684326172,-13.74,-14.58,10.62,11.01,0.0,0.0
1526667492.05570698,83471598,-0.87,-1.24,-0.87,410.760314941,-13.46,-14.28,10.62,11.1,0.0,0.0
1526667492.15566707,83571558,-0.85,-1.17,-0.87,491.490875244,-13.18,-14.02,10.62,11.12,0.0,0.0
1526667492.25562716,83671518,-0.8,-1.08,-0.86,507.081604004,-12.88,-13.76,10.62,11.1,0.0,0.0
1526667492.35558701,83771478,-0.74,-0.98,-0.84,492.038116455,-12.56,-13.48,10.62,11.05,0.0,0.0
1526667492.45554709,83871438,-0.67,-0.91,-0.81,461.853973389,-12.22,-13.18,10.62,10.95,0.0,0.0
1526667492.55550718,83971398,-0.62,-0.91,-0.76,436.066497803,-11.87,-12.81,10.62,10.89,0.0,0.0
1526667492.65546703,84071358,-0.58,-0.88,-0.72,421.754882812,-11.51,-12.45,10.62,10.82,0.0,0.0
1526667492.75542712,84171318,-0.54,-0.82,-0.67,409.358459473,-11.14,-12.14,10.62,10.85,0.0,0.0
1526667492.85538697,84271278,-0.5,-0.77,-0.62,398.046691895,-10.73,-11.86,10.62,10.92,0.0,0.0
1526667492.95534706,84371238,-0.45,-0.76,-0.57,391.430755615,-10.27,-11.49,10.62,11.0,0.0,0.0
1526667493.05530715,84471198,-0.39,-0.73,-0.52,391.685638428,-9.81,-11.04,10.62,11.0,0.0,0.0
1526667493.15526700,84571158,-0.33,-0.68,-0.47,393.09564209,-9.2,-10.6,10.62,10.87,0.0,0.0
1526667493.25522709,84671118,-0.25,-0.66,-0.41,398.505157471,-8.56,-10.09,10.62,10.72,0.0,0.0
1526667493.35518718,84771078,-0.16,-0.62,-0.34,412.027069092,-8.14,-9.45,10.62,10.55,0.0,0.0
1526667493.45598006,84871871,-0.07,-0.55,-0.27,428.506286621,-7.75,-8.81,10.62,10.42,0.0,0.0
1526667493.55594015,84971831,0.0,-0.43,-0.19,438.727355957,-7.51,-8.24,10.62,10.31,0.0,0.0
1526667493.65590000,85071791,0.04,-0.26,-0.12,434.44140625,-7.29,-7.83,10.62,10.28,0.0,0.0
1526667493.75586009,85171751,0.1,-0.11,-0.05,420.881164551,-7.09,-7.53,10.62,10.34,0.0,0.0
1526667493.85582018,85271711,0.13,0.0,0.01,405.026641846,-6.87,-7.31,10.62,10.39,0.0,0.0
1526667493.95578003,85371671,0.13,0.03,0.05,2.8548719883,-6.62,-7.12,10.62,10.44,0.0,0.0
1526667494.05574012,85471631,0.09,0.0,0.08,22.188419342,-6.34,-6.86,10.62,10.57,0.0,0.0
1526667494.15569997,85571591,0.06,0.0,0.08,45.0091094971,-6.03,-6.6,10.62,10.65,0.0,0.0
1526667494.25566006,85671551,0.08,0.03,0.07,49.2943077087,-5.7,-6.36,10.62,10.66,0.0,0.0
1526667494.35562015,85771511,0.1,0.08,0.06,40.6261749268,-5.32,-6.09,10.62,10.65,0.0,0.0
1526667494.45558000,85871471,0.1,0.13,0.05,38.0900421143,-4.89,-5.8,10.62,10.64,0.0,0.0
1526667494.55554008,85971431,0.09,0.09,0.04,38.3801879883,-4.41,-5.44,10.62,10.62,0.0,0.0
1526667494.65550017,86071391,0.09,0.05,0.03,34.4405441284,-3.9,-5.05,10.62,10.57,0.0,0.0
1526667494.75546002,86171351,0.13,0.03,0.03,30.7028980255,-3.35,-4.6,10.62,10.5,0.0,0.0
1526667494.85542011,86271311,0.19,0.0,0.04,28.9227352142,-2.75,-4.03,10.62,10.47,0.0,0.0
1526667494.95537996,86371271,0.43,0.06,0.08,27.3119602203,-0.97,-3.47,10.62,10.48,0.0,0.0
1526667495.05534005,86471231,0.6,-0.04,0.17,35.2131767273,3.62,-2.38,10.62,10.49,0.0,0.0
1526667495.15530014,86571191,0.86,-0.51,0.33,261.788787842,9.1,0.05,10.62,10.49,0.0,0.02
1526667495.25525999,86671151,1.06,-0.74,0.52,1118.16467285,10.83,3.39,10.62,10.49,0.0,0.03
1526667495.35522008,86771111,1.25,-0.45,0.75,2129.94824219,10.94,6.4,10.62,10.44,0.0,0.01
1526667495.45518017,86871071,1.41,0.2,0.97,2635.83740234,10.16,8.48,10.62,10.43,0.0,0.0
1526667495.55597305,86971864,1.49,1.05,1.19,2624.60302734,8.85,9.51,10.62,10.47,0.0,0.01
1526667495.65593314,87071824,1.42,1.8,1.35,2511.59448242,7.17,9.55,10.62,10.49,0.0,0.02
1526667495.75589299,87171784,1.2,2.31,1.42,2637.20556641,5.37,8.8,10.62,10.47,0.0,0.02
1526667495.85585308,87271744,0.88,2.53,1.38,3039.67114258,3.64,7.53,10.62,10.47,0.0,0.02
1526667495.95581317,87371704,0.5,2.43,1.22,3569.06958008,2.11,6.03,10.62,10.47,0.0,0.01
1526667496.05577302,87471664,0.1,2.14,0.94,4068.23754883,0.85,4.49,10.62,10.52,0.0,0.01
1526667496.15573311,87571624,-0.24,1.7,0.58,4467.08642578,-0.09,3.03,10.62,10.58,0.0,0.0
1526667496.25569296,87671584,-0.54,1.23,0.19,4762.96582031,-0.81,1.8,10.62,10.64,0.0,0.0
1526667496.35565305,87771544,-0.77,0.75,-0.2,4972.27539062,-1.33,0.74,10.62,10.7,0.0,0.0
1526667496.45561314,87871504,-0.91,0.3,-0.56,5092.09667969,-1.64,-0.06,10.62,10.73,0.0,0.0
1526667496.55557299,87971464,-1.0,-0.05,-0.84,6782.02832031,-1.78,-0.72,10.62,10.68,0.0,0.0
1526667496.65553308,88071424,-1.03,-0.34,-1.05,6250.29541016,-1.78,-1.19,10.62,10.69,0.0,0.0
1526667496.75549316,88171384,-0.98,-0.63,-1.16,5495.77099609,-1.67,-1.44,10.62,10.75,0.0,0.0
1526667496.85545301,88271344,-0.88,-0.85,-1.18,4621.09130859,-1.5,-1.57,10.62,10.83,0.0,0.0
1526667496.95541310,88371304,-0.74,-1.02,-1.12,3801.83154297,-1.29,-1.56,10.62,10.91,0.0,0.0
1526667497.05537295,88471264,-0.58,-1.1,-0.99,3174.7121582,-1.07,-1.44,10.62,10.92,0.0,0.0
1526667497.15533304,88571224,-0.36,-1.04,-0.81,2763.06469727,-0.85,-1.28,10.62,10.89,0.0,0.0
1526667497.25529313,88671184,-0.14,-0.93,-0.59,2523.22558594,-0.62,-1.07,10.62,10.87,0.0,0.0
1526667497.35525298,88771144,0.04,-0.75,-0.34,2398.22143555,-0.37,-0.84,10.62,10.85,0.0,0.0
1526667497.45521307,88871104,0.23,-0.55,-0.1,2338.58178711,-0.15,-0.61,10.62,10.83,0.0,0.0
1526667497.55517316,88971064,0.41,-0.34,0.12,2319.28833008,0.03,-0.43,10.62,10.82,0.0,0.0
1526667497.65596604,89071857,0.53,-0.17,0.33,2326.34228516,0.16,-0.26,10.62,10.82,0.0,0.0
1526667497.75592613,89171817,0.61,0.01,0.51,2346.46337891,0.26,-0.09,10.62,10.76,0.0,0.0
1526667497.85588598,89271777,0.67,0.15,0.64,2350.39135742,0.33,0.08,10.62,10.68,0.0,0.0
1526667497.95584607,89371737,0.66,0.28,0.72,2341.85131836,0.35,0.25,10.62,10.59,0.0,0.0
1526667498.05580616,89471697,0.65,0.42,0.76,2291.54150391,0.37,0.28,10.62,10.57,0.0,0.0
1526667498.15576601,89571657,0.6,0.52,0.75,2206.50927734,0.38,0.28,10.62,10.61,0.0,0.0
1526667498.25572610,89671617,0.54,0.6,0.71,2101.67333984,0.39,0.27,10.62,10.66,0.0,0.0
1526667498.35568595,89771577,0.49,0.66,0.64,1993.01098633,0.42,0.33,10.62,10.7,0.0,0.0
1526667498.45564604,89871537,0.43,0.74,0.56,1899.01904297,0.4,0.39,10.62,10.71,0.0,0.0
1526667498.55560613,89971497,0.33,0.74,0.47,1833.3470459,0.37,0.4,10.62,10.73,0.0,0.0
1526667498.65556598,90071457,0.22,0.71,0.37,1792.23632812,0.33,0.38,10.62,10.73,0.0,0.0
1526667498.75552607,90171417,0.12,0.66,0.27,1772.12719727,0.34,0.32,10.62,10.73,0.0,0.0
1526667498.85548615,90271377,0.04,0.55,0.16,1763.27026367,0.35,0.24,10.62,10.77,0.0,0.0
1526667498.95544600,90371337,-0.01,0.4,0.07,1744.24145508,0.35,0.17,10.62,10.81,0.0,0.0
1526667499.05540609,90471297,-0.05,0.24,0.0,1708.01867676,0.38,0.15,10.62,10.84,0.0,0.0
1526667499.15536618,90571257,-0.04,0.13,-0.06,469.108337402,0.49,0.17,10.62,10.88,0.0,0.0
1526667499.25532603,90671217,-0.02,0.0,-0.08,325.982788086,0.57,0.2,10.62,10.92,0.0,0.0
1526667499.35528612,90771177,0.0,-0.11,-0.09,223.248565674,0.66,0.3,10.62,10.91,0.0,0.0
1526667499.45524597,90871137,0.03,-0.15,-0.07,172.900253296,0.72,0.4,10.62,10.89,0.0,0.0
1526667499.55520606,90971097,0.08,-0.17,-0.04,161.310012817,0.72,0.56,10.62,10.83,0.0,0.0
