timestamp,TimeUS,DesR,R,IR,IRErr,DesP,P,DesY,Y,ErrRP,ErrYaw
1526667557.43504000,28571900,0.0,0.98,0.0,8712.13964844,0.0,0.38,353.89,353.89,0.0,0.0
1526667557.53500009,28671860,0.0,0.98,0.0,8860.78320312,0.0,0.38,353.79,353.79,0.0,0.0
1526667557.63496017,28771820,0.0,0.99,0.0,8968.36425781,0.0,0.38,353.7,353.7,0.0,0.0
1526667557.73492002,28871780,0.0,1.0,0.0,9073.6875,0.0,0.38,353.62,353.62,0.0,0.0
1526667557.83488011,28971740,0.0,1.0,0.0,9176.61132812,0.0,0.37,353.54,353.54,0.0,0.0
1526667557.93484020,29071700,0.0,1.01,0.0,9272.51757812,0.0,0.36,353.46,353.46,0.0,0.0
1526667558.03480005,29171660,0.0,1.02,0.0,9373.99511719,0.0,0.37,353.36,353.36,0.0,0.0
1526667558.13476014,29271620,0.0,1.03,0.0,9468.37109375,0.0,0.4,353.25,353.25,0.0,0.0
1526667558.23471999,29371580,0.0,1.05,0.0,9568.08105469,0.0,0.41,353.13,353.13,0.0,0.0
1526667558.33468008,29471540,0.0,1.08,0.0,9699.44238281,0.0,0.41,353.04,353.04,0.0,0.0
1526667558.43464017,29571500,0.0,1.12,0.0,9856.98535156,0.0,0.41,352.97,352.97,0.0,0.0
1526667558.53460002,29671460,0.0,1.15,0.0,10044.0078125,0.0,0.4,352.89,352.89,0.0,0.0
1526667558.63456011,29771420,0.0,1.18,0.0,10253.3115234,0.0,0.4,352.8,352.8,0.0,0.0
1526667558.73452020,29871380,0.0,1.2,0.0,10470.1074219,0.0,0.41,352.7,352.7,0.0,0.0
1526667558.83448005,29971340,0.0,1.22,0.0,10690.9277344,0.0,0.42,352.59,352.59,0.0,0.0
1526667558.93444014,30071300,0.0,1.23,0.0,10909.4628906,0.0,0.43,352.48,352.48,0.0,0.0
1526667559.03440022,30171260,0.0,1.26,0.0,11123.0771484,0.0,0.43,352.36,352.36,0.0,0.0
1526667559.13436007,30271220,0.0,1.28,0.0,11346.3115234,0.0,0.42,352.27,352.27,0.0,0.0
1526667559.23432016,30371180,0.0,1.28,0.0,11565.3408203,0.0,0.41,352.19,352.19,0.0,0.0
1526667559.33428001,30471140,0.0,1.28,0.0,11766.1191406,0.0,0.39,352.1,352.1,0.0,0.0
1526667559.43424010,30571100,0.0,1.28,0.0,11944.96875,0.0,0.37,352.02,352.02,0.0,0.0
1526667559.53503299,30671893,0.0,1.29,0.0,12123.1142578,0.0,0.36,351.95,351.95,0.0,0.0
1526667559.63499308,30771853,0.0,1.3,0.0,16880.5742188,0.0,0.36,351.88,351.88,0.0,0.0
1526667559.73495317,30871813,0.0,1.31,0.0,16893.5507812,0.0,0.37,351.84,351.84,0.0,0.0
1526667559.83491302,30971773,0.0,1.31,0.0,16982.6992188,0.0,0.38,351.82,351.82,0.0,0.0
1526667559.93487310,31071733,0.0,1.32,0.0,17043.7128906,0.0,0.4,351.8,351.8,0.0,0.0
1526667560.03483319,31171693,0.0,1.32,0.0,17119.7695312,0.0,0.41,351.78,351.78,0.0,0.0
1526667560.13479304,31271653,0.0,1.33,0.0,17198.0800781,0.0,0.4,351.78,351.78,0.0,0.0
1526667560.23475313,31371613,0.0,1.34,0.0,17278.6992188,0.0,0.41,351.78,351.78,0.0,0.0
1526667560.33471322,31471573,0.0,1.33,0.0,17351.6816406,0.0,0.4,351.83,351.83,0.0,0.0
1526667560.43467307,31571533,0.0,1.33,0.0,17405.4785156,0.0,0.37,351.9,351.9,0.0,0.0
1526667560.53463316,31671493,0.0,1.31,0.0,17400.7753906,0.0,0.34,351.96,351.96,0.0,0.0
1526667560.63459301,31771453,0.0,1.3,0.0,17367.7070312,0.0,0.31,352.02,352.02,0.0,0.0
1526667560.73455310,31871413,0.0,1.27,0.0,17304.5507812,0.0,0.31,352.1,352.1,0.0,0.0
1526667560.83451319,31971373,0.0,1.22,0.0,17164.9726562,0.0,0.32,352.18,352.18,0.0,0.0
1526667560.93447304,32071333,0.0,1.17,0.0,16957.3613281,0.0,0.32,352.25,352.25,0.0,0.0
1526667561.03443313,32171293,0.0,1.17,0.0,16739.4707031,0.0,0.33,352.33,352.33,0.0,0.0
1526667561.13439322,32271253,0.0,1.16,0.0,16543.3554688,0.0,0.33,352.44,352.44,0.0,0.0
1526667561.23435307,32371213,0.0,1.14,0.0,16351.5634766,0.0,0.33,352.56,352.56,0.0,0.0
1526667561.33431315,32471173,0.0,1.12,0.0,16154.1279297,0.0,0.31,352.67,352.67,0.0,0.0
1526667561.43427300,32571133,0.0,1.12,0.0,15964.1210938,0.0,0.29,352.79,352.79,0.0,0.0
1526667561.53423309,32671093,0.0,1.12,0.0,15797.8964844,0.0,0.28,352.88,352.88,0.0,0.0
1526667561.63502622,32771886,0.0,1.13,0.0,15651.2519531,0.0,0.26,352.98,352.98,0.0,0.0
1526667561.73498607,32871846,0.0,1.16,0.0,15533.1904297,0.0,0.27,353.08,353.08,0.0,0.0
1526667561.83494616,32971806,0.0,1.2,0.0,15460.2109375,0.0,0.25,353.19,353.19,0.0,0.0
1526667561.93490601,33071766,0.0,1.22,0.0,15422.8242188,0.0,0.23,353.29,353.29,0.0,0.0
1526667562.03486609,33171726,0.0,1.23,0.0,15402.9863281,0.0,0.21,353.37,353.37,0.0,0.0
1526667562.13482618,33271686,0.0,1.23,0.0,15392.4482422,0.0,0.2,353.45,353.45,0.0,0.0
1526667562.23478603,33371646,0.0,1.23,0.0,15289.5498047,0.0,0.2,353.54,353.54,0.0,0.0
1526667562.33474612,33471606,0.0,1.23,0.0,15209.2753906,0.0,0.2,353.65,353.65,0.0,0.0
1526667562.43470621,33571566,0.02,1.01,0.02,14458.3457031,-0.05,0.06,353.67,353.77,0.0,0.0
1526667562.53466606,33671526,-0.12,0.67,0.01,12515.75,-0.05,-0.08,353.67,353.84,0.0,0.01
1526667562.63462615,33771486,-0.23,0.39,-0.02,10569.8242188,-0.05,-0.18,353.67,353.87,0.0,0.01
1526667562.73458600,33871446,-0.29,0.17,-0.08,8988.40625,-0.03,-0.24,353.67,353.85,0.0,0.01
1526667562.83454609,33971406,-0.35,-0.01,-0.16,7760.94628906,-0.02,-0.26,353.67,353.83,0.0,0.01
1526667562.93450618,34071366,-0.36,-0.2,-0.24,6803.02197266,0.0,-0.26,353.67,353.81,0.0,0.01
1526667563.03446603,34171326,-0.38,-0.37,-0.31,6048.29785156,0.02,-0.21,353.67,353.77,0.0,0.01
1526667563.13442612,34271286,-0.34,-0.48,-0.36,5452.35058594,0.07,-0.13,353.67,353.76,0.0,0.0
1526667563.23438621,34371246,-0.29,-0.54,-0.38,4975.05810547,0.09,-0.06,353.67,353.78,0.0,0.0
1526667563.33434606,34471206,-0.21,-0.54,-0.37,4581.99365234,0.12,0.04,353.67,353.85,0.0,0.0
1526667563.43430614,34571166,-0.09,-0.51,-0.32,4252.49023438,0.14,0.13,353.67,353.88,0.0,0.0
1526667563.53426600,34671126,0.04,-0.4,-0.24,3970.11694336,0.14,0.25,353.67,353.86,0.0,0.0
1526667563.63422608,34771086,0.15,-0.31,-0.13,3723.4921875,0.1,0.34,353.67,353.79,0.0,0.0
1526667563.73501921,34871879,0.26,-0.16,-0.01,3507.94458008,0.04,0.39,353.67,353.63,0.0,0.0
1526667563.83497906,34971839,0.3,0.04,0.11,3309.22436523,-0.05,0.39,353.67,353.44,0.0,0.0
1526667563.93493915,35071799,0.31,0.21,0.22,3126.18505859,-0.13,0.36,353.67,353.22,0.0,0.0
1526667564.03489900,35171759,0.25,0.32,0.29,2961.70043945,-0.19,0.26,353.67,353.03,0.0,0.0
1526667564.13485909,35271719,0.17,0.43,0.32,2816.13378906,-0.25,0.14,353.67,352.8,0.0,0.0
1526667564.23481917,35371679,0.05,0.48,0.3,2691.71044922,-0.27,0.03,353.67,352.69,0.0,0.0
1526667564.33477902,35471639,-0.03,0.44,0.23,2586.57470703,-0.28,-0.09,353.67,352.74,0.0,0.0
1526667564.43473911,35571599,-0.14,0.38,0.14,2494.33422852,-0.25,-0.21,353.67,352.9,0.0,0.0
1526667564.53469920,35671559,-0.24,0.28,0.02,2416.8684082,-0.2,-0.28,353.67,353.18,0.0,0.0
1526667564.63465905,35771519,-0.35,0.19,-0.1,2350.99633789,-0.17,-0.27,353.67,353.46,0.0,0.0
1526667564.73461914,35871479,-0.39,0.05,-0.23,2293.08374023,-0.13,-0.25,353.67,353.73,0.0,0.0
1526667564.83457899,35971439,-0.4,-0.1,-0.33,680.101013184,-0.08,-0.2,353.67,353.95,0.0,0.0
1526667564.93453908,36071399,-0.35,-0.18,-0.4,611.945373535,-0.04,-0.18,353.67,354.14,0.0,0.0
1526667565.03449917,36171359,-0.35,-0.23,-0.44,574.206176758,0.0,-0.17,353.67,354.25,0.0,0.0
1526667565.13445902,36271319,-0.32,-0.25,-0.44,537.317749023,0.05,-0.18,354.84,355.46,0.0,0.0
1526667565.23441911,36371279,-0.29,-0.26,-0.42,497.571105957,0.08,-0.23,354.84,355.44,0.0,0.0
1526667565.33437920,36471239,-0.24,-0.34,-0.38,436.793243408,0.1,-0.21,354.84,355.36,0.0,0.0
1526667565.43433905,36571199,-0.21,-0.43,-0.33,378.831787109,0.15,-0.08,354.84,355.21,0.0,0.0
1526667565.53429914,36671159,-0.15,-0.45,-0.27,356.281463623,0.18,-0.04,354.84,355.06,0.0,0.0
1526667565.63425922,36771119,-0.07,-0.48,-0.2,376.535766602,0.18,-0.02,354.84,354.89,0.0,0.0
1526667565.73505211,36871912,0.05,-0.48,-0.12,440.463745117,0.19,0.02,354.84,354.73,0.0,0.0
1526667565.83501220,36971872,0.17,-0.43,-0.03,526.777526855,0.2,0.1,354.84,354.62,0.0,0.0
1526667565.93497205,37071832,0.27,-0.35,0.06,624.510009766,0.18,0.23,354.84,354.54,0.0,0.0
1526667566.03493214,37171792,0.33,-0.2,0.16,684.431945801,0.1,0.29,354.84,354.43,0.0,0.0
1526667566.13489223,37271752,0.4,-0.07,0.25,718.135559082,0.0,0.34,354.84,354.4,0.0,0.0
1526667566.23485208,37371712,0.42,0.03,0.33,739.902526855,-0.07,0.34,354.84,354.41,0.0,0.0
1526667566.33481216,37471672,0.42,0.23,0.4,728.771484375,-0.16,0.37,354.84,354.4,0.0,0.0
1526667566.43477201,37571632,0.38,0.37,0.43,694.038391113,-0.26,0.31,354.84,354.47,0.0,0.0
1526667566.53473210,37671592,0.35,0.46,0.43,655.931274414,-0.38,0.15,354.84,354.53,0.0,0.0
1526667566.63469219,37771552,0.27,0.5,0.41,622.970214844,-0.44,0.03,354.84,354.63,0.0,0.0
1526667566.73465204,37871512,0.15,0.53,0.36,599.282958984,-0.46,-0.13,354.84,354.74,0.0,0.0
1526667566.83461213,37971472,0.0,0.53,0.27,592.743164062,-0.41,-0.35,354.82,354.77,0.0,0.0
1526667566.93457222,38071432,-0.15,0.44,0.15,597.334899902,-0.33,-0.54,354.82,354.77,0.0,0.0
1526667567.03453207,38171392,-0.3,0.3,0.01,606.57244873,-0.23,-0.66,354.82,354.72,0.0,0.0
1526667567.13449216,38271352,-0.4,0.08,-0.13,606.413635254,-0.09,-0.73,354.82,354.79,0.0,0.01
1526667567.23445201,38371312,-0.48,-0.13,-0.27,596.337463379,0.15,-0.7,354.82,354.86,0.0,0.01
1526667567.33441210,38471272,-0.5,-0.44,-0.4,576.239074707,0.41,-0.52,354.82,354.93,0.0,0.01
1526667567.43437219,38571232,-0.47,-0.67,-0.49,155.580856323,0.59,-0.2,354.82,355.06,0.0,0.01
1526667567.53433204,38671192,-0.39,-0.75,-0.53,267.974365234,0.69,0.07,354.82,355.17,0.0,0.0
1526667567.63429213,38771152,-0.27,-0.76,-0.52,351.76675415,0.71,0.31,354.82,355.31,0.0,0.0
1526667567.73425221,38871112,-0.1,-0.66,-0.45,380.706665039,0.71,0.45,354.82,355.36,0.0,0.0
1526667567.83504510,38971905,0.0,-0.61,-0.34,414.598937988,0.66,0.56,354.82,355.41,0.0,0.0
1526667567.93500519,39071865,0.11,-0.51,-0.2,480.711090088,0.6,0.66,354.82,355.42,0.0,0.0
1526667568.03496504,39171825,0.2,-0.35,-0.05,546.704711914,0.47,0.76,354.82,355.48,0.0,0.0
1526667568.13492513,39271785,0.23,-0.14,0.08,563.905822754,0.35,0.8,354.82,355.47,0.0,0.0
1526667568.23488522,39371745,0.23,0.09,0.19,531.953063965,0.16,0.81,354.82,355.42,0.0,0.0
1526667568.33484507,39471705,0.18,0.32,0.26,481.354522705,0.0,0.75,354.82,355.32,0.0,0.0
1526667568.43480515,39571665,0.1,0.49,0.28,456.015106201,-0.21,0.54,354.82,355.2,0.0,0.0
1526667568.53476501,39671625,0.0,0.58,0.26,476.861602783,-0.36,0.25,354.82,355.05,0.0,0.0
1526667568.63472509,39771585,-0.15,0.55,0.18,535.003356934,-0.45,-0.04,354.82,354.94,0.0,0.0
1526667568.73468518,39871545,-0.3,0.45,0.07,597.307250977,-0.5,-0.27,354.82,354.82,0.0,0.01
1526667568.83464503,39971505,-0.42,0.29,-0.07,651.620788574,-0.47,-0.47,354.82,354.75,0.0,0.01
1526667568.93460512,40071465,-0.51,0.07,-0.23,684.520141602,-0.36,-0.66,354.82,354.63,0.0,0.01
1526667569.03456521,40171425,-0.58,-0.19,-0.38,679.289916992,-0.16,-0.71,354.82,354.57,0.0,0.01
1526667569.13452506,40271385,-0.61,-0.44,-0.5,650.911743164,0.01,-0.6,354.82,354.61,0.0,0.01
1526667569.23448515,40371345,-0.52,-0.61,-0.59,617.421569824,0.16,-0.46,354.82,354.68,0.0,0.01
1526667569.33444500,40471305,-0.37,-0.71,-0.62,588.532043457,0.29,-0.3,354.82,354.69,0.0,0.01
1526667569.43440509,40571265,-0.19,-0.71,-0.57,566.332397461,0.42,-0.1,354.82,354.69,0.0,0.0
1526667569.53436518,40671225,-0.01,-0.66,-0.46,553.135314941,0.52,0.11,354.82,354.68,0.0,0.0
1526667569.63432503,40771185,0.13,-0.53,-0.31,548.279174805,0.54,0.34,354.82,354.67,0.0,0.0
1526667569.73428512,40871145,0.27,-0.39,-0.12,549.192687988,0.5,0.51,91.95,354.67,0.0,0.0
1526667569.83424520,40971105,1.13,-0.21,0.11,561.191772461,0.48,0.63,91.95,355.08,0.0,0.0
1526667569.93503809,41071898,1.56,0.12,0.46,587.062438965,0.37,0.74,91.95,356.27,0.0,0.01
1526667570.03499818,41171858,2.87,0.63,0.97,1168.9095459,0.27,0.79,91.95,358.19,0.0,0.02
1526667570.13495803,41271818,4.23,1.4,1.73,1154.90625,0.07,0.82,91.95,0.63,0.0,0.04
1526667570.23491812,41371778,5.6,2.43,2.73,1120.41601562,-0.3,0.78,91.95,3.46,0.0,0.05
1526667570.33487821,41471738,6.8,3.61,3.92,1084.87011719,-0.82,0.52,91.95,6.54,0.0,0.06
1526667570.43483806,41571698,7.41,4.82,5.17,1083.71655273,-1.43,0.08,91.95,9.82,0.0,0.07
1526667570.53479815,41671658,7.72,5.8,6.3,1205.72692871,-2.08,-0.47,91.95,13.26,0.0,0.07
1526667570.63475800,41771618,7.86,6.57,7.2,1507.48486328,-2.72,-1.1,91.95,16.76,0.0,0.06
1526667570.73471808,41871578,7.88,7.16,7.83,1879.59790039,-3.38,-1.78,91.95,20.32,0.0,0.06
1526667570.83467817,41971538,7.82,7.53,8.18,2179.17993164,-4.01,-2.49,91.95,24.0,0.0,0.06
1526667570.93463802,42071498,7.67,7.71,8.29,2350.28271484,-4.66,-3.19,91.95,27.75,0.0,0.05
1526667571.03459811,42171458,7.33,7.73,8.18,2388.4621582,-5.23,-3.84,91.95,31.58,0.0,0.05
1526667571.13455820,42271418,6.72,7.65,7.88,2290.71411133,-5.65,-4.41,91.95,35.43,0.0,0.05
1526667571.23451805,42371378,6.02,7.38,7.38,2128.74023438,-5.98,-4.99,91.95,39.3,0.0,0.05
1526667571.33447814,42471338,5.34,6.98,6.74,1990.42749023,-6.25,-5.49,91.95,43.18,0.0,0.04
1526667571.43443799,42571298,4.72,6.49,6.01,1943.94140625,-6.55,-5.9,91.95,47.04,0.0,0.04
1526667571.53439808,42671258,4.31,5.94,5.28,2024.8046875,-7.0,-6.25,91.95,50.92,0.0,0.04
1526667571.63435817,42771218,3.99,5.38,4.61,2210.49365234,-7.51,-6.59,91.95,54.8,0.0,0.04
1526667571.73431802,42871178,3.68,4.84,4.06,2426.12304688,-8.09,-6.92,91.95,58.72,0.0,0.04
1526667571.83427811,42971138,3.3,4.34,3.6,2602.40795898,-8.7,-7.34,91.95,62.7,0.0,0.05
1526667571.93423820,43071098,2.86,3.91,3.23,2720.41748047,-9.32,-7.77,91.95,66.7,0.0,0.05
1526667572.03503108,43171891,2.32,3.53,2.88,2795.33374023,-9.93,-8.24,91.95,70.66,0.0,0.05
1526667572.13499117,43271851,1.75,3.11,2.54,2836.59301758,-10.53,-8.78,91.95,74.52,0.0,0.05
1526667572.23495102,43371811,1.11,2.68,2.15,2841.1328125,-11.1,-9.34,91.95,78.37,0.0,0.05
1526667572.33491111,43471771,0.39,2.2,1.7,2831.37231445,-11.61,-9.98,91.95,82.28,0.0,0.06
1526667572.43487120,43571731,-0.4,1.51,1.17,2789.21337891,-12.04,-10.64,91.95,86.21,0.0,0.06
1526667572.53483105,43671691,-1.21,0.62,0.54,2701.16674805,-12.38,-11.32,91.95,89.93,0.0,0.06
1526667572.63479114,43771651,-1.95,-0.45,-0.16,210.10295105,-12.64,-11.91,91.95,93.17,0.0,0.05
1526667572.73475122,43871611,-2.51,-1.59,-0.89,1405.74169922,-12.87,-12.35,91.95,95.72,0.0,0.04
1526667572.83471107,43971571,-2.8,-2.6,-1.59,3445.80200195,-13.12,-12.58,91.95,97.37,0.0,0.03
1526667572.93467116,44071531,-2.81,-3.27,-2.16,5467.65136719,-13.34,-12.74,91.95,98.16,0.0,0.01
1526667573.03463101,44171491,-2.54,-3.67,-2.54,6894.15625,-13.42,-12.89,91.95,98.11,0.0,0.0
1526667573.13459110,44271451,-2.07,-3.75,-2.67,7758.74560547,-13.45,-12.99,91.95,97.45,0.0,0.0
1526667573.23455119,44371411,-1.5,-3.53,-2.54,8171.68554688,-13.46,-13.03,91.95,96.45,0.0,0.01
1526667573.33451104,44471371,-0.86,-3.07,-2.17,8250.73828125,-13.48,-13.05,91.95,95.19,0.0,0.01
1526667573.43447113,44571331,-0.23,-2.4,-1.61,8114.46875,-13.52,-13.01,91.95,93.88,0.0,0.01
1526667573.53443122,44671291,0.34,-1.57,-0.94,7797.27246094,-13.58,-12.99,91.95,92.59,0.0,0.01
1526667573.63439107,44771251,0.81,-0.71,-0.22,7366.57714844,-13.65,-13.04,91.95,91.44,0.0,0.01
1526667573.73435116,44871211,1.15,0.07,0.46,6908.64941406,-13.76,-13.17,91.95,90.58,0.0,0.0
1526667573.83431101,44971171,1.36,0.73,1.06,6475.94726562,-13.89,-13.3,91.95,90.06,0.0,0.0
1526667573.93427110,45071131,1.45,1.29,1.52,6070.46582031,-14.03,-13.42,91.95,89.74,0.0,0.0
1526667574.03423119,45171091,1.37,1.68,1.81,5687.23388672,-14.18,-13.61,91.95,89.69,0.0,0.0
1526667574.13502407,45271884,1.16,1.89,1.92,5337.34228516,-14.3,-13.88,91.95,89.84,0.0,0.0
1526667574.23498416,45371844,0.87,1.93,1.85,5024.33837891,-14.45,-14.18,91.95,90.13,0.0,0.0
1526667574.33494401,45471804,0.54,1.76,1.63,4751.91845703,-14.57,-14.45,91.95,90.49,0.0,0.0
1526667574.43490410,45571764,0.2,1.43,1.29,4511.07861328,-14.67,-14.65,91.95,90.99,0.0,0.0
1526667574.53486419,45671724,-0.09,1.03,0.88,4296.26757812,-14.77,-14.8,91.95,91.43,0.0,0.0
1526667574.63482404,45771684,-0.33,0.65,0.45,4106.08984375,-14.86,-14.91,91.95,91.79,0.0,0.0
1526667574.73478413,45871644,-0.54,0.24,0.04,3938.75537109,-14.96,-15.05,91.95,92.17,0.0,0.0
1526667574.83474422,45971604,-0.7,-0.1,-0.31,3785.25341797,-15.03,-15.13,91.95,92.51,0.0,0.0
1526667574.93470407,46071564,-0.85,-0.4,-0.6,3645.08569336,-14.94,-15.17,91.95,92.88,0.0,0.0
1526667575.03466415,46171524,-0.9,-0.71,-0.81,3509.60791016,-14.77,-15.23,91.95,93.16,0.0,0.0
1526667575.13462400,46271484,-0.87,-0.99,-0.95,3375.80541992,-14.56,-15.17,91.95,93.27,0.0,0.0
1526667575.23458409,46371444,-0.79,-1.2,-0.99,190.1953125,-14.35,-15.03,91.95,93.32,0.0,0.0
1526667575.33454418,46471404,-0.67,-1.35,-0.96,540.657165527,-14.13,-14.77,91.95,93.26,0.0,0.01
1526667575.43450403,46571364,-0.5,-1.4,-0.86,1087.03955078,-13.91,-14.5,91.95,93.14,0.0,0.01
1526667575.53446412,46671324,-0.32,-1.28,-0.7,1602.60827637,-13.71,-14.22,91.95,92.99,0.0,0.01
1526667575.63442421,46771284,-0.1,-1.06,-0.51,1918.34545898,-13.5,-14.0,91.95,92.74,0.0,0.01
1526667575.73438406,46871244,0.11,-0.8,-0.28,2078.19946289,-13.3,-13.8,91.95,92.45,0.0,0.01
1526667575.83434415,46971204,0.33,-0.55,-0.04,2145.27490234,-13.11,-13.61,91.95,92.18,0.0,0.01
1526667575.93430400,47071164,0.48,-0.35,0.19,2221.20654297,-12.91,-13.34,91.95,91.98,0.0,0.01
1526667576.03426409,47171124,0.58,-0.16,0.41,2327.31567383,-12.71,-13.07,91.95,91.84,0.0,0.01
1526667576.13422418,47271084,0.64,0.03,0.58,2404.37255859,-12.5,-12.85,91.95,91.76,0.0,0.01
1526667576.23501706,47371877,0.67,0.21,0.71,2434.91210938,-12.25,-12.67,91.95,91.76,0.0,0.01
1526667576.33497715,47471837,0.69,0.29,0.78,2443.13378906,-12.02,-12.47,91.95,91.79,0.0,0.01
1526667576.43493700,47571797,0.72,0.35,0.82,2435.8605957,-11.77,-12.31,91.95,91.83,0.0,0.01
1526667576.53489709,47671757,0.72,0.38,0.83,2421.21313477,-11.49,-12.13,91.95,91.92,0.0,0.01
1526667576.63485718,47771717,0.69,0.39,0.81,2389.2956543,-11.19,-11.89,91.95,92.01,0.0,0.01
1526667576.73481703,47871677,0.65,0.42,0.78,2338.08227539,-10.85,-11.64,91.95,92.05,0.0,0.01
1526667576.83477712,47971637,0.6,0.45,0.72,2262.32470703,-10.47,-11.31,91.95,92.08,0.0,0.01
1526667576.93473721,48071597,0.54,0.54,0.66,2160.19018555,-10.06,-11.02,91.95,92.08,0.0,0.01
1526667577.03469706,48171557,0.49,0.57,0.6,2049.51782227,-9.6,-10.76,91.95,92.08,0.0,0.01
1526667577.13465714,48271517,0.44,0.51,0.53,1947.5300293,-9.24,-10.47,91.95,92.11,0.0,0.01
1526667577.23461699,48371477,0.43,0.4,0.47,1855.71948242,-8.44,-10.12,91.95,92.13,0.0,0.01
1526667577.33457708,48471437,0.41,0.27,0.43,1778.95751953,-7.95,-9.59,91.95,92.15,0.0,0.02
1526667577.43453717,48571397,0.42,0.17,0.4,1717.71069336,-7.59,-8.98,91.95,92.12,0.0,0.02
1526667577.53449702,48671357,0.44,0.11,0.38,1673.6550293,-7.28,-8.33,91.95,92.13,0.0,0.02
1526667577.63445711,48771317,0.43,0.14,0.38,1636.08276367,-7.0,-7.78,91.95,92.17,0.0,0.02
1526667577.73441720,48871277,0.42,0.27,0.39,1588.46264648,-6.75,-7.35,91.95,92.21,0.0,0.02
1526667577.83437705,48971237,0.43,0.41,0.4,47.3774642944,-6.53,-7.03,91.95,92.25,0.0,0.02
1526667577.93433714,49071197,0.41,0.52,0.41,50.023475647,-6.3,-6.76,91.95,92.29,0.0,0.02
1526667578.03429699,49171157,0.39,0.56,0.42,86.646697998,-6.07,-6.53,91.95,92.29,0.0,0.02
1526667578.13425708,49271117,0.34,0.52,0.42,104.047691345,-5.82,-6.36,91.95,92.18,0.0,0.01
1526667578.23505020,49371910,0.29,0.46,0.4,94.7090759277,-5.47,-6.19,91.95,92.03,0.0,0.02
1526667578.33501005,49471870,0.26,0.41,0.37,82.3334197998,-5.18,-5.97,91.95,91.91,0.0,0.02
1526667578.43497014,49571830,0.28,0.36,0.34,71.6182479858,-4.85,-5.72,91.95,91.77,0.0,0.02
1526667578.53492999,49671790,0.3,0.27,0.32,63.8578186035,-4.46,-5.41,91.95,91.61,0.0,0.02
1526667578.63489008,49771750,0.32,0.18,0.3,66.4948043823,-4.02,-5.03,91.95,91.46,0.0,0.02
1526667578.73485017,49871710,0.34,0.17,0.3,80.2385482788,-3.56,-4.61,91.95,91.37,0.0,0.02
1526667578.83481002,49971670,0.38,0.21,0.31,87.1806106567,-3.05,-4.19,91.95,91.31,0.0,0.02
1526667578.93477011,50071630,0.42,0.22,0.34,89.902961731,-2.5,-3.73,91.95,91.38,0.0,0.02
1526667579.03473020,50171590,0.48,0.29,0.38,92.9326400757,-1.86,-3.15,218.02,91.65,0.0,0.02
1526667579.13469005,50271550,0.46,0.39,0.42,89.7466201782,-1.17,-2.52,218.02,92.72,0.0,0.02
1526667579.23465014,50371510,0.4,0.48,0.45,83.9864196777,-0.43,-1.89,218.02,94.54,0.0,0.01
1526667579.33461022,50471470,0.51,0.55,0.46,81.3567962646,0.48,-1.31,218.02,96.9,0.0,0.0
1526667579.43457007,50571430,0.78,0.6,0.51,81.4239959717,1.66,-0.65,218.02,99.58,0.0,0.0
1526667579.53453016,50671390,1.2,0.65,0.62,78.7031326294,2.71,0.21,218.02,102.61,0.0,0.0
1526667579.63449001,50771350,1.77,0.82,0.84,74.7732391357,3.09,1.2,218.02,105.94,0.0,0.0
1526667579.73445010,50871310,2.38,1.17,1.19,71.775642395,3.03,2.06,218.02,109.48,0.0,0.0
1526667579.83441019,50971270,3.04,1.71,1.66,68.6797180176,2.71,2.67,218.02,113.12,0.0,0.0
1526667579.93437004,51071230,3.63,2.33,2.23,68.8079071045,2.18,2.94,218.02,116.79,0.0,0.01
1526667580.03433013,51171190,4.16,2.89,2.85,67.4842224121,1.55,2.87,218.02,120.54,0.0,0.02
1526667580.13429022,51271150,4.61,3.51,3.48,64.9797592163,0.8,2.59,218.02,124.37,0.0,0.02
1526667580.23425007,51371110,5.0,4.02,4.08,62.8248329163,0.02,2.12,218.02,128.32,0.0,0.03
1526667580.33504319,51471903,5.3,4.57,4.61,62.1005554199,-0.74,1.49,218.02,132.34,0.0,0.03
1526667580.43500304,51571863,5.51,5.0,5.05,31.0796451569,-1.55,0.71,218.02,136.38,0.0,0.03
1526667580.53496313,51671823,5.64,5.31,5.4,42.8212890625,-2.3,-0.08,218.02,140.37,0.0,0.03
1526667580.63492322,51771783,5.71,5.5,5.63,78.7839584351,-2.98,-0.86,218.02,144.37,0.0,0.04
1526667580.73488307,51871743,5.74,5.65,5.76,101.349868774,-3.62,-1.64,218.02,148.46,0.0,0.04
1526667580.83484316,51971703,5.51,5.71,5.81,110.494163513,-4.15,-2.37,218.02,152.58,0.0,0.04
1526667580.93480301,52071663,5.03,5.65,5.71,104.151535034,-4.54,-3.08,218.02,156.7,0.0,0.04
1526667581.03476310,52171623,4.51,5.47,5.46,92.3822631836,-4.8,-3.74,218.02,160.81,0.0,0.04
1526667581.13472319,52271583,4.01,5.16,5.07,84.9618148804,-5.05,-4.31,218.02,164.9,0.0,0.04
1526667581.23468304,52371543,3.61,4.7,4.6,83.476348877,-5.25,-4.75,218.02,168.97,0.0,0.04
1526667581.33464313,52471503,3.23,4.23,4.1,87.4178771973,-5.42,-5.04,218.02,173.05,0.0,0.04
1526667581.43460321,52571463,2.93,3.79,3.61,97.7529296875,-5.6,-5.21,218.02,177.06,0.0,0.04
1526667581.53456306,52671423,2.66,3.46,3.16,136.812713623,-5.78,-5.37,218.02,181.02,0.0,0.03
1526667581.63452315,52771383,2.44,3.2,2.78,226.846511841,-5.97,-5.54,218.02,184.97,0.0,0.03
1526667581.73448300,52871343,2.18,2.95,2.47,356.46005249,-6.19,-5.72,218.02,188.96,0.0,0.03
1526667581.83444309,52971303,1.97,2.66,2.21,473.917907715,-6.48,-5.86,218.02,192.87,0.0,0.03
1526667581.93440318,53071263,1.75,2.42,2.01,563.06842041,-7.06,-6.05,218.02,196.74,0.0,0.03
1526667582.03436303,53171223,1.46,2.19,1.83,608.618530273,-7.79,-6.31,218.02,200.62,0.0,0.02
1526667582.13432312,53271183,1.06,2.05,1.64,652.50958252,-8.58,-6.72,218.02,204.5,0.0,0.02
1526667582.23428321,53371143,0.51,1.8,1.4,703.163085938,-9.34,-7.33,218.02,208.44,0.0,0.02
1526667582.33424306,53471103,-0.14,1.42,1.07,739.890441895,-10.05,-8.1,218.02,212.32,0.0,0.02
1526667582.43503618,53571896,-0.81,0.79,0.64,735.870178223,-10.63,-8.88,218.02,215.99,0.0,0.02
1526667582.53499603,53671856,-1.46,0.0,0.1,705.188415527,-11.15,-9.65,218.02,219.09,0.0,0.01
1526667582.63495612,53771816,-1.97,-0.85,-0.49,701.434265137,-11.56,-10.34,218.02,221.4,0.0,0.0
1526667582.73491621,53871776,-2.27,-1.63,-1.09,755.937744141,-11.95,-10.87,218.02,222.89,0.0,0.01
1526667582.83487606,53971736,-2.34,-2.25,-1.62,863.280578613,-12.35,-11.32,218.02,223.57,0.0,0.02
1526667582.93483615,54071696,-2.2,-2.66,-2.0,991.98059082,-12.73,-11.68,218.02,223.62,0.0,0.03
1526667583.03479600,54171656,-1.87,-2.84,-2.2,4130.06103516,-13.13,-12.0,218.02,223.13,0.0,0.03
1526667583.13475609,54271616,-1.42,-2.8,-2.17,4112.88818359,-13.52,-12.31,218.02,222.32,0.0,0.04
1526667583.23471618,54371576,-0.87,-2.5,-1.94,3923.08496094,-13.9,-12.59,218.02,221.32,0.0,0.05
1526667583.33467603,54471536,-0.3,-1.92,-1.52,3510.12646484,-14.24,-12.89,218.02,220.22,0.0,0.05
1526667583.43463612,54571496,0.25,-1.26,-0.97,3036.58886719,-14.37,-13.25,218.02,219.17,0.0,0.05
1526667583.53459620,54671456,0.7,-0.63,-0.35,2660.19873047,-14.42,-13.55,218.02,218.29,0.0,0.05
1526667583.63455606,54771416,1.06,-0.02,0.27,2393.578125,-14.44,-13.81,218.02,217.61,0.0,0.05
1526667583.73451614,54871376,1.29,0.49,0.84,2227.5847168,-14.45,-13.99,218.02,217.16,0.0,0.04
1526667583.83447599,54971336,1.46,1.0,1.3,2102.25830078,-14.46,-14.13,218.02,216.86,0.0,0.04
1526667583.93443608,55071296,1.49,1.38,1.64,1974.20800781,-14.48,-14.29,218.02,216.76,0.0,0.03
1526667584.03439617,55171256,1.39,1.6,1.83,1851.79968262,-14.51,-14.52,218.02,216.82,0.0,0.03
1526667584.13435602,55271216,1.24,1.59,1.88,1752.69152832,-14.53,-14.71,218.02,216.97,0.0,0.02
1526667584.23431611,55371176,1.05,1.52,1.79,1688.47644043,-14.54,-14.8,218.02,217.25,0.0,0.02
1526667584.33427620,55471136,0.87,1.45,1.6,1599.81433105,-14.57,-14.98,218.02,217.53,0.0,0.02
1526667584.43423605,55571096,0.7,1.24,1.35,1504.85522461,-14.61,-15.11,218.02,217.78,0.0,0.02
1526667584.53502917,55671889,0.54,0.99,1.08,1418.07641602,-14.63,-15.11,218.02,218.02,0.0,0.01
1526667584.63498902,55771849,0.38,0.76,0.8,1337.63208008,-14.71,-15.02,218.02,218.27,0.0,0.01
1526667584.73494911,55871809,0.24,0.56,0.55,1263.95507812,-14.81,-14.95,218.02,218.51,0.0,0.01
1526667584.83490920,55971769,0.19,0.41,0.34,1198.56591797,-14.91,-14.93,218.02,218.55,0.0,0.01
1526667584.93486905,56071729,0.16,0.32,0.18,1143.46105957,-15.03,-14.91,218.02,218.55,0.0,0.01
1526667585.03482914,56171689,0.16,0.27,0.09,1100.67041016,-15.17,-14.93,218.02,218.53,0.0,0.02
1526667585.13478899,56271649,0.24,0.41,0.05,1075.61315918,-14.25,-14.84,275.07,218.55,0.0,0.02
1526667585.23474908,56371609,2.77,0.73,0.21,1130.92736816,-11.2,-14.22,275.07,219.19,0.0,0.0
1526667585.33470917,56471569,4.65,1.43,1.02,1170.42138672,-10.17,-12.86,275.07,220.62,0.0,0.01
1526667585.43466902,56571529,5.56,2.57,2.21,1182.16674805,-9.95,-11.55,275.07,222.71,0.0,0.01
1526667585.53462911,56671489,5.98,3.82,3.51,1177.86877441,-10.19,-10.7,275.07,225.35,0.0,0.01
1526667585.63458920,56771449,6.05,4.9,4.71,630.132873535,-10.69,-10.34,275.07,228.36,0.0,0.01
1526667585.73454905,56871409,5.84,5.69,5.63,392.975982666,-11.33,-10.4,275.07,231.58,0.0,0.01
1526667585.83450913,56971369,5.37,6.12,6.17,265.373840332,-12.03,-10.77,275.07,234.94,0.0,0.0
1526667585.93446922,57071329,4.68,6.18,6.3,221.052536011,-12.74,-11.3,275.07,238.46,0.0,0.01
1526667586.03442907,57171289,3.83,5.89,6.02,212.792678833,-13.4,-11.9,275.07,242.09,0.0,0.01
1526667586.13438916,57271249,2.82,5.3,5.38,199.779464722,-13.99,-12.56,275.07,245.91,0.0,0.01
1526667586.23434901,57371209,1.7,4.49,4.45,174.117248535,-14.5,-13.17,275.07,249.82,0.0,0.01
1526667586.33430910,57471169,0.5,3.51,3.29,178.312179565,-14.93,-13.7,275.07,253.86,0.0,0.01
1526667586.43426919,57571129,-0.72,2.4,1.99,268.118560791,-15.26,-14.15,275.07,257.92,0.0,0.01
1526667586.53422904,57671089,-1.94,1.29,0.62,533.402770996,-15.47,-14.53,275.07,261.99,0.0,0.01
1526667586.63502216,57771882,-3.19,0.12,-0.76,1032.3581543,-15.55,-14.89,275.07,266.16,0.0,0.01
1526667586.73498201,57871842,-4.44,-1.21,-2.12,1666.48010254,-15.54,-15.22,275.07,270.33,0.0,0.01
1526667586.83494210,57971802,-5.6,-2.85,-3.44,1998.43359375,-15.28,-15.46,275.07,274.19,0.0,0.0
1526667586.93490219,58071762,-6.49,-4.56,-4.66,1956.14379883,-14.94,-15.5,275.07,277.32,0.0,0.0
1526667587.03486204,58171722,-7.06,-6.13,-5.74,1853.39355469,-14.64,-15.32,275.07,279.66,0.0,0.01
1526667587.13482213,58271682,-7.24,-7.43,-6.58,1995.44006348,-14.44,-14.98,275.07,281.05,0.0,0.01
1526667587.23478222,58371642,-7.04,-8.24,-7.14,2455.17529297,-14.39,-14.57,275.07,281.53,0.0,0.02
1526667587.33474207,58471602,-6.54,-8.54,-7.35,3068.92749023,-14.48,-14.17,275.07,281.21,0.0,0.02
1526667587.43470216,58571562,-5.82,-8.33,-7.21,3621.29956055,-14.68,-13.85,275.07,280.35,0.0,0.03
1526667587.53466201,58671522,-4.97,-7.68,-6.74,3970.95556641,-14.96,-13.72,275.07,279.21,0.0,0.03
1526667587.63462210,58771482,-4.08,-6.71,-6.01,4094.20092773,-15.27,-13.8,275.07,277.88,0.0,0.03
1526667587.73458219,58871442,-3.18,-5.58,-5.09,4062.79370117,-15.6,-14.08,275.07,276.46,0.0,0.04
1526667587.83454204,58971402,-2.38,-4.44,-4.08,3959.27319336,-15.9,-14.46,275.07,275.19,0.0,0.04
1526667587.93450212,59071362,-1.69,-3.37,-3.05,3839.19702148,-16.15,-14.85,275.07,274.15,0.0,0.04
1526667588.03446221,59171322,-1.2,-2.48,-2.1,3731.23413086,-16.36,-15.25,275.07,273.38,0.0,0.03
1526667588.13442206,59271282,-0.87,-1.68,-1.3,3641.94677734,-16.53,-15.62,275.07,272.88,0.0,0.03
1526667588.23438215,59371242,-0.73,-1.11,-0.7,1540.48278809,-16.68,-15.92,275.07,272.75,0.0,0.03
1526667588.33434200,59471202,-0.72,-0.68,-0.31,1576.57849121,-16.78,-16.16,275.07,272.88,0.0,0.02
1526667588.43430209,59571162,-0.83,-0.37,-0.14,1348.2232666,-16.86,-16.42,275.07,273.21,0.0,0.02
1526667588.53426218,59671122,-1.03,-0.31,-0.16,1095.19848633,-16.92,-16.68,275.07,273.72,0.0,0.02
1526667588.63422203,59771082,-1.3,-0.43,-0.35,897.443603516,-16.94,-16.9,275.07,274.3,0.0,0.02
1526667588.73501515,59871875,-1.54,-0.68,-0.66,751.324523926,-16.95,-17.1,275.07,274.82,0.0,0.02
1526667588.83497500,59971835,-1.73,-1.02,-1.03,644.039794922,-16.96,-17.22,275.07,275.25,0.0,0.02
1526667588.93493509,60071795,-1.87,-1.36,-1.4,563.973999023,-16.96,-17.33,275.07,275.56,0.0,0.02
1526667589.03489518,60171755,-1.96,-1.66,-1.73,505.953155518,-16.93,-17.38,275.07,275.84,0.0,0.02
1526667589.13485503,60271715,-2.0,-1.93,-1.99,460.62789917,-16.89,-17.4,275.07,276.11,0.0,0.02
1526667589.23481512,60371675,-1.99,-2.15,-2.17,421.135375977,-16.45,-17.39,275.07,276.3,0.0,0.02
1526667589.33477521,60471635,-1.91,-2.38,-2.26,388.728240967,-15.74,-17.18,275.07,276.34,0.0,0.01
1526667589.43473506,60571595,-1.72,-2.51,-2.25,388.336669922,-15.39,-16.74,275.07,276.22,0.0,0.01
1526667589.53469515,60671555,-1.45,-2.52,-2.15,428.638916016,-15.46,-16.26,275.07,276.0,0.0,0.01
1526667589.63465500,60771515,-1.15,-2.36,-1.95,506.191772461,-15.68,-15.82,275.07,275.71,0.0,0.0
1526667589.73461509,60871475,-0.86,-2.02,-1.67,563.399658203,-15.75,-15.53,275.07,275.47,0.0,0.01
1526667589.83457518,60971435,-0.6,-1.61,-1.35,581.463012695,-15.75,-15.4,275.07,275.24,0.0,0.01
1526667589.93453503,61071395,-0.37,-1.19,-1.02,574.308044434,-16.04,-15.36,275.07,275.04,0.0,0.01
1526667590.03449512,61171355,-0.19,-0.76,-0.7,551.47833252,-16.09,-15.43,275.07,274.89,0.0,0.01
1526667590.13445520,61271315,-0.08,-0.41,-0.41,524.320129395,-16.28,-15.58,275.07,274.79,0.0,0.01
1526667590.23441505,61371275,0.0,-0.15,-0.19,499.78414917,-16.23,-15.75,275.07,274.72,0.0,0.02
1526667590.33437514,61471235,0.04,0.04,-0.03,478.567077637,-16.39,-15.9,275.07,274.6,0.0,0.02
1526667590.43433499,61571195,0.06,0.24,0.06,464.485351562,-16.55,-16.05,275.07,274.5,0.0,0.02
1526667590.53429508,61671155,0.07,0.37,0.1,465.771179199,-16.65,-16.24,275.07,274.44,0.0,0.02
1526667590.63425517,61771115,0.06,0.45,0.1,484.803466797,-16.58,-16.41,275.07,274.41,0.0,0.02
1526667590.73504806,61871908,0.01,0.44,0.07,516.495605469,-16.69,-16.55,275.07,274.47,0.0,0.01
1526667590.83500814,61971868,-0.02,0.42,0.02,1448.08935547,-16.7,-16.67,275.07,274.52,0.0,0.01
1526667590.93496799,62071828,-0.07,0.36,-0.04,1553.95703125,-16.76,-16.8,275.07,274.62,0.0,0.01
1526667591.03492808,62171788,-0.17,0.28,-0.11,1558.86474609,-16.95,-16.93,275.07,274.78,0.0,0.01
1526667591.13488817,62271748,-0.24,0.2,-0.19,1562.42199707,-17.0,-17.03,275.07,274.91,0.0,0.01
1526667591.23484802,62371708,-0.3,0.1,-0.27,1559.64123535,-16.91,-17.08,275.07,275.05,0.0,0.01
1526667591.33480811,62471668,-0.37,-0.04,-0.35,1490.93725586,-16.81,-17.11,275.07,275.29,0.0,0.01
1526667591.43476820,62571628,-0.39,-0.21,-0.42,1383.49987793,-16.88,-17.18,275.07,275.46,0.0,0.01
1526667591.53472805,62671588,-0.39,-0.34,-0.47,1249.79943848,-16.86,-17.18,275.07,275.59,0.0,0.01
1526667591.63468814,62771548,-0.38,-0.4,-0.5,1124.96655273,-16.9,-17.15,275.07,275.7,0.0,0.01
1526667591.73464799,62871508,-0.34,-0.42,-0.5,1023.27685547,-16.85,-17.17,275.07,275.73,0.0,0.01
1526667591.83460808,62971468,-0.28,-0.46,-0.48,933.604309082,-16.84,-17.2,275.07,275.72,0.0,0.01
1526667591.93456817,63071428,-0.2,-0.56,-0.44,859.252929688,-17.04,-17.17,275.07,275.62,0.0,0.01
1526667592.03452802,63171388,-0.09,-0.59,-0.37,817.36505127,-17.14,-17.05,275.07,275.55,0.0,0.01
1526667592.13448811,63271348,0.04,-0.53,-0.28,796.956481934,-17.06,-17.01,275.07,275.44,0.0,0.01
1526667592.23444819,63371308,0.18,-0.42,-0.16,786.566650391,-16.96,-17.01,275.07,275.32,0.0,0.01
1526667592.33440804,63471268,0.34,-0.3,-0.03,778.821655273,-16.89,-17.01,275.07,275.17,0.0,0.01
1526667592.43436813,63571228,0.47,-0.14,0.11,776.378417969,-17.07,-16.97,275.07,275.05,0.0,0.01
1526667592.53432822,63671188,0.61,0.03,0.27,766.614990234,-17.02,-16.93,275.07,274.88,0.0,0.01
1526667592.63428807,63771148,0.73,0.21,0.42,752.882629395,-16.91,-16.9,275.07,274.69,0.0,0.01
1526667592.73424816,63871108,0.81,0.4,0.56,733.884765625,-17.11,-16.89,275.07,274.54,0.0,0.0
1526667592.83504105,63971901,0.84,0.61,0.68,706.604187012,-17.3,-16.89,275.07,274.45,0.0,0.0
1526667592.93500113,64071861,0.83,0.8,0.77,675.397399902,-17.32,-16.91,275.07,274.46,0.0,0.0
1526667593.03496122,64171821,0.8,0.92,0.82,648.04675293,-17.35,-16.96,275.07,274.47,0.0,0.0
1526667593.13492107,64271781,0.75,0.99,0.83,627.468139648,-17.43,-17.08,275.07,274.54,0.0,0.01
1526667593.23488116,64371741,0.69,1.03,0.8,616.444213867,-17.44,-17.19,275.07,274.65,0.0,0.0
1526667593.33484101,64471701,0.64,1.06,0.75,619.866333008,-17.32,-17.34,275.07,274.7,0.0,0.01
1526667593.43480110,64571661,0.57,1.06,0.69,1193.81860352,-17.52,-17.43,275.07,274.72,0.0,0.01
1526667593.53476119,64671621,0.48,1.0,0.6,1322.06848145,-17.67,-17.55,275.07,274.78,0.0,0.01
1526667593.63472104,64771581,0.38,0.94,0.51,1420.21716309,-17.58,-17.68,275.07,274.92,0.0,0.01
1526667593.73468113,64871541,0.37,1.08,0.42,1716.12768555,-15.55,-17.53,28.14,275.22,0.0,0.0
1526667593.83464122,64971501,0.26,1.16,0.34,2551.07739258,-12.66,-16.68,28.14,276.26,0.0,0.02
1526667593.93460107,65071461,-0.08,1.02,0.24,3199.16259766,-11.26,-15.32,28.14,278.06,0.0,0.04
1526667594.03456116,65171421,-0.58,0.8,0.08,3524.82324219,-10.39,-13.88,28.14,280.44,0.0,0.06
1526667594.13452101,65271381,-1.17,0.52,-0.19,3723.16162109,-9.75,-12.62,28.14,283.26,0.0,0.06
1526667594.23448110,65371341,-1.8,0.16,-0.58,3892.71777344,-9.22,-11.55,28.14,286.44,0.0,0.06
1526667594.33444118,65471301,-2.39,-0.3,-1.08,4097.7421875,-8.76,-10.67,28.14,289.8,0.0,0.05
1526667594.43440104,65571261,-2.95,-0.85,-1.64,4285.42089844,-8.33,-9.95,28.14,293.32,0.0,0.05
1526667594.53436112,65671221,-3.47,-1.49,-2.25,4438.37744141,-7.91,-9.34,28.14,296.96,0.0,0.04
1526667594.63432121,65771181,-3.94,-2.16,-2.85,4498.09423828,-7.46,-8.81,28.14,300.7,0.0,0.04
1526667594.73428106,65871141,-4.33,-2.75,-3.42,4510.39648438,-7.01,-8.23,28.14,304.45,0.0,0.04
1526667594.83424115,65971101,-4.61,-3.28,-3.93,4501.76806641,-6.55,-7.73,28.14,308.23,0.0,0.04
1526667594.93503404,66071894,-4.79,-3.74,-4.35,4484.34423828,-6.06,-7.24,28.14,312.08,0.0,0.04
1526667595.03499413,66171854,-4.9,-4.16,-4.67,4411.58642578,-5.62,-6.72,28.14,316.0,0.0,0.04
1526667595.13495421,66271814,-4.92,-4.43,-4.88,4296.65039062,-5.16,-6.17,28.14,319.9,0.0,0.04
1526667595.23491406,66371774,-4.83,-4.63,-4.98,4154.46728516,-4.75,-5.61,28.14,323.83,0.0,0.04
1526667595.33487415,66471734,-4.65,-4.65,-4.98,4003.28320312,-4.38,-5.09,28.14,327.76,0.0,0.05
1526667595.43483400,66571694,-4.4,-4.58,-4.87,3858.98779297,-4.05,-4.69,28.14,331.72,0.0,0.05
1526667595.53479409,66671654,-4.08,-4.49,-4.66,3709.09057617,-3.77,-4.34,28.14,335.73,0.0,0.05
1526667595.63475418,66771614,-3.68,-4.32,-4.38,3553.96728516,-3.57,-3.95,28.14,339.72,0.0,0.05
1526667595.73471403,66871574,-3.19,-4.05,-4.02,3406.20776367,-3.46,-3.66,28.14,343.72,0.0,0.05
1526667595.83467412,66971534,-2.61,-3.68,-3.59,3271.63574219,-3.4,-3.45,28.14,347.75,0.0,0.05
1526667595.93463421,67071494,-1.98,-3.24,-3.08,3151.74829102,-3.48,-3.34,28.14,351.81,0.0,0.05
1526667596.03459406,67171454,-1.27,-2.74,-2.51,359.11517334,-3.72,-3.32,28.14,355.84,0.0,0.06
1526667596.13455415,67271414,-0.52,-2.15,-1.88,481.532287598,-4.06,-3.36,28.14,359.93,0.0,0.06
1526667596.23451400,67371374,0.28,-1.46,-1.19,555.007629395,-4.5,-3.53,28.14,4.08,0.0,0.06
1526667596.33447409,67471334,1.08,-0.76,-0.46,597.653137207,-5.02,-3.85,28.14,8.21,0.0,0.07
1526667596.43443418,67571294,1.87,-0.08,0.3,712.914123535,-5.64,-4.27,28.14,12.3,0.0,0.07
1526667596.53439403,67671254,2.54,0.66,1.08,874.249084473,-6.22,-4.79,28.14,16.34,0.0,0.07
1526667596.63435411,67771214,2.95,1.35,1.81,1021.32910156,-6.7,-5.38,28.14,20.32,0.0,0.07
1526667596.73431420,67871174,3.01,1.87,2.42,1215.78857422,-7.07,-6.01,28.14,24.3,0.0,0.07
1526667596.83427405,67971134,2.74,2.13,2.83,1533.82250977,-7.26,-6.6,28.14,27.78,0.0,0.06
1526667596.93423414,68071094,2.23,2.21,2.98,1934.4083252,-7.27,-7.09,28.14,30.63,0.0,0.05
1526667597.03502703,68171887,1.64,2.07,2.84,2305.4074707,-7.05,-7.47,28.14,32.7,0.0,0.03
1526667597.13498712,68271847,0.98,1.71,2.46,2612.08520508,-6.71,-7.7,28.14,34.02,0.0,0.02
1526667597.23494720,68371807,0.4,1.21,1.88,2805.29394531,-6.33,-7.76,28.14,34.53,0.0,0.0
1526667597.33490705,68471767,-0.09,0.65,1.19,2860.05981445,-5.93,-7.68,28.14,34.39,0.0,0.0
1526667597.43486714,68571727,-0.49,0.05,0.48,2827.75366211,-5.59,-7.38,28.14,33.75,0.0,0.02
1526667597.53482699,68671687,-0.7,-0.38,-0.16,2718.27197266,-5.35,-6.99,28.14,32.66,0.0,0.02
1526667597.63478708,68771647,-0.73,-0.7,-0.68,2566.49438477,-5.33,-6.56,28.14,31.3,0.0,0.02
1526667597.73474717,68871607,-0.69,-0.81,-1.03,2433.30322266,-5.67,-6.1,28.14,29.88,0.0,0.02
1526667597.83470702,68971567,-0.59,-0.68,-1.2,2386.53662109,-6.19,-5.81,28.14,28.58,0.0,0.01
1526667597.93466711,69071527,-0.47,-0.41,-1.21,2497.49072266,-6.83,-5.76,28.14,27.49,0.0,0.0
1526667598.03462720,69171487,-0.34,-0.12,-1.09,2769.35229492,-7.54,-5.95,28.14,26.7,0.0,0.0
1526667598.13458705,69271447,-0.28,0.14,-0.9,3107.41625977,-8.24,-6.41,28.14,26.3,0.0,0.0
1526667598.23454714,69371407,-0.3,0.37,-0.68,3450.82006836,-8.87,-7.05,28.14,26.2,0.0,0.01
1526667598.33450699,69471367,-0.31,0.44,-0.49,3729.04248047,-9.17,-7.74,28.14,26.28,0.0,0.01
1526667598.43446708,69571327,-0.33,0.36,-0.34,3844.74536133,-9.25,-8.35,28.14,26.53,0.0,0.01
1526667598.53442717,69671287,-0.36,0.19,-0.25,3825.75830078,-9.24,-8.88,28.14,26.89,0.0,0.01
1526667598.63438702,69771247,-0.36,-0.05,-0.21,940.502075195,-9.16,-9.22,28.14,27.27,0.0,0.0
1526667598.73434711,69871207,-0.32,-0.28,-0.2,500.496673584,-9.06,-9.37,28.14,27.61,0.0,0.0
1526667598.83430719,69971167,-0.19,-0.46,-0.2,432.437957764,-8.97,-9.34,28.14,27.94,0.0,0.0
1526667598.93426704,70071127,-0.05,-0.56,-0.19,571.913696289,-8.9,-9.23,28.14,28.23,0.0,0.0
1526667599.03422713,70171087,0.09,-0.58,-0.15,783.174194336,-8.89,-9.1,28.14,28.51,0.0,0.0
1526667599.13502002,70271880,0.3,-0.56,-0.07,1003.81072998,-8.72,-9.0,28.14,28.84,0.0,0.0
1526667599.23498011,70371840,0.83,-0.46,0.08,1231.08740234,-6.73,-8.72,28.14,29.1,0.0,0.0
1526667599.33494020,70471800,1.19,-0.34,0.33,1538.9140625,-5.99,-8.1,28.14,29.21,0.0,0.0
1526667599.43490005,70571760,1.48,-0.06,0.65,1925.86791992,-5.74,-7.36,28.14,29.2,0.0,0.0
1526667599.53486013,70671720,1.69,0.32,0.99,2225.31298828,-5.75,-6.71,28.14,29.18,0.0,0.0
1526667599.63482022,70771680,1.85,0.8,1.31,2344.66699219,-5.87,-6.24,28.14,29.2,0.0,0.0
1526667599.73478007,70871640,1.91,1.23,1.6,2319.38110352,-6.09,-6.0,28.14,29.18,0.0,0.0
1526667599.83474016,70971600,1.91,1.59,1.81,2208.97387695,-6.36,-5.92,28.14,29.07,0.0,0.0
1526667599.93470001,71071560,1.86,1.92,1.94,2063.94018555,-6.66,-5.98,28.14,28.82,0.0,0.0
1526667600.03466010,71171520,1.77,2.09,1.98,1929.07922363,-6.99,-6.14,28.14,28.56,0.0,0.0
1526667600.13462019,71271480,1.69,2.16,1.95,1823.18981934,-7.31,-6.36,28.14,28.13,0.0,0.0
1526667600.23458004,71371440,1.89,2.29,1.88,1776.74157715,-5.87,-6.56,200.08,27.81,0.0,0.0
1526667600.33454013,71471400,2.01,2.24,1.85,1775.2487793,-4.31,-6.29,200.08,28.43,0.0,0.0
1526667600.43450022,71571360,1.93,2.17,1.83,1747.60119629,-3.66,-5.64,200.08,29.82,0.0,0.0
1526667600.53446007,71671320,1.76,2.11,1.81,1709.55297852,-3.38,-4.96,200.08,31.78,0.0,0.01
1526667600.63442016,71771280,1.56,2.04,1.74,1669.16296387,-3.27,-4.39,200.08,34.27,0.0,0.02
1526667600.73438001,71871240,1.28,1.94,1.64,1633.12231445,-3.28,-3.97,200.08,37.14,0.0,0.02
1526667600.83434010,71971200,0.97,1.84,1.47,1608.87695312,-3.37,-3.64,200.08,40.39,0.0,0.03
1526667600.93430018,72071160,0.61,1.74,1.24,1621.40393066,-3.47,-3.47,200.08,43.89,0.0,0.03
1526667601.03426003,72171120,0.24,1.51,0.96,1666.421875,-3.55,-3.42,200.08,47.63,0.0,0.04
1526667601.13422012,72271080,-0.14,1.21,0.62,1726.7232666,-3.59,-3.46,200.08,51.51,0.0,0.04
1526667601.23501301,72371873,-0.54,0.88,0.26,3652.2199707,-3.55,-3.48,200.08,55.42,0.0,0.04
1526667601.33497310,72471833,-0.94,0.48,-0.13,3771.27807617,-3.47,-3.55,200.08,59.36,0.0,0.04
1526667601.43493319,72571793,-1.3,0.0,-0.53,3617.06689453,-3.35,-3.56,200.08,63.29,0.0,0.04
1526667601.53489304,72671753,-1.61,-0.49,-0.93,3314.54638672,-3.17,-3.51,200.08,67.21,0.0,0.04
1526667601.63485312,72771713,-1.82,-0.95,-1.29,2955.46972656,-2.92,-3.33,200.08,71.19,0.0,0.04
1526667601.73481321,72871673,-1.95,-1.34,-1.6,2621.72094727,-2.65,-3.13,200.08,75.17,0.0,0.04
1526667601.83477306,72971633,-2.02,-1.64,-1.84,2319.54614258,-2.37,-2.88,200.08,79.22,0.0,0.04
1526667601.93473315,73071593,-2.02,-1.82,-1.99,2072.59326172,-2.07,-2.64,200.08,83.32,0.0,0.04
1526667602.03469300,73171553,-1.85,-1.9,-2.06,1872.1895752,-1.76,-2.42,200.08,87.42,0.0,0.04
1526667602.13465309,73271513,-1.66,-1.9,-2.02,1708.53686523,-1.45,-2.17,200.08,91.52,0.0,0.04
1526667602.23461318,73371473,-1.41,-1.84,-1.9,1561.33776855,-1.1,-1.86,200.08,95.51,0.0,0.04
1526667602.33457303,73471433,-1.0,-1.69,-1.68,1432.12280273,-0.78,-1.55,200.08,99.39,0.0,0.04
1526667602.43453312,73571393,-0.4,-1.45,-1.36,1324.20507812,-0.47,-1.24,200.08,103.27,0.0,0.04
1526667602.53449321,73671353,0.29,-1.13,-0.92,1246.46166992,-0.16,-0.9,200.08,107.13,0.0,0.03
1526667602.63445306,73771313,1.05,-0.64,-0.36,1204.95422363,0.08,-0.52,200.08,111.06,0.0,0.03
1526667602.73441315,73871273,1.58,-0.03,0.28,1186.15429688,0.04,-0.2,200.08,115.04,0.0,0.03
1526667602.83437300,73971233,2.01,0.6,0.93,1185.3536377,-0.21,-0.05,200.08,119.02,0.0,0.03
1526667602.93433309,74071193,2.35,1.2,1.55,1185.27941895,-0.54,-0.06,200.08,123.02,0.0,0.04
1526667603.03429317,74171153,2.59,1.73,2.08,1187.37939453,-0.94,-0.17,200.08,127.03,0.0,0.04
1526667603.13425303,74271113,2.75,2.18,2.49,1182.20861816,-1.4,-0.4,200.08,131.05,0.0,0.04
1526667603.23504615,74371906,2.9,2.53,2.79,1167.94750977,-1.86,-0.71,200.08,135.14,0.0,0.04
1526667603.33500600,74471866,2.91,2.84,2.99,1135.31958008,-2.4,-1.13,200.08,139.23,0.0,0.05
1526667603.43496609,74571826,2.86,3.0,3.07,1091.30249023,-2.96,-1.64,200.08,143.31,0.0,0.05
1526667603.53492618,74671786,2.76,3.0,3.06,1047.79309082,-3.51,-2.13,200.08,147.44,0.0,0.05
1526667603.63488603,74771746,2.65,2.97,2.97,1006.68585205,-4.02,-2.61,200.08,151.56,0.0,0.05
1526667603.73484612,74871706,2.49,2.94,2.83,969.352722168,-4.51,-3.11,200.08,155.68,0.0,0.05
1526667603.83480620,74971666,2.26,2.85,2.64,239.497528076,-5.02,-3.65,200.08,159.82,0.0,0.05
1526667603.93476605,75071626,2.01,2.68,2.41,396.34197998,-5.5,-4.13,200.08,163.9,0.0,0.05
1526667604.03472614,75171586,1.78,2.49,2.17,557.328857422,-5.95,-4.65,200.08,167.99,0.0,0.05
1526667604.13468599,75271546,1.49,2.29,1.91,710.938598633,-6.4,-5.2,200.08,172.02,0.0,0.05
1526667604.23464608,75371506,1.1,2.02,1.63,855.97442627,-6.58,-5.68,200.08,176.13,0.0,0.05
1526667604.33460617,75471466,0.65,1.72,1.32,967.047241211,-6.58,-6.1,200.08,180.31,0.0,0.05
1526667604.43456602,75571426,0.22,1.38,0.97,1058.63378906,-6.51,-6.35,200.08,184.47,0.0,0.05
1526667604.53452611,75671386,-0.23,0.99,0.58,1129.38134766,-6.46,-6.54,200.08,188.59,0.0,0.05
1526667604.63448620,75771346,-0.67,0.55,0.18,1173.15698242,-6.41,-6.65,200.08,192.69,0.0,0.05
1526667604.73444605,75871306,-1.1,0.04,-0.24,1167.35327148,-6.35,-6.78,200.08,196.61,0.0,0.05
1526667604.83440614,75971266,-1.46,-0.53,-0.67,1105.54504395,-6.34,-6.85,200.08,200.05,0.0,0.04
1526667604.93436599,76071226,-1.75,-1.16,-1.07,1017.36663818,-6.34,-6.83,200.08,202.74,0.0,0.04
1526667605.03432608,76171186,-1.89,-1.7,-1.43,965.235900879,-6.36,-6.73,200.08,204.64,0.0,0.02
1526667605.13428617,76271146,-1.9,-2.11,-1.71,979.047973633,-6.46,-6.62,200.08,205.75,0.0,0.01
1526667605.23424602,76371106,-1.81,-2.37,-1.88,1042.11450195,-6.69,-6.52,200.08,206.08,0.0,0.0
1526667605.33503914,76471899,-1.62,-2.49,-1.93,1157.85473633,-7.21,-6.46,200.08,205.74,0.0,0.0
1526667605.43499899,76571859,-1.3,-2.34,-1.85,1250.88525391,-7.91,-6.55,200.08,204.94,0.0,0.02
1526667605.53495908,76671819,-0.95,-1.92,-1.66,1259.39758301,-8.64,-6.78,200.08,203.85,0.0,0.03
1526667605.63491917,76771779,-0.61,-1.37,-1.36,1203.39453125,-9.35,-7.25,200.08,202.65,0.0,0.04
1526667605.73487902,76871739,-0.3,-0.83,-1.0,1149.06506348,-10.05,-7.89,200.08,201.41,0.0,0.04
1526667605.83483911,76971699,-0.06,-0.34,-0.62,1122.03015137,-10.71,-8.58,200.08,200.26,0.0,0.04
1526667605.93479919,77071659,0.1,0.05,-0.26,1114.71313477,-11.31,-9.31,200.08,199.38,0.0,0.03
1526667606.03475904,77171619,0.21,0.35,0.04,1108.61584473,-11.91,-10.03,200.08,198.72,0.0,0.03
1526667606.13471913,77271579,0.21,0.6,0.27,1103.58618164,-12.45,-10.72,200.08,198.39,0.0,0.02
1526667606.23467922,77371539,0.14,0.71,0.41,1099.71386719,-12.68,-11.44,200.08,198.39,0.0,0.01
1526667606.33463907,77471499,0.0,0.65,0.44,1082.1854248,-12.49,-11.99,200.08,198.67,0.0,0.01
1526667606.43459916,77571459,-0.19,0.41,0.38,166.006988525,-12.12,-12.35,200.08,199.13,0.0,0.0
1526667606.53455901,77671419,-0.37,0.02,0.23,151.724487305,-11.67,-12.48,200.08,199.68,0.0,0.0
1526667606.63451910,77771379,-0.47,-0.4,0.03,460.547424316,-11.19,-12.38,200.08,200.24,0.0,0.01
1526667606.73447919,77871339,-0.51,-0.75,-0.17,1014.2947998,-10.67,-12.05,200.08,200.66,0.0,0.01
1526667606.83443904,77971299,-0.47,-0.96,-0.35,1516.16015625,-10.16,-11.63,200.08,200.89,0.0,0.0
1526667606.93439913,78071259,-0.38,-1.08,-0.47,1877.24975586,-9.67,-11.13,200.08,201.04,0.0,0.0
1526667607.03435922,78171219,-0.25,-1.09,-0.52,2095.17944336,-9.21,-10.61,200.08,201.15,0.0,0.0
1526667607.13431907,78271179,-0.1,-1.04,-0.49,2215.90942383,-8.78,-10.11,200.08,201.16,0.0,0.0
1526667607.23427916,78371139,0.08,-0.92,-0.39,2280.06152344,-8.34,-9.63,200.08,201.11,0.0,0.0
1526667607.33423901,78471099,0.25,-0.76,-0.24,2323.09375,-7.92,-9.09,200.08,201.03,0.0,0.0
1526667607.43503213,78571892,0.39,-0.56,-0.05,2352.78710938,-7.51,-8.56,200.08,200.87,0.0,0.0
1526667607.53499222,78671852,0.52,-0.34,0.15,2367.09472656,-7.14,-8.1,200.08,200.66,0.0,0.0
1526667607.63495207,78771812,0.63,-0.1,0.34,2354.51367188,-6.76,-7.71,200.08,200.38,0.0,0.0
1526667607.73491216,78871772,0.71,0.1,0.51,2317.03930664,-6.34,-7.36,200.08,200.13,0.0,0.0
1526667607.83487201,78971732,0.79,0.25,0.66,2281.50146484,-5.89,-7.0,200.08,199.94,0.0,0.0
1526667607.93483210,79071692,0.83,0.4,0.77,2234.83496094,-5.54,-6.59,200.08,199.83,0.0,0.0
1526667608.03479218,79171652,0.84,0.51,0.85,2178.44213867,-4.76,-6.17,200.08,199.82,0.0,0.0
1526667608.13475204,79271612,0.84,0.6,0.89,2113.46899414,-4.24,-5.73,200.08,199.84,0.0,0.0
1526667608.23471212,79371572,0.86,0.67,0.9,2038.30493164,-3.93,-5.27,200.08,199.85,0.0,0.0
1526667608.33467221,79471532,0.85,0.72,0.89,1957.85644531,-3.73,-4.89,200.08,199.91,0.0,0.0
1526667608.43463206,79571492,0.79,0.68,0.87,1881.62963867,-3.56,-4.51,200.08,200.02,0.0,0.0
1526667608.53459215,79671452,0.72,0.65,0.83,1813.3848877,-3.4,-4.18,200.08,200.08,0.0,0.0
1526667608.63455200,79771412,0.65,0.62,0.77,1747.73266602,-3.25,-3.82,200.08,200.16,0.0,0.0
1526667608.73451209,79871372,0.6,0.64,0.7,1680.01672363,-3.11,-3.49,200.08,200.3,0.0,0.0
1526667608.83447218,79971332,0.59,0.64,0.64,1613.25891113,-2.95,-3.25,200.08,200.38,0.0,0.0
1526667608.93443203,80071292,0.58,0.64,0.58,1551.5880127,-2.78,-3.12,200.08,200.37,0.0,0.0
1526667609.03439212,80171252,0.57,0.65,0.54,66.6744995117,-2.59,-3.01,200.08,200.42,0.0,0.0
1526667609.13435221,80271212,1.44,0.72,0.52,153.60256958,-4.21,-2.89,200.09,200.48,0.0,0.0
1526667609.23431206,80371172,1.38,0.96,0.7,315.555358887,0.08,-2.81,200.09,200.56,0.0,0.0
1526667609.33427215,80471132,1.28,0.78,0.89,287.419555664,2.88,-1.97,200.09,200.59,0.0,0.01
1526667609.43423200,80571092,1.17,0.54,1.05,481.683502197,3.8,-0.48,200.09,200.61,0.0,0.02
1526667609.53502512,80671885,1.1,0.51,1.15,999.847473145,3.99,1.02,200.09,200.64,0.0,0.02
1526667609.63498521,80771845,1.07,0.59,1.2,1452.95983887,3.71,2.21,200.09,200.67,0.0,0.01
1526667609.73494506,80871805,1.02,0.81,1.2,1605.96166992,3.18,3.01,200.09,200.66,0.0,0.0
1526667609.83490515,80971765,0.92,1.09,1.17,1505.1697998,2.51,3.33,200.09,200.64,0.0,0.0
1526667609.93486500,81071725,0.81,1.36,1.09,1374.94262695,1.73,3.25,200.09,200.61,0.0,0.0
1526667610.03482509,81171685,0.67,1.52,0.98,1406.46887207,0.93,2.86,200.09,200.56,0.0,0.0
1526667610.13478518,81271645,0.48,1.53,0.85,1606.58959961,0.17,2.24,200.09,200.49,0.0,0.0
1526667610.23474503,81371605,0.23,1.43,0.68,1883.18530273,-0.44,1.54,200.09,200.41,0.0,0.0
1526667610.33470511,81471565,0.0,1.25,0.47,2166.73876953,-0.96,0.83,200.09,200.3,0.0,0.0
1526667610.43466520,81571525,-0.22,0.99,0.25,2401.06079102,-1.34,0.17,200.09,200.15,0.0,0.0
1526667610.53462505,81671485,-0.42,0.7,0.02,2562.67529297,-1.61,-0.39,200.09,200.03,0.0,0.0
1526667610.63458514,81771445,-0.55,0.4,-0.19,2649.71240234,-1.72,-0.84,200.09,200.0,0.0,0.0
1526667610.73454499,81871405,-0.64,0.15,-0.39,2684.83520508,-1.76,-1.21,200.09,200.02,0.0,0.0
1526667610.83450508,81971365,-0.67,-0.04,-0.55,2689.13427734,-1.73,-1.46,200.09,200.1,0.0,0.0
1526667610.93446517,82071325,-0.66,-0.23,-0.65,2667.84057617,-1.66,-1.64,200.09,200.24,0.0,0.0
1526667611.03442502,82171285,-0.6,-0.49,-0.7,2592.19458008,-1.45,-1.71,200.09,200.37,0.0,0.01
1526667611.13438511,82271245,-0.53,-0.7,-0.7,2481.50170898,-1.23,-1.63,200.09,200.43,0.0,0.01
1526667611.23434520,82371205,-0.43,-0.82,-0.64,2377.89624023,-1.01,-1.46,200.09,200.44,0.0,0.01
1526667611.33430505,82471165,-0.3,-0.83,-0.55,2300.29418945,-0.81,-1.26,200.09,200.35,0.0,0.0
1526667611.43426514,82571125,-0.16,-0.75,-0.43,2243.81152344,-0.62,-1.03,200.09,200.23,0.0,0.0
1526667611.53422499,82671085,-0.02,-0.62,-0.28,2198.92504883,-0.48,-0.81,200.09,200.13,0.0,0.0
1526667611.63501811,82771878,0.1,-0.49,-0.13,1193.61499023,-0.33,-0.58,200.09,200.1,0.0,0.0
1526667611.73497820,82871838,0.22,-0.31,0.01,1189.81481934,-0.23,-0.37,200.09,200.12,0.0,0.0
1526667611.83493805,82971798,0.33,-0.12,0.16,1107.15942383,-0.17,-0.22,200.09,200.2,0.0,0.0
1526667611.93489814,83071758,0.37,0.06,0.29,1002.05096436,-0.13,-0.08,200.09,200.28,0.0,0.0
1526667612.03485799,83171718,0.36,0.24,0.39,875.135375977,-0.1,0.0,200.09,200.4,0.0,0.0
1526667612.13481808,83271678,0.34,0.37,0.44,751.510559082,-0.11,0.02,200.09,200.49,0.0,0.0
1526667612.23477817,83371638,0.32,0.42,0.46,649.603210449,-0.05,0.04,200.09,200.57,0.0,0.0
1526667612.33473802,83471598,0.27,0.42,0.45,570.86138916,-0.02,0.06,200.09,200.64,0.0,0.0
1526667612.43469810,83571558,0.21,0.48,0.4,508.806091309,0.02,0.03,200.09,200.65,0.0,0.0
1526667612.53465819,83671518,0.15,0.53,0.33,477.818939209,0.07,0.0,200.09,200.63,0.0,0.0
1526667612.63461804,83771478,0.07,0.55,0.26,486.872589111,0.12,-0.04,200.09,200.59,0.0,0.0
1526667612.73457813,83871438,0.0,0.49,0.17,523.778381348,0.2,-0.06,200.09,200.51,0.0,0.0
1526667612.83453822,83971398,-0.1,0.37,0.08,554.586242676,0.28,-0.02,200.09,200.47,0.0,0.0
1526667612.93449807,84071358,-0.17,0.25,-0.01,569.125,0.36,0.0,200.09,200.44,0.0,0.0
1526667613.03445816,84171318,-0.18,0.14,-0.09,573.8828125,0.42,-0.02,200.09,200.49,0.0,0.0
1526667613.13441801,84271278,-0.17,0.0,-0.16,561.837524414,0.49,-0.02,200.09,200.56,0.0,0.0
1526667613.23437810,84371238,-0.11,-0.13,-0.19,536.930664062,0.65,0.05,200.09,200.63,0.0,0.01
1526667613.33433819,84471198,-0.03,-0.21,-0.19,507.69354248,0.76,0.19,200.09,200.61,0.0,0.0
1526667613.43429804,84571158,0.0,-0.25,-0.15,482.829162598,0.86,0.33,200.09,200.49,0.0,0.0
1526667613.53425813,84671118,0.09,-0.27,-0.1,467.637664795,0.95,0.49,200.09,200.35,0.0,0.0
1526667613.63505101,84771911,0.18,-0.27,-0.02,466.890777588,1.04,0.73,200.09,200.19,0.0,0.0
1526667613.73501110,84871871,0.27,-0.24,0.06,483.058990479,1.07,0.96,200.09,200.09,0.0,0.0
1526667613.83497119,84971831,0.31,-0.14,0.16,506.006988525,1.01,1.14,200.09,200.01,0.0,0.0
1526667613.93493104,85071791,0.37,0.01,0.25,517.295532227,0.93,1.22,200.09,199.99,0.0,0.0
1526667614.03489113,85171751,0.41,0.18,0.33,513.318908691,0.81,1.22,200.09,200.04,0.0,0.0
1526667614.13485122,85271711,0.42,0.35,0.4,497.709960938,0.71,1.16,200.09,200.08,0.0,0.0
1526667614.23481107,85371671,0.38,0.42,0.44,9.75428104401,0.65,1.05,200.09,200.12,0.0,0.0
1526667614.33477116,85471631,0.31,0.4,0.44,11.555680275,0.59,0.98,200.09,200.23,0.0,0.0
1526667614.43473101,85571591,0.23,0.38,0.42,18.4018383026,0.53,0.91,200.09,200.3,0.0,0.0
1526667614.53469110,85671551,0.2,0.4,0.36,15.1983947754,0.48,0.81,200.09,200.3,0.0,0.0
1526667614.63465118,85771511,0.16,0.45,0.3,30.2313575745,0.43,0.71,200.09,200.28,0.0,0.0
1526667614.73461103,85871471,0.09,0.48,0.23,90.7900848389,0.41,0.59,200.09,200.27,0.0,0.0
1526667614.83457112,85971431,0.02,0.42,0.16,170.728103638,0.43,0.49,200.09,200.24,0.0,0.0
1526667614.93453121,86071391,-0.06,0.35,0.08,235.185470581,0.44,0.39,200.09,200.19,0.0,0.0
1526667615.03449106,86171351,-0.1,0.25,0.0,282.83795166,0.46,0.3,200.09,200.12,0.0,0.0
1526667615.13445115,86271311,-0.13,0.13,-0.05,299.286712646,0.5,0.3,200.09,200.09,0.0,0.0
1526667615.23441100,86371271,-0.16,0.11,-0.11,309.509185791,0.56,0.31,200.09,200.1,0.0,0.0
1526667615.33437109,86471231,-0.17,0.08,-0.15,327.00112915,0.61,0.34,200.09,200.1,0.0,0.0
1526667615.43433118,86571191,-0.17,0.0,-0.18,337.291107178,0.66,0.37,200.09,200.11,0.0,0.0
1526667615.53429103,86671151,-0.13,-0.1,-0.19,328.526611328,0.71,0.41,200.09,200.13,0.0,0.0
1526667615.63425112,86771111,-0.08,-0.2,-0.17,308.008422852,0.77,0.44,200.09,200.08,0.0,0.0
1526667615.73504400,86871904,-0.02,-0.32,-0.14,296.054779053,0.81,0.5,200.09,200.05,0.0,0.0
1526667615.83500409,86971864,0.02,-0.34,-0.09,305.974945068,0.9,0.6,200.09,200.06,0.0,0.0
1526667615.93496418,87071824,0.07,-0.32,-0.04,324.904449463,0.95,0.72,200.09,200.07,0.0,0.0
1526667616.03492403,87171784,0.13,-0.26,0.01,348.528991699,0.98,0.8,200.09,200.07,0.0,0.0
1526667616.13488412,87271744,0.18,-0.16,0.08,365.067352295,0.97,0.87,200.09,200.11,0.0,0.0
1526667616.23484421,87371704,0.23,-0.07,0.14,371.905700684,0.93,0.96,200.09,200.13,0.0,0.0
1526667616.33480406,87471664,0.25,0.0,0.2,374.871551514,0.9,1.03,200.09,200.2,0.0,0.0
1526667616.43476415,87571624,0.25,0.08,0.24,374.13470459,0.88,1.08,200.09,200.25,0.0,0.0
1526667616.53472400,87671584,0.24,0.2,0.27,365.364349365,0.81,1.13,200.09,200.29,0.0,0.0
1526667616.63468409,87771544,0.22,0.32,0.28,351.265319824,0.68,1.09,200.09,200.31,0.0,0.0
1526667616.73464417,87871504,0.19,0.4,0.27,340.345977783,0.57,1.02,200.09,200.29,0.0,0.0
1526667616.83460402,87971464,0.13,0.48,0.25,335.310333252,0.44,0.85,200.09,200.19,0.0,0.0
1526667616.93456411,88071424,0.03,0.53,0.2,580.047851562,0.38,0.61,200.09,200.16,0.0,0.0
1526667617.03452420,88171384,-0.01,0.45,0.14,722.116882324,0.32,0.49,200.09,200.2,0.0,0.0
1526667617.13448405,88271344,-0.08,0.35,0.07,749.100524902,0.31,0.42,200.09,200.29,0.0,0.0
1526667617.23444414,88371304,-0.15,0.23,0.0,721.180603027,0.33,0.33,200.09,200.4,0.0,0.01
1526667617.33440399,88471264,-0.2,0.08,-0.07,662.634460449,0.34,0.22,200.09,200.45,0.0,0.01
1526667617.43436408,88571224,-0.22,-0.02,-0.14,596.440856934,0.36,0.14,200.09,200.45,0.0,0.0
1526667617.53432417,88671184,-0.2,-0.15,-0.19,531.183410645,0.42,0.1,200.09,200.46,0.0,0.01
1526667617.63428402,88771144,-0.15,-0.22,-0.22,472.68081665,0.45,0.13,200.09,200.47,0.0,0.01
1526667617.73424411,88871104,-0.07,-0.26,-0.21,425.938934326,0.51,0.17,200.09,200.46,0.0,0.0
1526667617.83503699,88971897,0.0,-0.26,-0.17,390.583374023,0.61,0.21,200.09,200.47,0.0,0.0
1526667617.93499708,89071857,0.08,-0.3,-0.11,373.714172363,0.69,0.29,200.09,200.47,0.0,0.0
1526667618.03495717,89171817,0.12,-0.29,-0.03,383.374023438,0.69,0.41,200.09,200.4,0.0,0.0
1526667618.13491702,89271777,0.18,-0.26,0.04,407.252197266,0.68,0.56,200.09,200.31,0.0,0.0
1526667618.23487711,89371737,0.25,-0.18,0.12,442.978271484,0.62,0.71,200.09,200.2,0.0,0.0
1526667618.33483720,89471697,0.3,-0.07,0.19,465.858795166,0.56,0.72,200.09,200.17,0.0,0.0
1526667618.43479705,89571657,0.31,0.02,0.26,477.355987549,0.47,0.7,200.09,200.21,0.0,0.0
1526667618.53475714,89671617,0.31,0.11,0.31,480.0027771,0.39,0.67,200.09,200.25,0.0,0.0
1526667618.63471699,89771577,0.32,0.21,0.34,470.610351562,0.32,0.69,200.09,200.27,0.0,0.0
1526667618.73467708,89871537,0.32,0.36,0.35,449.928009033,0.21,0.66,200.09,200.28,0.0,0.0
1526667618.83463717,89971497,0.3,0.43,0.36,429.448577881,0.12,0.55,200.09,200.29,0.0,0.0
1526667618.93459702,90071457,0.25,0.47,0.34,414.432067871,0.01,0.43,200.09,200.29,0.0,0.0
1526667619.03455710,90171417,0.19,0.51,0.31,407.817352295,-0.03,0.28,200.09,200.28,0.0,0.0
1526667619.13451719,90271377,0.12,0.51,0.26,412.713684082,-0.07,0.1,200.09,200.32,0.0,0.0
1526667619.23447704,90371337,0.03,0.45,0.2,420.93862915,-0.07,-0.08,200.09,200.36,0.0,0.0
1526667619.33443713,90471297,-0.03,0.33,0.12,424.128173828,-0.02,-0.19,200.09,200.4,0.0,0.0
1526667619.43439722,90571257,-0.06,0.22,0.05,362.93963623,0.04,-0.26,200.09,200.46,0.0,0.0
1526667619.53435707,90671217,-0.08,0.04,-0.01,252.418991089,0.14,-0.3,200.09,200.51,0.0,0.01
1526667619.63431716,90771177,-0.08,-0.12,-0.06,171.311416626,0.24,-0.24,200.09,200.51,0.0,0.01
1526667619.73427701,90871137,-0.05,-0.21,-0.09,145.746490479,0.33,-0.15,200.09,200.5,0.0,0.01
1526667619.83423710,90971097,-0.02,-0.27,-0.1,155.72277832,0.4,0.01,200.09,200.45,0.0,0.01
1526667619.93503022,91071890,0.03,-0.29,-0.09,186.497360229,0.44,0.16,200.09,200.42,0.0,0.01
1526667620.03499007,91171850,0.12,-0.29,-0.05,229.725006104,0.46,0.27,200.09,200.31,0.0,0.0
1526667620.13495016,91271810,0.22,-0.24,0.01,275.703826904,0.44,0.38,200.09,200.21,0.0,0.0
1526667620.23491001,91371770,0.3,-0.16,0.09,311.667449951,0.4,0.4,200.09,200.2,0.0,0.0
1526667620.33487010,91471730,0.36,-0.06,0.18,343.652618408,0.35,0.47,200.09,200.24,0.0,0.0
1526667620.43483019,91571690,0.42,0.06,0.27,359.619293213,0.32,0.58,200.09,200.27,0.0,0.0
1526667620.53479004,91671650,0.47,0.19,0.36,361.021331787,0.26,0.64,200.09,200.28,0.0,0.0
1526667620.63475013,91771610,0.48,0.34,0.43,348.574310303,0.19,0.63,200.09,200.37,0.0,0.0
1526667620.73471022,91871570,0.47,0.45,0.48,326.534454346,0.1,0.57,200.09,200.48,0.0,0.0
1526667620.83467007,91971530,0.45,0.52,0.51,305.078033447,0.02,0.5,200.09,200.57,0.0,0.0
1526667620.93463016,92071490,0.42,0.63,0.51,289.774169922,-0.04,0.39,200.09,200.59,0.0,0.0
1526667621.03459001,92171450,0.32,0.66,0.48,286.009155273,-0.14,0.24,200.09,200.58,0.0,0.0
1526667621.13455009,92271410,0.24,0.65,0.43,291.346099854,-0.2,0.05,200.09,200.6,0.0,0.0
1526667621.23451018,92371370,0.14,0.61,0.35,304.420013428,-0.22,-0.12,200.09,200.54,0.0,0.0
1526667621.33447003,92471330,0.03,0.55,0.26,323.912780762,-0.2,-0.22,200.09,200.41,0.0,0.0
1526667621.43443012,92571290,-0.06,0.49,0.15,353.900939941,-0.14,-0.3,200.09,200.3,0.0,0.0
1526667621.53439021,92671250,-0.16,0.34,0.04,382.269134521,-0.06,-0.37,200.09,200.16,0.0,0.0
1526667621.63435006,92771210,-0.21,0.16,-0.05,393.46383667,0.01,-0.32,200.09,200.08,0.0,0.01
1526667621.73431015,92871170,-0.23,-0.02,-0.15,391.04095459,0.11,-0.22,200.09,200.09,0.0,0.01
1526667621.83427000,92971130,-0.2,-0.22,-0.21,377.71282959,0.16,-0.09,200.09,200.07,0.0,0.01
1526667621.93423009,93071090,-0.13,-0.36,-0.24,365.200469971,0.19,-0.02,200.09,200.1,0.0,0.01
1526667622.03502321,93171883,-0.03,-0.42,-0.22,253.651123047,0.19,0.04,200.09,200.12,0.0,0.01
1526667622.13498306,93271843,0.07,-0.4,-0.17,348.692321777,0.22,0.11,200.09,200.12,0.0,0.0
1526667622.23494315,93371803,0.14,-0.33,-0.09,418.839660645,0.23,0.21,200.09,200.12,0.0,0.0
1526667622.33490300,93471763,0.25,-0.24,0.0,459.160644531,0.2,0.27,200.09,200.07,0.0,0.0
1526667622.43486309,93571723,0.28,-0.16,0.11,505.404876709,0.17,0.3,200.09,199.93,0.0,0.0
