timestamp,TimeUS,DesR,R,IR,IRErr,DesP,P,DesY,Y,ErrRP,ErrYaw
1526667672.68080878,29771420,0.0,1.12,0.0,10127.4335938,0.0,0.42,352.99,352.99,0.0,0.0
1526667672.78076887,29871380,0.0,1.13,0.0,10265.75,0.0,0.42,352.9,352.9,0.0,0.0
1526667672.88072872,29971340,0.0,1.14,0.0,10403.4736328,0.0,0.43,352.8,352.8,0.0,0.0
1526667672.98068881,30071300,0.0,1.15,0.0,10539.9697266,0.0,0.44,352.7,352.7,0.0,0.0
1526667673.08064890,30171260,0.0,1.17,0.0,10676.9277344,0.0,0.44,352.59,352.59,0.0,0.0
1526667673.18060875,30271220,0.0,1.19,0.0,10827.4882812,0.0,0.43,352.5,352.5,0.0,0.0
1526667673.28056884,30371180,0.0,1.2,0.0,10982.2958984,0.0,0.43,352.42,352.42,0.0,0.0
1526667673.38052869,30471140,0.0,1.2,0.0,11124.7001953,0.0,0.41,352.34,352.34,0.0,0.0
1526667673.48048878,30571100,0.0,1.2,0.0,11252.3662109,0.0,0.39,352.27,352.27,0.0,0.0
1526667673.58044887,30671060,0.0,1.22,0.0,11385.2802734,0.0,0.38,352.2,352.2,0.0,0.0
1526667673.68040872,30771020,0.0,1.23,0.0,14975.875,0.0,0.38,352.14,352.14,0.0,0.0
1526667673.78036880,30870980,0.0,1.24,0.0,15055.5253906,0.0,0.38,352.1,352.1,0.0,0.0
1526667673.88032889,30970940,0.0,1.24,0.0,15162.3496094,0.0,0.39,352.09,352.09,0.0,0.0
1526667673.98028874,31070900,0.0,1.25,0.0,15239.1064453,0.0,0.42,352.08,352.08,0.0,0.0
1526667674.08024883,31170860,0.0,1.26,0.0,15317.5400391,0.0,0.43,352.06,352.06,0.0,0.0
1526667674.18020868,31270820,0.0,1.27,0.0,15424.3212891,0.0,0.42,352.06,352.06,0.0,0.0
1526667674.28016877,31370780,0.0,1.27,0.0,15524.9892578,0.0,0.43,352.08,352.08,0.0,0.07
1526667674.38012886,31470740,0.0,1.28,0.0,15614.0371094,0.0,0.42,352.13,352.13,0.0,0.08
1526667674.48008871,31570700,0.0,1.27,0.0,15690.3808594,0.0,0.39,352.21,352.21,0.0,0.08
1526667674.58004880,31670660,0.0,1.26,0.0,15714.6347656,0.0,0.36,352.27,352.27,0.0,0.07
1526667674.68000889,31770620,0.0,1.25,0.0,15706.4863281,0.0,0.34,352.35,352.35,0.0,0.07
1526667674.78080177,31871413,0.0,1.22,0.0,15666.6503906,0.0,0.34,352.43,352.43,0.0,0.07
1526667674.88076186,31971373,0.0,1.17,0.0,15552.8154297,0.0,0.35,352.52,352.52,0.0,0.01
1526667674.98072171,32071333,0.0,1.12,0.0,15371.9609375,0.0,0.35,352.6,352.6,0.0,0.0
1526667675.08068180,32171293,0.0,1.12,0.0,15183.4296875,0.0,0.35,352.68,352.68,0.0,0.0
1526667675.18064189,32271253,0.0,1.11,0.0,15005.2246094,0.0,0.35,352.79,352.79,0.0,0.0
1526667675.28060174,32371213,0.0,1.09,0.0,14833.7001953,0.0,0.35,352.92,352.92,0.0,0.0
1526667675.38056183,32471173,0.0,1.07,0.0,14656.1347656,0.0,0.33,353.04,353.04,0.0,0.0
1526667675.48052168,32571133,0.0,1.07,0.0,14487.3378906,0.0,0.32,353.16,353.16,0.0,0.0
1526667675.58048177,32671093,0.0,1.07,0.0,14335.4208984,0.0,0.3,353.26,353.26,0.0,0.0
1526667675.68044186,32771053,0.0,1.08,0.0,14198.9960938,0.0,0.29,353.36,353.36,0.0,0.0
1526667675.78040171,32871013,0.0,1.1,0.0,14090.6923828,0.0,0.29,353.47,353.47,0.0,0.0
1526667675.88036180,32970973,0.0,1.14,0.0,14024.2412109,0.0,0.27,353.58,353.58,0.0,0.0
1526667675.98032188,33070933,0.0,1.16,0.0,13990.0039062,0.0,0.26,353.69,353.69,0.0,0.0
1526667676.08028173,33170893,0.0,1.17,0.0,13972.3720703,0.0,0.24,353.78,353.78,0.0,0.0
1526667676.18024182,33270853,0.0,1.17,0.0,13961.4726562,0.0,0.23,353.86,353.86,0.0,0.0
1526667676.28020167,33370813,0.0,1.17,0.0,13841.75,0.0,0.23,353.95,353.95,0.0,0.0
1526667676.38016176,33470773,0.0,1.17,0.0,13765.375,0.0,0.22,354.07,354.07,0.0,0.07
1526667676.48012185,33570733,0.0,1.15,0.0,13670.1669922,0.0,0.21,354.21,354.21,0.0,0.07
1526667676.58008170,33670693,0.0,1.12,0.0,13470.5996094,0.0,0.18,354.34,354.34,0.0,0.07
1526667676.68004179,33770653,0.0,1.1,0.0,13237.4150391,0.0,0.15,354.49,354.49,0.0,0.07
1526667676.78000188,33870613,0.0,1.09,0.0,13027.7705078,0.0,0.13,354.63,354.63,0.0,0.07
1526667676.88079476,33971406,0.0,1.1,0.0,12889.7568359,0.0,0.09,354.78,354.78,0.0,0.07
1526667676.98075485,34071366,0.0,1.07,0.0,12753.5410156,0.0,0.04,354.91,354.91,0.0,0.01
1526667677.08071470,34171326,0.0,1.03,0.0,12573.9550781,0.0,-0.01,355.03,355.03,0.0,0.01
1526667677.18067479,34271286,0.0,1.0,0.0,12349.9101562,0.0,-0.05,355.16,355.16,0.0,0.01
1526667677.28063488,34371246,0.0,0.99,0.0,12124.5224609,0.0,-0.08,355.31,355.31,0.0,0.01
1526667677.38059473,34471206,0.0,0.98,0.0,11923.0976562,0.0,-0.09,355.47,355.47,0.0,0.01
1526667677.48055482,34571166,0.0,0.98,0.0,11744.7060547,0.0,-0.1,355.63,355.63,0.0,0.01
1526667677.58051467,34671126,0.0,0.99,0.0,11595.3164062,0.0,-0.1,355.77,355.77,0.0,0.01
1526667677.68047476,34771086,-0.11,0.78,0.0,11376.0771484,-0.07,-0.17,355.79,355.89,0.0,0.0
1526667677.78043485,34871046,-0.22,0.49,-0.04,10928.7705078,-0.06,-0.22,355.79,355.93,0.0,0.0
1526667677.88039470,34971006,-0.32,0.25,-0.1,10397.7851562,-0.03,-0.26,355.79,355.92,0.0,0.0
1526667677.98035479,35070966,-0.38,0.05,-0.18,9867.24316406,0.0,-0.27,355.79,355.88,0.0,0.0
1526667678.08031487,35170926,-0.44,-0.11,-0.26,9367.55078125,0.01,-0.27,355.79,355.82,0.0,0.0
1526667678.18027472,35270886,-0.45,-0.23,-0.35,8908.85546875,0.02,-0.25,355.79,355.73,0.0,0.0
1526667678.28023481,35370846,-0.43,-0.32,-0.41,8490.05566406,0.03,-0.21,355.79,355.67,0.0,0.0
1526667678.38019466,35470806,-0.38,-0.4,-0.44,8106.49414062,0.07,-0.17,355.79,355.67,0.0,0.0
1526667678.48015475,35570766,-0.34,-0.46,-0.45,7754.20556641,0.08,-0.1,355.79,355.7,0.0,0.06
1526667678.58011484,35670726,-0.25,-0.49,-0.42,7431.55224609,0.09,-0.01,355.79,355.8,0.0,0.07
1526667678.68007469,35770686,-0.17,-0.47,-0.37,7136.81494141,0.1,0.13,355.79,355.9,0.0,0.07
1526667678.78003478,35870646,-0.06,-0.44,-0.29,6867.81152344,0.06,0.26,355.79,355.97,0.0,0.07
1526667678.88082767,35971439,-0.01,-0.35,-0.2,223.292724609,0.04,0.36,355.79,356.02,0.0,0.06
1526667678.98078775,36071399,0.09,-0.2,-0.1,191.935791016,0.0,0.38,355.79,356.06,0.0,0.02
1526667679.08074784,36171359,0.14,-0.06,0.0,148.140090942,-0.09,0.36,355.79,356.08,0.0,0.01
1526667679.18070769,36271319,0.15,0.06,0.08,115.344665527,-0.16,0.28,355.79,356.07,0.0,0.01
1526667679.28066778,36371279,0.16,0.21,0.14,94.6443634033,-0.24,0.14,355.79,356.02,0.0,0.01
1526667679.38062787,36471239,0.14,0.28,0.18,90.5578842163,-0.32,0.03,355.79,355.96,0.0,0.01
1526667679.48058772,36571199,0.05,0.29,0.19,87.1781234741,-0.35,0.0,355.79,355.85,0.0,0.0
1526667679.58054781,36671159,-0.02,0.31,0.16,94.9850769043,-0.36,-0.14,355.79,355.74,0.0,0.0
1526667679.68050790,36771119,-0.1,0.23,0.1,105.408004761,-0.34,-0.34,355.79,355.62,0.0,0.0
1526667679.78046775,36871079,-0.13,0.11,0.03,106.020729065,-0.29,-0.48,355.79,355.53,0.0,0.0
1526667679.88042784,36971039,-0.16,0.0,-0.04,100.820358276,-0.2,-0.55,355.79,355.48,0.0,0.0
1526667679.98038769,37070999,-0.15,-0.15,-0.11,92.9902572632,-0.06,-0.53,355.79,355.45,0.0,0.0
1526667680.08034778,37170959,-0.15,-0.24,-0.16,87.7439346313,0.09,-0.47,355.79,355.39,0.0,0.0
1526667680.18030787,37270919,-0.11,-0.37,-0.18,93.7361373901,0.24,-0.31,355.79,355.4,0.0,0.0
1526667680.28026772,37370879,-0.03,-0.47,-0.18,128.288772583,0.36,-0.09,355.79,355.44,0.0,0.0
1526667680.38022780,37470839,0.03,-0.43,-0.15,170.955566406,0.43,0.22,356.71,356.37,0.0,0.0
1526667680.48018789,37570799,0.14,-0.37,-0.09,205.895797729,0.42,0.45,356.71,356.44,0.0,0.0
1526667680.58014774,37670759,0.24,-0.26,-0.01,231.82472229,0.36,0.55,356.71,356.5,0.0,0.06
1526667680.68010783,37770719,0.33,-0.11,0.09,247.740219116,0.29,0.62,356.71,356.59,0.0,0.06
1526667680.78006768,37870679,0.41,0.06,0.19,250.443984985,0.19,0.6,356.71,356.68,0.0,0.06
1526667680.88002777,37970639,0.4,0.26,0.29,243.340621948,0.11,0.52,356.71,356.72,0.0,0.06
1526667680.98082089,38071432,0.41,0.41,0.37,232.530029297,0.03,0.39,356.71,356.7,0.0,0.06
1526667681.08078074,38171392,0.37,0.54,0.42,225.492477417,-0.04,0.25,356.71,356.63,0.0,0.02
1526667681.18074083,38271352,0.3,0.61,0.43,225.101547241,-0.09,0.06,356.71,356.69,0.0,0.01
1526667681.28070068,38371312,0.15,0.62,0.4,232.597793579,-0.07,-0.1,356.71,356.74,0.0,0.01
1526667681.38066077,38471272,0.01,0.45,0.32,237.179534912,0.01,-0.21,356.71,356.8,0.0,0.0
1526667681.48062086,38571232,-0.1,0.26,0.2,64.5578994751,0.11,-0.23,356.71,356.92,0.0,0.0
1526667681.58058071,38671192,-0.18,0.14,0.07,49.2123527527,0.18,-0.25,356.71,357.03,0.0,0.0
1526667681.68054080,38771152,-0.24,-0.01,-0.05,41.2580337524,0.24,-0.24,356.71,357.17,0.0,0.0
1526667681.78050089,38871112,-0.22,-0.13,-0.16,36.1712265015,0.33,-0.22,356.71,357.22,0.0,0.0
1526667681.88046074,38971072,-0.22,-0.33,-0.23,33.3391876221,0.4,-0.14,356.71,357.27,0.0,0.0
1526667681.98042083,39071032,-0.18,-0.49,-0.28,70.630355835,0.47,0.0,356.71,357.28,0.0,0.0
1526667682.08038068,39170992,-0.09,-0.54,-0.28,146.490371704,0.48,0.22,356.88,357.52,0.0,0.0
1526667682.18034077,39270952,0.03,-0.47,-0.23,206.94152832,0.48,0.4,356.88,357.52,0.0,0.01
1526667682.28030086,39370912,0.14,-0.32,-0.15,230.825592041,0.44,0.57,356.88,357.46,0.0,0.01
1526667682.38026071,39470872,0.23,-0.1,-0.04,222.03968811,0.37,0.7,356.88,357.37,0.0,0.01
1526667682.48022079,39570832,0.27,0.11,0.07,202.597412109,0.24,0.72,356.88,357.26,0.0,0.01
1526667682.58018088,39670792,0.24,0.31,0.17,191.825653076,0.08,0.64,356.88,357.11,0.0,0.06
1526667682.68014073,39770752,0.14,0.46,0.24,203.180908203,-0.09,0.48,356.88,357.01,0.0,0.06
1526667682.78010082,39870712,0.06,0.51,0.25,230.280654907,-0.21,0.31,356.88,356.89,0.0,0.06
1526667682.88006067,39970672,-0.02,0.52,0.22,266.573303223,-0.32,0.11,356.88,356.82,0.0,0.06
1526667682.98002076,40070632,-0.13,0.43,0.15,302.100036621,-0.4,-0.15,356.88,356.7,0.0,0.07
1526667683.08081388,40171425,-0.25,0.28,0.05,320.03213501,-0.39,-0.34,356.88,356.63,0.0,0.07
1526667683.18077374,40271385,-0.35,0.12,-0.06,325.241271973,-0.33,-0.42,356.88,356.67,0.0,0.01
1526667683.28073382,40371345,-0.4,-0.01,-0.19,325.805908203,-0.26,-0.48,356.88,356.73,0.0,0.01
1526667683.38069367,40471305,-0.4,-0.15,-0.3,323.240234375,-0.16,-0.54,356.88,356.73,0.0,0.01
1526667683.48065376,40571265,-0.36,-0.27,-0.38,317.303314209,-0.01,-0.53,356.88,356.73,0.0,0.01
1526667683.58061385,40671225,-0.33,-0.41,-0.42,305.342468262,0.14,-0.44,356.88,356.71,0.0,0.01
1526667683.68057370,40771185,-0.28,-0.49,-0.42,292.533477783,0.26,-0.28,356.88,356.71,0.0,0.01
1526667683.78053379,40871145,-0.18,-0.56,-0.39,285.546325684,0.34,-0.12,356.88,356.7,0.0,0.01
1526667683.88049388,40971105,-0.05,-0.6,-0.32,294.188049316,0.35,0.05,356.88,356.7,0.0,0.01
1526667683.98045373,41071065,0.09,-0.54,-0.22,320.136230469,0.36,0.25,356.88,356.65,0.0,0.01
1526667684.08041382,41171025,0.26,-0.4,-0.08,1007.39929199,0.37,0.42,356.88,356.63,0.0,0.01
1526667684.18037367,41270985,0.41,-0.21,0.06,930.320983887,0.33,0.57,356.88,356.63,0.0,0.01
1526667684.28033376,41370945,0.53,0.04,0.23,810.465270996,0.26,0.68,356.88,356.63,0.0,0.02
1526667684.38029385,41470905,0.57,0.33,0.39,654.323791504,0.18,0.66,356.88,356.58,0.0,0.02
1526667684.48025370,41570865,0.51,0.6,0.5,528.961303711,0.05,0.54,356.88,356.55,0.0,0.02
1526667684.58021379,41670825,0.39,0.72,0.56,469.738006592,-0.07,0.37,356.88,356.52,0.0,0.01
1526667684.68017387,41770785,0.24,0.75,0.55,446.383270264,-0.15,0.17,356.88,356.45,0.0,0.06
1526667684.78013372,41870745,0.07,0.73,0.48,452.287841797,-0.18,-0.05,356.88,356.38,0.0,0.06
1526667684.88009381,41970705,0.0,0.59,0.35,467.630889893,-0.16,-0.27,356.88,356.37,0.0,0.07
1526667684.98005366,42070665,-0.1,0.36,0.2,458.066558838,-0.1,-0.39,356.88,356.42,0.0,0.07
1526667685.08001375,42170625,-0.19,0.15,0.05,430.058197021,-0.05,-0.4,356.88,356.52,0.0,0.07
1526667685.18080688,42271418,-0.49,0.0,-0.09,400.78616333,-0.25,-0.34,311.06,356.46,0.0,0.06
1526667685.28076673,42371378,-1.19,-0.2,-0.32,378.255950928,-0.89,-0.35,311.06,355.6,0.0,0.01
1526667685.38072681,42471338,-1.7,-0.43,-0.67,375.452789307,-1.44,-0.54,311.06,353.94,0.0,0.01
1526667685.48068666,42571298,-2.0,-0.71,-1.08,416.480102539,-1.87,-0.87,311.06,351.63,0.0,0.01
1526667685.58064675,42671258,-2.2,-1.02,-1.5,508.539489746,-2.3,-1.28,311.06,348.88,0.0,0.02
1526667685.68060684,42771218,-2.28,-1.34,-1.86,630.331787109,-2.75,-1.74,311.06,345.79,0.0,0.03
1526667685.78056669,42871178,-2.3,-1.62,-2.15,755.333312988,-3.25,-2.19,311.06,342.48,0.0,0.03
1526667685.88052678,42971138,-2.27,-1.82,-2.34,864.203186035,-3.8,-2.7,311.06,339.05,0.0,0.03
1526667685.98048687,43071098,-2.16,-1.95,-2.42,945.828063965,-4.34,-3.15,311.06,335.48,0.0,0.03
1526667686.08044672,43171058,-1.93,-1.96,-2.39,999.892333984,-4.91,-3.59,311.06,331.74,0.0,0.03
1526667686.18040681,43271018,-1.61,-1.89,-2.26,1029.8248291,-5.45,-4.04,311.06,327.85,0.0,0.03
1526667686.28036690,43370978,-1.24,-1.69,-2.02,1036.82543945,-5.96,-4.52,311.06,323.91,0.0,0.03
1526667686.38032675,43470938,-0.77,-1.38,-1.68,1037.56384277,-6.44,-5.03,311.06,319.96,0.0,0.03
1526667686.48028684,43570898,-0.25,-1.03,-1.26,1025.4564209,-6.88,-5.52,311.06,316.08,0.0,0.03
1526667686.58024669,43670858,0.28,-0.57,-0.77,1003.66259766,-7.29,-5.95,311.06,312.54,0.0,0.02
1526667686.68020678,43770818,0.78,-0.03,-0.24,436.578674316,-7.62,-6.34,311.06,309.7,0.0,0.01
1526667686.78016686,43870778,1.12,0.47,0.28,412.112457275,-7.93,-6.68,311.06,307.75,0.0,0.02
1526667686.88012671,43970738,1.28,0.89,0.76,356.065704346,-8.08,-6.97,311.06,306.65,0.0,0.01
1526667686.98008680,44070698,1.27,1.23,1.14,293.000427246,-8.06,-7.25,311.06,306.32,0.0,0.0
1526667687.08004689,44170658,1.12,1.4,1.37,240.848556519,-8.0,-7.51,311.06,306.57,0.0,0.0
1526667687.18000674,44270618,0.87,1.44,1.43,201.177932739,-7.95,-7.72,311.06,307.26,0.0,0.0
1526667687.28079987,44371411,0.55,1.32,1.33,172.539260864,-7.87,-7.93,311.06,308.27,0.0,0.0
1526667687.38075972,44471371,0.23,1.02,1.09,154.017562866,-7.84,-8.1,311.06,309.33,0.0,0.01
1526667687.48071980,44571331,-0.08,0.63,0.76,150.416259766,-7.88,-8.18,311.06,310.33,0.0,0.02
1526667687.58067989,44671291,-0.33,0.28,0.37,150.078140259,-8.21,-8.23,311.06,311.14,0.0,0.01
1526667687.68063974,44771251,-0.49,-0.01,0.0,140.178634644,-8.66,-8.31,311.06,311.7,0.0,0.01
1526667687.78059983,44871211,-0.59,-0.22,-0.34,133.100814819,-9.19,-8.52,311.06,312.05,0.0,0.01
1526667687.88055968,44971171,-0.62,-0.37,-0.61,150.826477051,-9.73,-8.79,311.06,312.23,0.0,0.0
1526667687.98051977,45071131,-0.57,-0.43,-0.77,204.283706665,-10.28,-9.1,311.06,312.15,0.0,0.0
1526667688.08047986,45171091,-0.48,-0.41,-0.84,299.868286133,-10.82,-9.5,311.06,311.94,0.0,0.0
1526667688.18043971,45271051,-0.42,-0.36,-0.82,407.258544922,-11.36,-9.99,311.06,311.64,0.0,0.0
1526667688.28039980,45371011,-0.36,-0.24,-0.74,526.192565918,-11.68,-10.52,311.06,311.31,0.0,0.0
1526667688.38035989,45470971,-0.28,-0.18,-0.62,627.821655273,-11.77,-10.98,311.06,310.95,0.0,0.0
1526667688.48031974,45570931,-0.2,-0.16,-0.48,675.557922363,-11.77,-11.3,311.06,310.73,0.0,0.0
1526667688.58027983,45670891,-0.11,-0.18,-0.34,674.748535156,-11.78,-11.51,311.06,310.54,0.0,0.0
1526667688.68023968,45770851,-0.06,-0.24,-0.2,647.133850098,-9.35,-11.54,311.06,310.4,0.0,0.0
1526667688.78019977,45870811,-0.03,-0.53,-0.09,646.934143066,-7.53,-10.95,311.06,310.39,0.0,0.01
1526667688.88015985,45970771,0.03,-0.72,0.0,772.45489502,-6.79,-9.88,311.06,310.48,0.0,0.01
1526667688.98011971,46070731,0.11,-0.73,0.05,985.857055664,-6.44,-8.78,311.06,310.7,0.0,0.01
1526667689.08007979,46170691,0.22,-0.62,0.11,1183.48132324,-6.29,-7.91,311.06,310.98,0.0,0.01
1526667689.18003988,46270651,0.31,-0.45,0.18,1319.99755859,-6.28,-7.21,311.06,311.19,0.0,0.01
1526667689.27999973,46370611,0.37,-0.21,0.24,3034.0,-6.53,-6.74,311.06,311.42,0.0,0.0
1526667689.38079286,46471404,0.39,0.04,0.3,2121.17871094,-6.71,-6.47,311.06,311.57,0.0,0.0
1526667689.48075271,46571364,0.42,0.23,0.34,1526.17053223,-6.89,-6.44,311.06,311.68,0.0,0.01
1526667689.58071280,46671324,0.4,0.42,0.38,1152.83166504,-7.04,-6.54,311.06,311.74,0.0,0.01
1526667689.68067288,46771284,0.37,0.57,0.39,952.103515625,-7.39,-6.76,311.06,311.66,0.0,0.01
1526667689.78063273,46871244,0.34,0.66,0.39,876.577575684,-7.57,-7.03,311.06,311.52,0.0,0.0
1526667689.88059282,46971204,0.28,0.66,0.37,866.844116211,-7.82,-7.31,311.06,311.36,0.0,0.0
1526667689.98055267,47071164,0.2,0.58,0.32,854.700805664,-8.03,-7.51,311.06,311.24,0.0,0.0
1526667690.08051276,47171124,0.13,0.49,0.26,821.117248535,-8.12,-7.69,311.06,311.14,0.0,0.0
1526667690.18047285,47271084,0.06,0.42,0.19,788.267822266,-8.36,-7.87,311.06,311.05,0.0,0.0
1526667690.28043270,47371044,-0.02,0.35,0.11,765.72857666,-8.45,-8.07,311.06,311.0,0.0,0.0
1526667690.38039279,47471004,-0.09,0.22,0.03,738.826477051,-8.54,-8.21,311.06,310.96,0.0,0.0
1526667690.48035288,47570964,-0.1,0.1,-0.04,703.812255859,-8.62,-8.37,311.06,310.92,0.0,0.0
1526667690.58031273,47670924,-0.09,-0.01,-0.09,661.763122559,-8.69,-8.51,311.06,310.94,0.0,0.0
1526667690.68027282,47770884,-0.03,-0.13,-0.12,619.273620605,-8.75,-8.6,311.06,310.96,0.0,0.0
1526667690.78023267,47870844,0.02,-0.21,-0.12,582.427490234,-8.78,-8.66,311.06,310.93,0.0,0.0
1526667690.88019276,47970804,0.06,-0.2,-0.09,554.643493652,-8.9,-8.64,311.06,310.91,0.0,0.01
1526667690.98015285,48070764,0.13,-0.06,-0.04,526.199035645,-9.05,-8.66,311.06,310.87,0.0,0.01
1526667691.08011270,48170724,0.22,0.06,0.02,498.780670166,-9.05,-8.77,311.06,310.85,0.0,0.01
1526667691.18007278,48270684,0.25,0.17,0.1,475.219146729,-9.02,-8.9,311.06,310.87,0.0,0.01
1526667691.28003287,48370644,0.21,0.25,0.17,455.729156494,-9.08,-9.07,311.06,310.9,0.0,0.01
1526667691.38082576,48471437,0.18,0.25,0.21,436.342071533,-9.07,-9.21,311.06,310.91,0.0,0.01
1526667691.48078585,48571397,0.2,0.19,0.24,417.641601562,-9.01,-9.26,311.06,310.9,0.0,0.01
1526667691.58074570,48671357,0.2,0.04,0.24,407.875335693,-8.99,-9.23,311.06,310.92,0.0,0.01
1526667691.68070579,48771317,0.21,-0.06,0.24,420.538269043,-8.98,-9.15,311.06,310.99,0.0,0.01
1526667691.78066587,48871277,0.21,-0.06,0.23,441.545135498,-8.96,-9.06,311.06,311.05,0.0,0.01
1526667691.88062572,48971237,0.23,0.0,0.23,688.492553711,-8.9,-8.99,311.06,311.13,0.0,0.01
1526667691.98058581,49071197,0.24,0.04,0.22,560.515258789,-9.01,-8.91,311.06,311.21,0.0,0.01
1526667692.08054566,49171157,0.28,0.07,0.22,470.737365723,-9.0,-8.87,311.06,311.24,0.0,0.01
1526667692.18050575,49271117,0.29,0.08,0.23,412.474182129,-9.1,-8.85,311.06,311.17,0.0,0.01
1526667692.28046584,49371077,0.3,0.12,0.24,374.583435059,-9.16,-8.88,311.06,311.05,0.0,0.01
1526667692.38042569,49471037,0.33,0.19,0.26,330.471313477,-9.17,-8.91,311.06,310.94,0.0,0.01
1526667692.48038578,49570997,0.34,0.28,0.28,285.582855225,-9.2,-8.96,311.06,310.82,0.0,0.01
1526667692.58034587,49670957,0.36,0.3,0.3,250.116622925,-9.26,-9.02,311.06,310.67,0.0,0.0
1526667692.68030572,49770917,0.44,0.3,0.33,222.961608887,-9.24,-9.08,311.06,310.53,0.0,0.0
1526667692.78026581,49870877,0.46,0.35,0.37,202.084655762,-9.22,-9.1,311.06,310.45,0.0,0.01
1526667692.88022590,49970837,0.45,0.43,0.4,183.904098511,-9.26,-9.12,311.06,310.4,0.0,0.01
1526667692.98018575,50070797,0.42,0.46,0.43,169.325622559,-9.29,-9.13,311.06,310.47,0.0,0.01
1526667693.08014584,50170757,0.38,0.47,0.43,156.967224121,-9.27,-9.12,311.06,310.59,0.0,0.01
1526667693.18010569,50270717,0.34,0.44,0.42,145.926467896,-9.19,-9.11,311.06,310.77,0.0,0.01
1526667693.28006577,50370677,0.31,0.42,0.4,136.269073486,-9.21,-9.09,311.06,310.94,0.0,0.01
1526667693.38002586,50470637,0.26,0.44,0.36,129.175033569,-9.31,-9.14,311.06,311.08,0.0,0.01
1526667693.48081875,50571430,0.25,0.48,0.32,129.938827515,-9.37,-9.24,311.06,311.1,0.0,0.01
1526667693.58077884,50671390,0.23,0.48,0.28,139.909210205,-9.31,-9.34,311.06,311.13,0.0,0.01
1526667693.68073869,50771350,0.15,0.43,0.24,151.414932251,-9.32,-9.41,311.06,311.22,0.0,0.0
1526667693.78069878,50871310,0.11,0.3,0.19,153.478942871,-9.24,-9.45,311.06,311.32,0.0,0.0
1526667693.88065886,50971270,0.07,0.22,0.15,149.257339478,-9.2,-9.43,311.06,311.36,0.0,0.0
1526667693.98061872,51071230,0.06,0.14,0.1,144.310791016,-9.26,-9.39,311.06,311.32,0.0,0.0
1526667694.08057880,51171190,0.09,0.0,0.07,138.919830322,-9.4,-9.42,311.06,311.26,0.0,0.0
1526667694.18053889,51271150,0.13,-0.09,0.06,139.594406128,-9.33,-9.4,311.06,311.24,0.0,0.0
1526667694.28049874,51371110,0.17,-0.17,0.07,151.567016602,-9.39,-9.34,311.06,311.31,0.0,0.0
1526667694.38045883,51471070,0.23,-0.13,0.1,170.031524658,-9.37,-9.28,311.06,311.38,0.0,0.01
1526667694.48041868,51571030,0.28,-0.06,0.15,481.904388428,-9.46,-9.3,311.06,311.46,0.0,0.01
1526667694.58037877,51670990,0.34,0.0,0.2,453.865478516,-9.49,-9.34,311.06,311.47,0.0,0.01
1526667694.68033886,51770950,0.4,0.03,0.27,475.935577393,-9.43,-9.38,311.06,311.45,0.0,0.0
1526667694.78029871,51870910,0.44,0.08,0.33,512.921569824,-9.07,-9.41,311.06,311.5,0.0,0.01
1526667694.88025880,51970870,0.5,0.12,0.4,560.655334473,-8.58,-9.38,311.06,311.54,0.0,0.01
1526667694.98021889,52070830,0.55,0.1,0.46,644.152526855,-8.01,-9.21,311.06,311.55,0.0,0.01
1526667695.08017874,52170790,0.61,0.09,0.52,787.704711914,-7.37,-8.89,311.06,311.53,0.0,0.0
1526667695.18013883,52270750,0.67,0.08,0.58,962.852844238,-6.66,-8.43,311.06,311.47,0.0,0.0
1526667695.28009868,52370710,0.72,0.05,0.63,1186.57458496,-5.88,-7.85,311.06,311.37,0.0,0.0
1526667695.38005877,52470670,0.79,0.08,0.68,1424.53125,-5.07,-7.13,311.06,311.28,0.0,0.0
1526667695.48001885,52570630,0.9,0.17,0.74,1618.2442627,-4.21,-6.36,311.06,311.13,0.0,0.0
1526667695.58081174,52671423,1.0,0.34,0.81,1713.41540527,-3.24,-5.56,311.06,310.94,0.0,0.0
1526667695.68077183,52771383,1.05,0.53,0.89,1712.21057129,-2.46,-4.78,311.06,310.78,0.0,0.02
1526667695.78073168,52871343,1.11,0.64,0.96,1671.06054688,-0.96,-3.93,311.06,310.69,0.0,0.03
1526667695.88069177,52971303,1.14,0.67,1.03,1640.80175781,-0.03,-2.9,132.34,310.57,0.0,0.03
1526667695.98065186,53071263,1.11,0.64,1.09,1643.32983398,0.71,-1.94,132.34,310.03,0.0,0.02
1526667696.08061171,53171223,1.04,0.59,1.12,1699.4564209,1.32,-0.98,132.34,308.68,0.0,0.01
1526667696.18057179,53271183,0.9,0.61,1.1,1759.47729492,1.94,-0.07,132.34,306.64,0.0,0.01
1526667696.28053188,53371143,0.63,0.6,1.03,1781.36169434,2.62,0.71,132.34,304.14,0.0,0.0
1526667696.38049173,53471103,0.21,0.54,0.88,1768.30737305,3.31,1.41,132.34,301.24,0.0,0.0
1526667696.48045182,53571063,-0.16,0.37,0.63,1730.1829834,3.4,2.06,132.34,298.05,0.0,0.01
1526667696.58041167,53671023,-0.42,0.2,0.32,1668.19592285,3.09,2.55,132.34,294.66,0.0,0.01
1526667696.68037176,53770983,-0.58,0.05,0.0,1597.76391602,2.6,2.86,132.34,291.09,0.0,0.02
1526667696.78033185,53870943,-0.72,0.03,-0.3,1550.02941895,2.12,3.01,132.34,287.41,0.0,0.02
1526667696.88029170,53970903,-0.96,0.04,-0.57,1581.51000977,1.93,2.93,132.34,283.68,0.0,0.02
1526667696.98025179,54070863,-1.3,0.0,-0.82,1723.30249023,1.83,2.71,132.34,279.96,0.0,0.03
1526667697.08021188,54170823,-1.73,-0.2,-1.1,7755.59277344,1.72,2.4,132.34,276.23,0.0,0.03
1526667697.18017173,54270783,-2.19,-0.54,-1.4,7834.12597656,1.65,2.05,132.34,272.52,0.0,0.02
1526667697.28013182,54370743,-2.63,-0.98,-1.75,7512.39550781,1.65,1.73,132.34,268.81,0.0,0.02
1526667697.38009167,54470703,-3.07,-1.46,-2.14,6976.7578125,1.69,1.5,132.34,265.05,0.0,0.01
1526667697.48005176,54570663,-3.49,-2.02,-2.55,6326.23144531,1.74,1.32,132.34,261.27,0.0,0.01
1526667697.58001184,54670623,-3.89,-2.61,-2.98,5616.95458984,1.81,1.27,132.34,257.49,0.0,0.01
1526667697.68080473,54771416,-4.27,-3.17,-3.4,4945.76269531,1.9,1.3,132.34,253.68,0.0,0.02
1526667697.78076482,54871376,-4.65,-3.69,-3.82,4370.19384766,1.95,1.4,132.34,249.87,0.0,0.01
1526667697.88072467,54971336,-5.04,-4.1,-4.22,3901.10449219,1.92,1.49,132.34,245.99,0.0,0.01
1526667697.98068476,55071296,-5.47,-4.51,-4.61,3525.21411133,1.82,1.54,132.34,242.11,0.0,0.01
1526667698.08064485,55171256,-5.94,-4.94,-5.01,3213.70166016,1.57,1.48,132.34,238.21,0.0,0.01
1526667698.18060470,55271216,-6.31,-5.45,-5.43,2947.82055664,1.26,1.4,132.34,234.28,0.0,0.01
1526667698.28056479,55371176,-6.35,-5.85,-5.8,2723.50463867,0.88,1.32,132.34,230.38,0.0,0.01
1526667698.38052487,55471136,-6.27,-6.06,-6.07,2529.35473633,0.41,1.07,132.34,226.45,0.0,0.02
1526667698.48048472,55571096,-6.19,-6.24,-6.22,2360.84667969,-0.12,0.8,132.34,222.48,0.0,0.02
1526667698.58044481,55671056,-6.09,-6.33,-6.27,2214.23583984,-0.66,0.57,132.34,218.49,0.0,0.02
1526667698.68040466,55771016,-5.98,-6.31,-6.23,2086.52783203,-1.28,0.36,132.34,214.54,0.0,0.02
1526667698.78036475,55870976,-5.85,-6.17,-6.12,1973.38842773,-1.91,0.05,132.34,210.62,0.0,0.02
1526667698.88032484,55970936,-5.68,-5.93,-5.96,1869.8092041,-2.56,-0.4,132.34,206.55,0.0,0.03
1526667698.98028469,56070896,-5.5,-5.61,-5.78,1781.52294922,-3.2,-0.96,132.34,202.51,0.0,0.03
1526667699.08024478,56170856,-5.32,-5.28,-5.57,1725.5904541,-3.82,-1.63,132.34,198.5,0.0,0.03
1526667699.18020487,56270816,-5.15,-5.0,-5.37,1702.22814941,-4.43,-2.35,132.34,194.47,0.0,0.03
1526667699.28016472,56370776,-5.0,-4.77,-5.18,1697.80419922,-4.98,-3.08,132.34,190.38,0.0,0.04
1526667699.38012481,56470736,-4.83,-4.61,-5.0,1696.06298828,-5.49,-3.81,132.34,186.26,0.0,0.04
1526667699.48008490,56570696,-4.76,-4.48,-4.85,1690.69494629,-6.04,-4.53,132.34,182.16,0.0,0.04
1526667699.58004475,56670656,-4.81,-4.39,-4.74,1672.99279785,-6.67,-5.22,132.34,178.13,0.0,0.04
1526667699.68000484,56770616,-4.83,-4.32,-4.69,1337.8157959,-7.31,-5.92,132.34,174.16,0.0,0.04
1526667699.78079772,56871409,-4.76,-4.27,-4.68,1451.27563477,-8.0,-6.66,132.34,170.13,0.0,0.04
1526667699.88075781,56971369,-4.6,-4.22,-4.68,1629.06079102,-8.73,-7.42,132.34,166.1,0.0,0.02
1526667699.98071790,57071329,-4.33,-4.18,-4.65,1772.0111084,-9.42,-8.13,132.34,162.07,0.0,0.02
1526667700.08067775,57171289,-3.94,-4.09,-4.55,1884.17346191,-10.05,-8.78,132.34,158.05,0.0,0.02
1526667700.18063784,57271249,-3.43,-3.96,-4.36,1889.62756348,-10.64,-9.41,132.34,154.11,0.0,0.02
1526667700.28059769,57371209,-2.79,-3.74,-4.04,1805.25256348,-11.17,-9.94,132.34,150.18,0.0,0.02
1526667700.38055778,57471169,-2.06,-3.42,-3.59,1653.3157959,-11.69,-10.38,132.34,146.3,0.0,0.02
1526667700.48051786,57571129,-1.21,-2.98,-3.0,1480.98596191,-12.12,-10.75,132.34,142.38,0.0,0.02
1526667700.58047771,57671089,-0.26,-2.28,-2.28,1333.00634766,-12.49,-11.07,132.34,138.44,0.0,0.02
1526667700.68043780,57771049,0.69,-1.3,-1.44,1217.30004883,-12.78,-11.36,132.34,134.74,0.0,0.03
1526667700.78039789,57871009,1.55,-0.16,-0.52,1175.32739258,-13.04,-11.58,132.34,131.59,0.0,0.02
1526667700.88035774,57970969,2.22,0.96,0.4,1249.33618164,-13.29,-11.81,132.34,129.14,0.0,0.02
1526667700.98031783,58070929,2.64,2.01,1.27,1459.01586914,-13.43,-12.09,132.34,127.39,0.0,0.01
1526667701.08027768,58170889,2.76,2.85,1.99,1791.36462402,-13.41,-12.38,132.34,126.49,0.0,0.01
1526667701.18023777,58270849,2.61,3.35,2.49,2141.37207031,-13.37,-12.68,132.34,126.29,0.0,0.02
1526667701.28019786,58370809,2.24,3.55,2.72,2429.93164062,-13.32,-12.95,132.34,126.64,0.0,0.03
1526667701.38015771,58470769,1.74,3.44,2.68,2646.34814453,-13.26,-13.15,132.34,127.37,0.0,0.05
1526667701.48011780,58570729,1.13,3.07,2.37,2783.02001953,-13.18,-13.3,132.34,128.39,0.0,0.05
1526667701.58007789,58670689,0.49,2.49,1.85,2860.91552734,-13.09,-13.44,132.34,129.59,0.0,0.06
1526667701.68003774,58770649,-0.09,1.79,1.19,2903.65722656,-13.0,-13.53,132.34,130.75,0.0,0.06
1526667701.78083086,58871442,-0.57,1.04,0.47,2922.11328125,-12.89,-13.6,132.34,131.67,0.0,0.06
1526667701.88079071,58971402,-0.92,0.28,-0.22,2922.0065918,-12.83,-13.61,132.34,132.46,0.0,0.04
1526667701.98075080,59071362,-1.1,-0.39,-0.84,2897.82836914,-12.79,-13.51,132.34,133.04,0.0,0.04
1526667702.08071089,59171322,-1.14,-1.02,-1.3,2836.76318359,-12.78,-13.4,132.34,133.38,0.0,0.03
1526667702.18067074,59271282,-1.06,-1.38,-1.59,2751.17211914,-12.83,-13.25,132.34,133.47,0.0,0.02
1526667702.28063083,59371242,-0.89,-1.61,-1.7,276.879852295,-10.76,-12.98,132.34,133.45,0.0,0.02
1526667702.38059068,59471202,-0.64,-1.79,-1.63,173.072769165,-9.5,-12.24,132.34,133.29,0.0,0.0
1526667702.48055077,59571162,-0.34,-1.72,-1.41,306.248901367,-9.01,-11.26,132.34,133.05,0.0,0.0
1526667702.58051085,59671122,-0.04,-1.49,-1.09,546.090698242,-8.81,-10.32,132.34,132.83,0.0,0.01
1526667702.68047071,59771082,0.2,-1.11,-0.7,773.039855957,-8.9,-9.52,132.34,132.62,0.0,0.01
1526667702.78043079,59871042,0.41,-0.61,-0.31,855.097290039,-9.2,-9.02,132.34,132.37,0.0,0.0
1526667702.88039088,59971002,0.56,-0.13,0.05,818.29473877,-9.55,-8.81,132.34,132.1,0.0,0.0
1526667702.98035073,60070962,0.66,0.31,0.36,739.325317383,-9.91,-8.89,132.34,131.85,0.0,0.0
1526667703.08031082,60170922,0.7,0.72,0.59,662.412231445,-10.3,-9.13,132.34,131.71,0.0,0.0
1526667703.18027067,60270882,0.63,0.99,0.74,633.019592285,-10.75,-9.52,132.34,131.71,0.0,0.01
1526667703.28023076,60370842,0.48,1.12,0.78,658.235961914,-11.23,-10.01,132.34,131.8,0.0,0.02
1526667703.38019085,60470802,0.31,1.09,0.72,709.960693359,-11.66,-10.51,132.34,131.87,0.0,0.02
1526667703.48015070,60570762,0.13,0.98,0.58,763.877807617,-12.09,-10.96,132.34,131.91,0.0,0.04
1526667703.58011079,60670722,-0.03,0.8,0.39,826.71307373,-12.38,-11.41,132.34,131.92,0.0,0.04
1526667703.68007088,60770682,-0.15,0.58,0.18,880.00769043,-12.62,-11.77,132.34,131.89,0.0,0.03
1526667703.78003073,60870642,-0.26,0.38,-0.03,925.637084961,-12.9,-12.09,132.34,131.93,0.0,0.03
1526667703.88082385,60971435,-0.34,0.21,-0.22,976.126831055,-13.17,-12.4,132.34,131.97,0.0,0.03
1526667703.98078370,61071395,-0.4,0.08,-0.37,1031.93737793,-13.28,-12.65,132.34,131.99,0.0,0.01
1526667704.08074379,61171355,-0.41,0.0,-0.49,1094.11108398,-13.44,-12.87,132.34,132.01,0.0,0.01
1526667704.18070388,61271315,-0.43,-0.07,-0.56,1162.63720703,-13.53,-13.08,132.34,132.01,0.0,0.01
1526667704.28066373,61371275,-0.44,-0.14,-0.59,1212.93725586,-13.66,-13.26,132.34,131.98,0.0,0.01
1526667704.38062382,61471235,-0.43,-0.19,-0.59,1238.5078125,-13.66,-13.4,132.34,131.87,0.0,0.01
1526667704.48058367,61571195,-0.36,-0.17,-0.56,1253.24389648,-13.63,-13.5,132.34,131.72,0.0,0.0
1526667704.58054376,61671155,-0.28,-0.16,-0.5,1260.01000977,-13.59,-13.61,132.34,131.59,0.0,0.0
1526667704.68050385,61771115,-0.19,-0.14,-0.42,1250.50769043,-13.61,-13.69,132.34,131.48,0.0,0.0
1526667704.78046370,61871075,-0.15,-0.19,-0.33,1223.05932617,-13.52,-13.75,132.34,131.45,0.0,0.01
1526667704.88042378,61971035,-0.1,-0.21,-0.24,100.421722412,-13.45,-13.77,132.34,131.42,0.0,0.0
1526667704.98038387,62070995,-0.07,-0.24,-0.16,57.0033950806,-13.37,-13.77,132.34,131.46,0.0,0.0
1526667705.08034372,62170955,-0.02,-0.27,-0.1,95.7042312622,-13.23,-13.71,132.34,131.58,0.0,0.0
1526667705.18030381,62270915,0.01,-0.27,-0.04,169.915252686,-13.12,-13.61,132.34,131.69,0.0,0.0
1526667705.28026366,62370875,0.06,-0.28,0.0,260.050537109,-13.07,-13.47,132.34,131.84,0.0,0.0
1526667705.38022375,62470835,0.08,-0.29,0.03,378.03692627,-13.02,-13.32,132.34,132.09,0.0,0.0
1526667705.48018384,62570795,0.09,-0.29,0.06,487.24697876,-12.95,-13.25,132.34,132.29,0.0,0.0
1526667705.58014369,62670755,0.07,-0.26,0.07,578.219665527,-12.94,-13.15,132.34,132.45,0.0,0.01
1526667705.68010378,62770715,0.08,-0.18,0.07,619.893127441,-12.9,-13.04,132.34,132.59,0.0,0.01
1526667705.78006387,62870675,0.08,-0.04,0.07,593.853027344,-12.91,-13.01,132.34,132.64,0.0,0.01
1526667705.88002372,62970635,0.08,0.05,0.07,544.304321289,-12.92,-13.06,132.34,132.64,0.0,0.01
1526667705.98081684,63071428,0.08,0.03,0.06,499.341583252,-12.84,-13.09,132.34,132.55,0.0,0.02
1526667706.08077669,63171388,0.09,0.02,0.05,461.965545654,-12.8,-13.02,132.34,132.5,0.0,0.0
1526667706.18073678,63271348,0.12,0.07,0.05,429.224334717,-12.84,-13.01,132.34,132.39,0.0,0.0
1526667706.28069687,63371308,0.14,0.13,0.06,401.675018311,-12.87,-13.05,132.34,132.27,0.0,0.0
1526667706.38065672,63471268,0.17,0.15,0.07,380.306182861,-12.91,-13.08,132.34,132.13,0.0,0.0
1526667706.48061681,63571228,0.22,0.2,0.1,361.414276123,-12.84,-13.07,132.34,132.02,0.0,0.0
1526667706.58057690,63671188,0.25,0.24,0.13,347.226409912,-12.88,-13.05,132.34,131.84,0.0,0.0
1526667706.68053675,63771148,0.28,0.23,0.17,332.544464111,-12.94,-13.02,132.34,131.65,0.0,0.0
1526667706.78049684,63871108,0.29,0.24,0.21,316.874481201,-12.89,-12.99,132.34,131.5,0.0,0.0
1526667706.88045669,63971068,0.28,0.27,0.24,302.175354004,-12.87,-12.95,132.34,131.42,0.0,0.0
1526667706.98041677,64071028,0.27,0.3,0.26,288.831878662,-12.92,-12.84,132.34,131.43,0.0,0.0
1526667707.08037686,64170988,0.28,0.3,0.27,276.739685059,-12.96,-12.77,132.34,131.44,0.0,0.0
1526667707.18033671,64270948,0.25,0.31,0.27,265.492828369,-12.97,-12.78,132.34,131.51,0.0,0.0
1526667707.28029680,64370908,0.21,0.33,0.26,255.686355591,-13.04,-12.79,132.34,131.62,0.0,0.0
1526667707.38025689,64470868,0.18,0.38,0.24,249.894714355,-13.14,-12.85,132.34,131.68,0.0,0.0
1526667707.48021674,64570828,0.13,0.44,0.21,384.029541016,-13.11,-12.88,132.34,131.7,0.0,0.0
1526667707.58017683,64670788,0.07,0.46,0.16,533.031738281,-13.09,-12.94,132.34,131.77,0.0,0.01
1526667707.68013668,64770748,-0.01,0.47,0.11,686.993103027,-13.15,-13.05,132.34,131.92,0.0,0.01
1526667707.78009677,64870708,-0.12,0.41,0.05,840.688476562,-13.21,-13.17,132.34,132.09,0.0,0.02
1526667707.88005686,64970668,-0.22,0.32,-0.02,924.95880127,-13.26,-13.27,132.34,132.23,0.0,0.02
1526667707.98001671,65070628,-0.32,0.16,-0.12,942.356872559,-13.28,-13.35,132.34,132.39,0.0,0.02
1526667708.08080983,65171421,-0.39,-0.02,-0.21,887.557861328,-13.27,-13.45,132.34,132.54,0.0,0.02
1526667708.18076968,65271381,-0.43,-0.2,-0.3,806.202270508,-13.27,-13.49,132.34,132.72,0.0,0.0
1526667708.28072977,65371341,-0.46,-0.31,-0.38,725.266479492,-13.31,-13.44,132.34,132.91,0.0,0.0
1526667708.38068986,65471301,-0.45,-0.42,-0.44,655.544006348,-13.25,-13.34,132.34,133.01,0.0,0.0
1526667708.48064971,65571261,-0.4,-0.49,-0.47,596.112060547,-13.23,-13.23,132.34,133.04,0.0,0.0
1526667708.58060980,65671221,-0.25,-0.93,-0.46,593.954040527,-10.37,-13.26,321.26,132.78,0.0,0.0
1526667708.68056989,65771181,0.04,-1.73,-0.39,1217.87231445,-7.73,-12.6,321.26,131.76,0.0,0.0
1526667708.78052974,65871141,0.48,-2.26,-0.23,3278.21386719,-6.37,-11.09,321.26,129.98,0.0,0.03
1526667708.88048983,65971101,1.11,-2.28,0.04,6339.95507812,-5.51,-9.32,321.26,127.61,0.0,0.06
1526667708.98044968,66071061,1.81,-1.77,0.46,9242.84570312,-4.9,-7.6,321.26,124.86,0.0,0.07
1526667709.08040977,66171021,2.54,-0.97,1.01,11345.6035156,-4.49,-6.14,321.26,121.87,0.0,0.08
1526667709.18036985,66270981,3.2,0.08,1.66,12495.2070312,-4.19,-4.97,321.26,118.64,0.0,0.08
1526667709.28032970,66370941,3.81,1.19,2.36,12846.1513672,-3.95,-4.13,321.26,115.23,0.0,0.08
1526667709.38028979,66470901,4.3,2.33,3.07,12671.8828125,-3.75,-3.57,321.26,111.68,0.0,0.08
1526667709.48024988,66570861,4.64,3.33,3.73,12223.3867188,-3.55,-3.3,321.26,108.0,0.0,0.07
1526667709.58020973,66670821,4.86,4.11,4.29,11706.0205078,-3.34,-3.17,321.26,104.29,0.0,0.06
1526667709.68016982,66770781,4.95,4.65,4.71,11203.859375,-3.09,-3.05,321.26,100.47,0.0,0.07
1526667709.78012967,66870741,4.95,5.03,4.99,10737.4277344,-2.78,-2.99,321.26,96.62,0.0,0.07
1526667709.88008976,66970701,4.82,5.24,5.11,10310.5419922,-2.41,-2.95,321.26,92.75,0.0,0.07
1526667709.98004985,67070661,4.57,5.29,5.09,9923.63378906,-1.98,-2.88,321.26,88.86,0.0,0.07
1526667710.08000970,67170621,4.24,5.14,4.93,397.150024414,-1.5,-2.77,321.26,84.92,0.0,0.08
1526667710.18080282,67271414,3.81,4.81,4.65,356.835083008,-0.96,-2.52,321.26,81.0,0.0,0.09
1526667710.28076267,67371374,3.39,4.42,4.26,314.796417236,-0.42,-2.2,321.26,77.16,0.0,0.06
1526667710.38072276,67471334,2.84,3.95,3.81,293.371612549,0.13,-1.78,321.26,73.29,0.0,0.06
1526667710.48068285,67571294,2.18,3.38,3.28,261.97756958,0.66,-1.33,321.26,69.36,0.0,0.06
1526667710.58064270,67671254,1.41,2.78,2.68,229.90171814,1.15,-0.83,321.26,65.39,0.0,0.07
1526667710.68060279,67771214,0.53,2.11,2.01,210.121795654,1.56,-0.36,321.26,61.35,0.0,0.07
1526667710.78056288,67871174,-0.51,1.36,1.24,196.484771729,1.85,0.07,321.26,57.4,0.0,0.07
1526667710.88052273,67971134,-1.79,0.49,0.36,188.627761841,1.95,0.43,321.26,53.34,0.0,0.07
1526667710.98048282,68071094,-2.92,-0.45,-0.65,195.490600586,1.79,0.72,321.26,49.29,0.0,0.07
1526667711.08044267,68171054,-3.26,-1.39,-1.67,235.699188232,1.49,0.91,321.26,45.24,0.0,0.07
1526667711.18040276,68271014,-3.23,-2.14,-2.53,311.143096924,1.16,1.04,321.26,41.27,0.0,0.07
1526667711.28036284,68370974,-2.97,-2.67,-3.1,421.928619385,0.83,1.1,321.26,37.29,0.0,0.07
1526667711.38032269,68470934,-2.58,-2.94,-3.35,529.55645752,0.5,1.13,321.26,33.33,0.0,0.06
1526667711.48028278,68570894,-2.11,-2.99,-3.29,587.313537598,0.21,1.19,321.26,29.4,0.0,0.06
1526667711.58024287,68670854,-1.81,-2.75,-2.99,596.377502441,-0.11,1.21,321.26,25.38,0.0,0.05
1526667711.68020272,68770814,-1.7,-2.42,-2.55,582.834472656,-0.61,1.09,321.26,21.28,0.0,0.05
1526667711.78016281,68870774,-1.67,-1.99,-2.1,558.383544922,-1.19,0.83,321.26,17.16,0.0,0.11
1526667711.88012266,68970734,-1.68,-1.55,-1.72,540.622192383,-1.82,0.34,321.26,13.06,0.0,0.12
1526667711.98008275,69070694,-1.72,-1.22,-1.43,532.614013672,-2.42,-0.33,321.26,8.95,0.0,0.12
1526667712.08004284,69170654,-1.78,-1.05,-1.26,531.535766602,-2.98,-1.07,321.26,4.88,0.0,0.12
1526667712.18000269,69270614,-1.89,-0.99,-1.22,529.478149414,-3.48,-1.85,321.26,0.9,0.0,0.12
1526667712.28079581,69371407,-2.06,-1.02,-1.28,534.54876709,-3.89,-2.65,321.26,356.92,0.0,0.13
1526667712.38075566,69471367,-2.18,-1.2,-1.43,540.659301758,-4.3,-3.37,321.26,352.92,0.0,0.06
1526667712.48071575,69571327,-2.26,-1.44,-1.63,538.365112305,-4.73,-3.99,321.26,348.91,0.0,0.05
1526667712.58067584,69671287,-2.26,-1.68,-1.83,530.164794922,-5.18,-4.55,321.26,344.88,0.0,0.05
1526667712.68063569,69771247,-2.13,-1.87,-2.0,222.965057373,-5.57,-5.03,321.26,340.82,0.0,0.05
1526667712.78059578,69871207,-1.78,-1.97,-2.07,184.958892822,-5.72,-5.39,321.26,336.7,0.0,0.05
1526667712.88055587,69971167,-1.35,-1.96,-2.01,153.564727783,-5.76,-5.63,321.26,332.59,0.0,0.05
1526667712.98051572,70071127,-0.86,-1.88,-1.8,118.914123535,-5.8,-5.74,321.26,328.48,0.0,0.05
1526667713.08047581,70171087,-0.25,-1.59,-1.45,119.161758423,-5.86,-5.7,321.26,324.54,0.0,0.04
1526667713.18043590,70271047,0.29,-1.14,-0.97,141.535293579,-5.91,-5.59,321.26,321.16,0.0,0.03
1526667713.28039575,70371007,0.7,-0.5,-0.43,142.049530029,-5.96,-5.43,321.26,318.53,0.0,0.01
1526667713.38035583,70470967,0.99,0.13,0.12,125.367004395,-6.06,-5.36,321.26,316.69,0.0,0.0
1526667713.48031569,70570927,1.16,0.71,0.62,114.256782532,-6.2,-5.39,321.26,315.68,0.0,0.0
1526667713.58027577,70670887,1.15,1.17,1.01,118.553123474,-6.39,-5.56,321.26,315.51,0.0,0.0
1526667713.68023586,70770847,0.99,1.47,1.25,142.502410889,-6.62,-5.83,321.26,316.05,0.0,0.01
1526667713.78019571,70870807,0.73,1.53,1.32,167.896865845,-6.85,-6.19,321.26,317.03,0.0,0.01
1526667713.88015580,70970767,0.39,1.38,1.22,179.36958313,-7.08,-6.54,321.26,318.19,0.0,0.03
1526667713.98011589,71070727,0.02,1.12,0.98,181.70526123,-7.28,-6.84,321.26,319.3,0.0,0.03
1526667714.08007574,71170687,-0.33,0.73,0.62,180.032928467,-7.48,-7.09,321.26,320.34,0.0,0.04
1526667714.18003583,71270647,-0.6,0.31,0.2,174.2862854,-7.66,-7.28,321.26,321.07,0.0,0.04
1526667714.28082871,71371440,-0.79,-0.01,-0.21,178.50642395,-7.82,-7.49,321.26,321.53,0.0,0.04
1526667714.38078880,71471400,-0.93,-0.33,-0.59,198.574264526,-8.21,-7.7,321.26,321.9,0.0,0.0
1526667714.48074889,71571360,-0.99,-0.56,-0.89,232.558822632,-8.71,-7.92,321.26,322.06,0.0,0.0
1526667714.58070874,71671320,-1.0,-0.71,-1.11,290.24432373,-9.25,-8.22,321.26,322.0,0.0,0.0
1526667714.68066883,71771280,-0.9,-0.8,-1.22,356.764801025,-9.83,-8.57,321.26,321.87,0.0,0.0
1526667714.78062868,71871240,-0.8,-0.82,-1.22,416.711578369,-10.41,-8.95,321.26,321.67,0.0,0.0
1526667714.88058877,71971200,-0.73,-0.74,-1.15,471.287994385,-10.99,-9.37,321.26,321.54,0.0,0.0
1526667714.98054886,72071160,-0.65,-0.62,-1.03,527.023498535,-11.54,-9.89,321.26,321.44,0.0,0.0
1526667715.08050871,72171120,-0.57,-0.58,-0.88,560.18157959,-12.05,-10.45,321.26,321.41,0.0,0.0
1526667715.18046880,72271080,-0.5,-0.55,-0.73,561.991394043,-12.52,-11.01,321.26,321.41,0.0,0.0
1526667715.28042889,72371040,-0.42,-0.48,-0.58,224.855056763,-12.98,-11.54,321.26,321.33,0.0,0.0
1526667715.38038874,72471000,-0.37,-0.42,-0.46,142.095352173,-13.42,-12.08,321.26,321.25,0.0,0.0
1526667715.48034883,72570960,-0.31,-0.38,-0.36,96.5485839844,-13.84,-12.57,321.26,321.1,0.0,0.0
1526667715.58030868,72670920,-0.25,-0.33,-0.28,76.003616333,-14.23,-13.02,321.26,320.93,0.0,0.0
1526667715.68026876,72770880,-0.19,-0.25,-0.22,65.0086135864,-14.58,-13.39,321.26,320.81,0.0,0.0
1526667715.78022885,72870840,-0.15,-0.16,-0.17,54.4819297791,-14.93,-13.8,321.26,320.72,0.0,0.0
1526667715.88018870,72970800,-0.15,-0.11,-0.14,47.1306152344,-15.09,-14.2,321.26,320.72,0.0,0.0
1526667715.98014879,73070760,-0.21,-0.06,-0.13,44.1740646362,-15.14,-14.58,321.26,320.79,0.0,0.03
1526667716.08010888,73170720,-0.24,-0.03,-0.14,49.8218803406,-15.16,-14.94,321.26,320.88,0.0,0.03
1526667716.18006873,73270680,-0.3,-0.07,-0.18,59.6342468262,-15.14,-15.22,321.26,320.98,0.0,0.03
1526667716.28002882,73370640,-0.32,-0.15,-0.22,61.4294090271,-15.12,-15.4,321.26,320.98,0.0,0.03
1526667716.38082170,73471433,-0.32,-0.22,-0.27,59.7346382141,-15.07,-15.5,321.26,320.85,0.0,0.03
1526667716.48078179,73571393,-0.27,-0.29,-0.31,56.326675415,-15.07,-15.55,321.26,320.72,0.0,0.0
1526667716.58074188,73671353,-0.21,-0.38,-0.33,52.7914772034,-15.07,-15.51,321.26,320.57,0.0,0.0
1526667716.68070173,73771313,-0.16,-0.43,-0.31,54.0807800293,-15.1,-15.4,321.26,320.52,0.0,0.0
1526667716.78066182,73871273,-0.2,-0.5,-0.29,65.1099395752,-12.65,-15.17,321.26,320.55,0.0,0.0
1526667716.88062167,73971233,-0.19,-0.72,-0.26,128.816665649,-10.81,-14.43,321.26,320.6,0.0,0.0
1526667716.98058176,74071193,-0.13,-0.89,-0.23,300.244842529,-10.02,-13.28,321.26,320.67,0.0,0.01
1526667717.08054185,74171153,-0.04,-0.89,-0.19,531.124633789,-9.77,-12.08,321.26,320.76,0.0,0.02
1526667717.18050170,74271113,0.04,-0.74,-0.14,717.631408691,-9.8,-11.09,321.26,320.87,0.0,0.02
1526667717.28046179,74371073,0.13,-0.49,-0.07,811.941101074,-10.1,-10.41,321.26,320.99,0.0,0.02
1526667717.38042188,74471033,0.2,-0.14,0.0,813.780639648,-10.45,-10.09,321.26,321.15,0.0,0.02
1526667717.48038173,74570993,0.21,0.14,0.08,780.327514648,-10.82,-10.1,321.26,321.27,0.0,0.01
1526667717.58034182,74670953,0.16,0.27,0.14,751.576782227,-11.29,-10.27,321.26,321.42,0.0,0.0
1526667717.68030167,74770913,0.1,0.36,0.17,731.383117676,-11.56,-10.55,321.26,321.5,0.0,0.0
1526667717.78026175,74870873,0.02,0.44,0.16,724.939147949,-11.97,-10.91,321.26,321.54,0.0,0.0
1526667717.88022184,74970833,-0.03,0.43,0.12,856.64453125,-12.25,-11.33,321.26,321.56,0.0,0.0
1526667717.98018169,75070793,-0.06,0.37,0.07,890.664550781,-12.6,-11.68,321.26,321.49,0.0,0.0
1526667718.08014178,75170753,-0.11,0.32,0.0,917.049743652,-12.78,-12.07,321.26,321.4,0.0,0.03
1526667718.18010187,75270713,-0.17,0.3,-0.06,972.11706543,-13.1,-12.45,321.26,321.26,0.0,0.04
1526667718.28006172,75370673,-0.22,0.25,-0.12,1061.88879395,-13.51,-12.8,321.26,321.17,0.0,0.04
1526667718.38002181,75470633,-0.27,0.2,-0.19,1139.83251953,-13.81,-13.14,321.26,321.14,0.0,0.03
1526667718.48081470,75571426,-0.3,0.13,-0.25,1196.27160645,-13.68,-13.39,321.26,321.13,0.0,0.03
1526667718.58077478,75671386,-0.32,0.05,-0.3,1216.47338867,-13.71,-13.58,321.26,321.08,0.0,0.0
1526667718.68073487,75771346,-0.32,0.0,-0.33,1208.68933105,-13.98,-13.73,321.26,321.03,0.0,0.0
1526667718.78069472,75871306,-0.3,-0.02,-0.35,1197.37268066,-14.04,-13.92,321.26,320.94,0.0,0.0
1526667718.88065481,75971266,-0.27,-0.04,-0.35,1185.37915039,-13.95,-14.11,321.26,320.84,0.0,0.0
1526667718.98061466,76071226,-0.25,-0.12,-0.33,1147.20874023,-13.87,-14.2,321.26,320.74,0.0,0.0
1526667719.08057475,76171186,-0.21,-0.22,-0.31,1078.12194824,-13.81,-14.2,321.26,320.75,0.0,0.0
1526667719.18053484,76271146,-0.19,-0.34,-0.27,1002.59350586,-13.73,-14.14,321.26,320.88,0.0,0.0
1526667719.28049469,76371106,-0.18,-0.46,-0.23,949.640014648,-13.87,-14.02,321.26,321.04,0.0,0.0
1526667719.38045478,76471066,-0.17,-0.56,-0.2,948.10949707,-13.83,-13.9,321.26,321.21,0.0,0.0
1526667719.48041487,76571026,-0.15,-0.61,-0.17,987.112426758,-13.77,-13.82,321.26,321.36,0.0,0.0
1526667719.58037472,76670986,-0.13,-0.57,-0.15,1034.9251709,-13.71,-13.67,321.26,321.48,0.0,0.0
1526667719.68033481,76770946,-0.07,-0.49,-0.13,1060.5291748,-13.83,-13.57,321.26,321.56,0.0,0.01
1526667719.78029490,76870906,-0.01,-0.33,-0.1,1053.77636719,-14.08,-13.55,321.26,321.5,0.0,0.0
1526667719.88025475,76970866,0.07,-0.14,-0.06,1015.20031738,-13.9,-13.59,321.26,321.37,0.0,0.0
1526667719.98021483,77070826,0.12,0.0,-0.01,969.721008301,-13.78,-13.64,321.26,321.23,0.0,0.0
1526667720.08017468,77170786,0.21,0.1,0.04,927.967468262,-14.07,-13.68,321.26,321.03,0.0,0.02
1526667720.18013477,77270746,0.28,0.26,0.11,893.756652832,-14.3,-13.76,321.26,320.88,0.0,0.02
1526667720.28009486,77370706,0.32,0.42,0.18,873.677368164,-14.35,-13.94,321.26,320.81,0.0,0.02
1526667720.38005471,77470666,0.29,0.51,0.24,864.59979248,-14.19,-14.06,321.26,320.85,0.0,0.02
1526667720.48001480,77570626,0.24,0.5,0.28,577.144775391,-14.2,-14.13,321.26,320.95,0.0,0.02
1526667720.58080769,77671419,0.14,0.43,0.28,451.06918335,-14.13,-14.2,321.26,321.12,0.0,0.02
1526667720.68076777,77771379,0.06,0.31,0.24,338.838378906,-14.19,-14.24,321.26,321.3,0.0,0.0
1526667720.78072786,77871339,0.01,0.2,0.18,256.809143066,-14.09,-14.22,321.26,321.39,0.0,0.0
1526667720.88068771,77971299,0.01,0.15,0.11,206.634643555,-14.11,-14.19,321.26,321.37,0.0,0.0
1526667720.98064780,78071259,0.02,0.1,0.05,174.874771118,-14.32,-14.15,321.26,321.35,0.0,0.0
1526667721.08060789,78171219,0.01,0.08,0.0,155.251586914,-14.18,-14.15,321.26,321.38,0.0,0.0
1526667721.18056774,78271179,0.01,0.06,-0.02,143.895492554,-14.25,-14.18,321.26,321.38,0.0,0.0
1526667721.28052783,78371139,0.03,0.05,-0.03,136.826385498,-14.21,-14.23,321.26,321.37,0.0,0.0
1526667721.38048768,78471099,0.03,0.02,-0.03,128.426879883,-14.33,-14.21,321.26,321.37,0.0,0.0
1526667721.48044777,78571059,0.03,-0.02,-0.02,117.682250977,-14.43,-14.19,321.26,321.33,0.0,0.0
1526667721.58040786,78671019,0.07,-0.04,-0.01,108.273391724,-14.48,-14.21,321.26,321.24,0.0,0.0
1526667721.68036771,78770979,0.13,-0.01,0.01,100.856781006,-14.49,-14.25,321.26,321.06,0.0,0.0
1526667721.78032780,78870939,0.19,0.03,0.06,94.1566848755,-14.47,-14.31,321.26,320.89,0.0,0.0
1526667721.88028789,78970899,0.24,0.05,0.11,89.8581314087,-14.56,-14.39,321.26,320.77,0.0,0.0
1526667721.98024774,79070859,0.29,0.12,0.16,86.3736572266,-14.8,-14.42,321.26,320.7,0.0,0.0
1526667722.08020782,79170819,0.3,0.21,0.22,82.0237960815,-14.52,-14.45,321.26,320.72,0.0,0.0
1526667722.18016768,79270779,0.3,0.31,0.27,77.6329727173,-14.55,-14.49,321.26,320.74,0.0,0.02
1526667722.28012776,79370739,0.32,0.41,0.3,77.2061157227,-14.38,-14.56,321.26,320.74,0.0,0.02
1526667722.38008785,79470699,0.3,0.44,0.32,80.4465560913,-14.43,-14.69,321.26,320.78,0.0,0.02
1526667722.48004770,79570659,0.26,0.34,0.32,78.9966430664,-14.53,-14.78,321.26,320.87,0.0,0.02
1526667722.58000779,79670619,0.23,0.23,0.31,76.5415802002,-14.43,-14.83,321.26,320.91,0.0,0.03
1526667722.68080068,79771412,0.22,0.11,0.28,81.3039398193,-14.36,-14.75,321.26,320.96,0.0,0.02
1526667722.78076077,79871372,0.22,0.05,0.25,93.6785354614,-14.42,-14.61,321.26,321.09,0.0,0.01
1526667722.88072085,79971332,0.23,0.01,0.23,108.989143372,-14.34,-14.5,321.26,321.17,0.0,0.01
1526667722.98068070,80071292,0.28,0.01,0.22,123.633522034,-14.4,-14.46,321.26,321.15,0.0,0.0
1526667723.08064079,80171252,0.33,0.03,0.22,412.504882812,-14.5,-14.44,321.26,321.18,0.0,0.0
1526667723.18060088,80271212,0.37,0.13,0.25,337.826599121,-14.57,-14.41,321.26,321.25,0.0,0.01
1526667723.28056073,80371172,0.39,0.24,0.28,248.596115112,-14.41,-14.37,321.26,321.34,0.0,0.01
1526667723.38052082,80471132,0.41,0.32,0.32,188.578063965,-14.24,-14.38,321.26,321.38,0.0,0.01
1526667723.48048067,80571092,0.4,0.39,0.35,151.182891846,-14.32,-14.45,321.26,321.41,0.0,0.01
1526667723.58044076,80671052,0.37,0.41,0.38,128.594924927,-14.36,-14.58,321.26,321.46,0.0,0.0
1526667723.68040085,80771012,0.35,0.3,0.39,113.602607727,-14.45,-14.67,321.26,321.52,0.0,0.0
1526667723.78036070,80870972,0.35,0.18,0.39,131.983551025,-14.3,-14.68,321.26,321.54,0.0,0.0
1526667723.88032079,80970932,0.37,0.08,0.38,196.492950439,-14.26,-14.63,321.26,321.52,0.0,0.0
1526667723.98028088,81070892,0.4,0.07,0.37,270.939575195,-14.5,-14.52,321.26,321.5,0.0,0.0
1526667724.08024073,81170852,0.44,0.11,0.38,325.953765869,-14.55,-14.4,321.26,321.47,0.0,0.01
1526667724.18020082,81270812,0.49,0.16,0.4,353.787078857,-14.51,-14.33,321.26,321.41,0.0,0.01
1526667724.28016067,81370772,0.5,0.26,0.42,358.738525391,-14.75,-14.3,321.26,321.33,0.0,0.02
1526667724.38012075,81470732,0.54,0.43,0.45,340.848052979,-14.69,-14.32,321.26,321.21,0.0,0.02
1526667724.48008084,81570692,0.59,0.59,0.49,319.945892334,-14.78,-14.36,321.26,321.03,0.0,0.02
1526667724.58004069,81670652,0.62,0.71,0.53,313.535247803,-14.9,-14.41,321.26,320.85,0.0,0.02
1526667724.68000078,81770612,0.62,0.77,0.57,317.008483887,-14.76,-14.49,321.26,320.78,0.0,0.02
1526667724.78079367,81871405,0.6,0.8,0.6,320.06552124,-14.8,-14.57,321.26,320.77,0.0,0.02
1526667724.88075376,81971365,0.57,0.83,0.61,323.925018311,-14.83,-14.62,321.26,320.84,0.0,0.01
1526667724.98071384,82071325,0.52,0.82,0.61,331.116241455,-14.64,-14.69,321.26,320.98,0.0,0.01
1526667725.08067369,82171285,0.43,0.69,0.58,327.833343506,-14.94,-14.76,321.26,321.13,0.0,0.0
1526667725.18063378,82271245,0.37,0.54,0.53,314.655822754,-14.8,-14.8,321.26,321.21,0.0,0.0
1526667725.28059387,82371205,0.3,0.39,0.46,301.855682373,-14.92,-14.82,321.26,321.25,0.0,0.0
1526667725.38055372,82471165,0.28,0.26,0.39,293.794952393,-14.97,-14.92,176.44,321.18,0.0,0.0
1526667725.48051381,82571125,0.5,-0.3,0.35,345.114196777,-11.46,-15.03,176.44,320.66,0.0,0.01
1526667725.58047366,82671085,0.86,-1.06,0.38,789.352172852,-9.17,-14.22,176.44,319.29,0.0,0.01
1526667725.68043375,82771045,1.35,-1.52,0.53,32307.0585938,-7.82,-12.64,176.44,317.31,0.0,0.0
1526667725.78039384,82871005,1.95,-1.42,0.82,39942.3125,-6.82,-10.81,176.44,314.85,0.0,0.01
1526667725.88035369,82970965,2.61,-0.86,1.24,42669.6210938,-6.01,-9.06,176.44,312.11,0.0,0.02
1526667725.98031378,83070925,3.28,0.0,1.79,41596.9140625,-5.29,-7.54,176.44,309.09,0.0,0.02
1526667726.08027387,83170885,3.92,0.95,2.43,38678.0195312,-4.69,-6.33,176.44,305.94,0.0,0.02
1526667726.18023372,83270845,4.46,1.91,3.11,35231.6523438,-4.15,-5.37,176.44,302.61,0.0,0.01
1526667726.28019381,83370805,4.84,2.78,3.78,31960.1113281,-3.62,-4.59,176.44,299.18,0.0,0.0
1526667726.38015389,83470765,5.12,3.55,4.38,29037.1132812,-3.13,-3.94,176.44,295.65,0.0,0.0
1526667726.48011374,83570725,5.25,4.28,4.87,26399.5214844,-2.64,-3.44,176.44,292.02,0.0,0.01
1526667726.58007383,83670685,5.22,4.88,5.21,23975.984375,-2.14,-3.02,176.44,288.31,0.0,0.01
1526667726.68003368,83770645,5.04,5.29,5.39,21844.8046875,-1.65,-2.69,176.44,284.55,0.0,0.01
1526667726.78082681,83871438,4.69,5.45,5.38,20026.3574219,-1.1,-2.39,176.44,280.67,0.0,0.01
1526667726.88078690,83971398,4.28,5.35,5.2,18495.1269531,-0.65,-2.06,176.44,276.86,0.0,0.01
1526667726.98074675,84071358,3.74,5.09,4.86,17198.6855469,-0.16,-1.74,176.44,273.0,0.0,0.02
1526667727.08070683,84171318,3.06,4.69,4.38,16098.7519531,0.31,-1.49,176.44,269.2,0.0,0.02
1526667727.18066669,84271278,2.32,4.1,3.78,15152.0654297,0.81,-1.22,176.44,265.41,0.0,0.02
1526667727.28062677,84371238,1.49,3.37,3.07,14316.0839844,1.33,-0.84,176.44,261.63,0.0,0.01
1526667727.38058686,84471198,0.52,2.55,2.26,13566.7412109,1.81,-0.36,176.44,257.75,0.0,0.01
1526667727.48054671,84571158,-0.63,1.65,1.37,12894.6142578,2.21,0.08,176.44,253.76,0.0,0.01
1526667727.58050680,84671118,-2.01,0.6,0.36,12282.7685547,2.46,0.51,176.44,249.72,0.0,0.01
1526667727.68046689,84771078,-3.44,-0.52,-0.79,11729.3925781,2.41,0.91,176.44,245.66,0.0,0.0
1526667727.78042674,84871038,-3.98,-1.71,-1.99,11231.2041016,2.13,1.21,176.44,241.62,0.0,0.0
1526667727.88038683,84970998,-4.01,-2.71,-3.02,10783.0224609,1.74,1.43,176.44,237.55,0.0,0.0
1526667727.98034668,85070958,-3.74,-3.38,-3.75,10383.1083984,1.35,1.57,176.44,233.52,0.0,0.01
1526667728.08030677,85170918,-3.29,-3.7,-4.1,10029.4433594,0.9,1.68,176.44,229.55,0.0,0.01
1526667728.18026686,85270878,-2.72,-3.68,-4.08,9708.1171875,0.47,1.73,176.44,225.54,0.0,0.01
1526667728.28022671,85370838,-2.3,-3.41,-3.75,1442.38012695,-0.17,1.65,176.44,221.54,0.0,0.02
1526667728.38018680,85470798,-1.98,-2.97,-3.24,1189.5090332,-0.87,1.44,176.44,217.6,0.0,0.03
1526667728.48014688,85570758,-1.67,-2.39,-2.64,1015.19744873,-1.57,1.0,176.44,213.62,0.0,0.04
1526667728.58010674,85670718,-1.41,-1.77,-2.03,921.342590332,-2.28,0.35,176.44,209.58,0.0,0.03
1526667728.68006682,85770678,-1.24,-1.2,-1.49,899.194458008,-2.96,-0.43,176.44,205.52,0.0,0.03
1526667728.78002667,85870638,-1.15,-0.77,-1.06,894.567932129,-3.54,-1.3,176.44,201.47,0.0,0.04
1526667728.88081980,85971431,-1.12,-0.54,-0.77,873.175292969,-4.06,-2.16,176.44,197.37,0.0,0.04
1526667728.98077989,86071391,-1.12,-0.42,-0.61,818.647155762,-4.52,-2.98,176.44,193.29,0.0,0.03
1526667729.08073974,86171351,-1.08,-0.39,-0.56,766.561096191,-5.0,-3.75,176.44,189.19,0.0,0.03
1526667729.18069983,86271311,-0.99,-0.43,-0.59,715.602050781,-5.44,-4.36,176.44,185.13,0.0,0.02
1526667729.28065968,86371271,-0.87,-0.36,-0.63,694.59777832,-5.87,-4.91,176.44,181.16,0.0,0.02
1526667729.38061976,86471231,-0.62,-0.24,-0.67,747.656005859,-6.09,-5.34,176.44,177.49,0.0,0.02
1526667729.48057985,86571191,-0.3,-0.12,-0.64,881.361206055,-6.06,-5.64,176.44,174.48,0.0,0.01
1526667729.58053970,86671151,-0.02,-0.05,-0.53,1002.55993652,-5.99,-5.78,176.44,172.29,0.0,0.0
1526667729.68049979,86771111,0.14,0.04,-0.36,1068.78955078,-5.9,-5.85,176.44,170.9,0.0,0.01
1526667729.78045988,86871071,0.21,0.11,-0.17,1077.15856934,-5.87,-5.84,176.44,170.35,0.0,0.01
1526667729.88041973,86971031,0.22,0.21,0.0,1047.34570312,-5.89,-5.81,176.44,170.55,0.0,0.02
1526667729.98037982,87070991,0.16,0.27,0.14,1005.63183594,-5.95,-5.77,176.44,171.27,0.0,0.03
1526667730.08033967,87170951,0.01,0.31,0.21,959.205078125,-6.02,-5.78,176.44,172.32,0.0,0.03
1526667730.18029976,87270911,-0.2,0.32,0.19,917.655883789,-6.15,-5.87,176.44,173.56,0.0,0.04
1526667730.28025985,87370871,-0.43,0.23,0.09,882.175354004,-6.28,-5.98,176.44,174.79,0.0,0.04
1526667730.38021970,87470831,-0.7,0.04,-0.07,849.62890625,-6.42,-6.15,176.44,175.96,0.0,0.04
1526667730.48017979,87570791,-0.88,-0.21,-0.31,818.415405273,-6.58,-6.36,176.44,176.92,0.0,0.1
1526667730.58013988,87670751,-1.02,-0.45,-0.56,789.110595703,-6.73,-6.49,176.44,177.59,0.0,0.11
1526667730.68009973,87770711,-1.11,-0.68,-0.8,763.769958496,-6.89,-6.63,176.44,177.98,0.0,0.1
1526667730.78005981,87870671,-1.17,-0.85,-1.01,741.895629883,-7.05,-6.73,176.44,178.08,0.0,0.09
1526667730.88001966,87970631,-1.17,-0.93,-1.16,390.466003418,-7.22,-6.89,176.44,177.9,0.0,0.09
1526667730.98081279,88071424,-1.11,-0.94,-1.25,599.65814209,-7.61,-7.09,176.44,177.64,0.0,0.08
1526667731.08077288,88171384,-1.0,-0.99,-1.27,709.836853027,-8.18,-7.24,176.44,177.37,0.0,0.01
1526667731.18073273,88271344,-0.89,-0.98,-1.23,711.700866699,-8.78,-7.48,176.44,177.11,0.0,0.0
1526667731.28069282,88371304,-0.74,-0.9,-1.12,681.406738281,-9.41,-7.86,176.44,176.85,0.0,0.0
1526667731.38065267,88471264,-0.6,-0.79,-0.98,640.289916992,-10.02,-8.36,176.44,176.56,0.0,0.0
1526667731.48061275,88571224,-0.47,-0.6,-0.81,614.508483887,-10.57,-8.93,176.44,176.26,0.0,0.0
1526667731.58057284,88671184,-0.37,-0.45,-0.64,592.89453125,-11.08,-9.52,176.44,176.06,0.0,0.0
1526667731.68053269,88771144,-0.31,-0.29,-0.48,569.333862305,-11.53,-10.08,176.44,175.91,0.0,0.0
1526667731.78049278,88871104,-0.26,-0.15,-0.35,552.701782227,-11.93,-10.61,176.44,175.83,0.0,0.0
1526667731.88045287,88971064,-0.25,-0.06,-0.25,538.793701172,-12.29,-11.18,176.44,175.82,0.0,0.0
1526667731.98041272,89071024,-0.29,-0.08,-0.19,515.044799805,-12.62,-11.73,176.44,175.88,0.0,0.0
1526667732.08037281,89170984,-0.3,-0.08,-0.18,483.611022949,-12.93,-12.2,176.44,175.89,0.0,0.0
1526667732.18033290,89270944,-0.31,-0.12,-0.19,455.967498779,-13.19,-12.53,176.44,175.91,0.0,0.0
1526667732.28029275,89370904,-0.33,-0.2,-0.22,426.723144531,-13.4,-12.79,176.44,175.92,0.0,0.0
1526667732.38025284,89470864,-0.39,-0.24,-0.27,400.919006348,-13.62,-13.11,176.44,176.03,0.0,0.0
1526667732.48021269,89570824,-0.45,-0.29,-0.33,378.454711914,-13.66,-13.4,176.44,176.21,0.0,0.0
1526667732.58017278,89670784,-0.52,-0.39,-0.4,357.897613525,-13.58,-13.63,176.44,176.37,0.0,0.07
1526667732.68013287,89770744,-1.12,-0.68,-0.48,342.363555908,-12.57,-13.81,127.4,176.41,0.0,0.08
1526667732.78009272,89870704,-3.95,-1.76,-0.92,460.992370605,-8.49,-13.74,127.4,175.78,0.0,0.08
1526667732.88005280,89970664,-5.46,-3.69,-1.91,1299.40734863,-6.62,-12.84,127.4,174.34,0.0,0.09
1526667732.98001289,90070624,-6.18,-5.56,-3.17,3319.84375,-5.94,-11.28,127.4,172.21,0.0,0.07
1526667733.08080578,90171417,-6.39,-6.85,-4.43,5793.66943359,-5.86,-9.55,127.4,169.53,0.0,0.05
1526667733.18076587,90271377,-6.26,-7.48,-5.49,7608.95117188,-6.24,-8.08,127.4,166.59,0.0,0.02
1526667733.28072572,90371337,-5.88,-7.54,-6.2,8424.44238281,-6.91,-7.08,127.4,163.43,0.0,0.03
1526667733.38068581,90471297,-5.32,-7.18,-6.51,8489.23144531,-7.79,-6.53,127.4,160.11,0.0,0.04
1526667733.48064590,90571257,-4.59,-6.47,-6.42,1454.17431641,-8.8,-6.48,127.4,156.68,0.0,0.05
1526667733.58060575,90671217,-3.79,-5.63,-5.96,922.028625488,-9.88,-6.89,127.4,153.17,0.0,0.05
1526667733.68056583,90771177,-2.91,-4.67,-5.22,1333.80554199,-10.97,-7.62,127.4,149.51,0.0,0.05
1526667733.78052568,90871137,-1.97,-3.64,-4.27,1918.07836914,-11.99,-8.59,127.4,145.77,0.0,0.05
1526667733.88048577,90971097,-1.0,-2.62,-3.19,2262.53491211,-12.95,-9.63,127.4,141.9,0.0,0.05
1526667733.98044586,91071057,0.02,-1.6,-2.04,2328.44824219,-13.76,-10.7,127.4,137.99,0.0,0.04
1526667734.08040571,91171017,1.13,-0.56,-0.88,2200.42504883,-14.43,-11.73,127.4,133.97,0.0,0.04
1526667734.18036580,91270977,2.22,0.58,0.27,2039.25219727,-14.93,-12.55,127.4,130.09,0.0,0.04
1526667734.28032589,91370937,3.16,1.76,1.4,1932.63391113,-15.29,-13.2,127.4,126.8,0.0,0.04
1526667734.38028574,91470897,3.89,2.92,2.45,1909.18127441,-15.53,-13.63,127.4,124.3,0.0,0.03
1526667734.48024583,91570857,4.39,3.92,3.35,1983.63122559,-15.59,-13.95,127.4,122.65,0.0,0.02
1526667734.58020568,91670817,4.59,4.66,4.07,2096.88818359,-15.62,-14.22,127.4,121.82,0.0,0.01
1526667734.68016577,91770777,4.47,5.12,4.54,2196.6706543,-15.65,-14.52,127.4,121.83,0.0,0.01
1526667734.78012586,91870737,4.1,5.25,4.73,2253.1965332,-15.71,-14.84,127.4,122.45,0.0,0.02
1526667734.88008571,91970697,3.56,5.11,4.64,2257.69189453,-15.77,-15.18,127.4,123.46,0.0,0.03
1526667734.98004580,92070657,2.94,4.76,4.29,2257.6237793,-15.79,-15.56,127.4,124.62,0.0,0.03
1526667735.08000588,92170617,2.29,4.12,3.73,2236.53930664,-15.78,-15.9,127.4,125.81,0.0,0.03
1526667735.18079877,92271410,1.65,3.3,3.03,2170.3684082,-15.73,-16.18,127.4,126.99,0.0,0.04
1526667735.28075886,92371370,1.13,2.48,2.27,2082.19287109,-15.67,-16.32,127.4,127.91,0.0,0.03
1526667735.38071871,92471330,0.74,1.76,1.53,1999.73486328,-15.59,-16.31,127.4,128.52,0.0,0.02
1526667735.48067880,92571290,0.49,1.19,0.88,1938.68347168,-15.52,-16.25,127.4,128.87,0.0,0.01
1526667735.58063889,92671250,0.36,0.7,0.37,1898.24975586,-15.45,-16.14,127.4,128.94,0.0,0.01
1526667735.68059874,92771210,0.35,0.34,0.02,1863.03076172,-15.4,-15.94,127.4,128.86,0.0,0.0
1526667735.78055882,92871170,0.4,0.06,-0.15,1817.01977539,-15.38,-15.72,127.4,128.72,0.0,0.0
1526667735.88051867,92971130,0.54,-0.04,-0.17,1756.22668457,-15.4,-15.48,127.4,128.42,0.0,0.0
1526667735.98047876,93071090,0.71,0.0,-0.05,1692.27807617,-15.46,-15.36,127.4,128.12,0.0,0.0
1526667736.08043885,93171050,0.93,0.16,0.15,6.79032897949,-15.57,-15.3,127.4,127.77,0.0,0.0
1526667736.18039870,93271010,1.13,0.42,0.43,3.54310870171,-15.69,-15.28,127.4,127.4,0.0,0.0
1526667736.28035879,93370970,1.3,0.74,0.74,2.53789925575,-15.8,-15.28,127.4,127.08,0.0,0.0
1526667736.38031888,93470930,1.44,1.05,1.03,2.31981253624,-15.91,-15.35,127.4,126.76,0.0,0.0
1526667736.48027873,93570890,1.52,1.31,1.3,2.01550078392,-16.04,-15.45,127.4,126.44,0.0,0.0
1526667736.58023882,93670850,1.56,1.52,1.5,1.82190489769,-16.17,-15.59,127.4,126.2,0.0,0.0
1526667736.68019867,93770810,1.57,1.7,1.64,3.88041567802,-16.3,-15.73,127.4,126.04,0.0,0.0
1526667736.78015876,93870770,1.51,1.79,1.71,8.06218719482,-16.43,-15.87,127.4,126.0,0.0,0.0
1526667736.88011885,93970730,1.4,1.81,1.71,15.3800792694,-16.56,-16.03,127.4,126.03,0.0,0.0
