timestamp,TimeUS,DesR,R,IR,IRErr,DesP,P,DesY,Y,ErrRP,ErrYaw
1526667810.14400005,31871413,0.0,1.22,0.0,15524.2080078,0.0,0.39,352.3,352.3,0.0,0.0
1526667810.24396014,31971373,0.0,1.18,0.0,15435.0957031,0.0,0.4,352.35,352.35,0.0,0.0
1526667810.34391999,32071333,0.0,1.13,0.0,15281.859375,0.0,0.41,352.38,352.38,0.0,0.0
1526667810.44388008,32171293,0.0,1.13,0.0,15114.3349609,0.0,0.42,352.42,352.42,0.0,0.0
1526667810.54384017,32271253,0.0,1.13,0.0,14968.8154297,0.0,0.42,352.49,352.49,0.0,0.0
1526667810.64380002,32371213,0.0,1.12,0.0,14834.7822266,0.0,0.42,352.57,352.57,0.0,0.0
1526667810.74376011,32471173,0.0,1.1,0.0,14693.609375,0.0,0.4,352.66,352.66,0.0,0.0
1526667810.84371996,32571133,0.0,1.1,0.0,14557.1035156,0.0,0.39,352.73,352.73,0.0,0.0
1526667810.94368005,32671093,0.0,1.11,0.0,14444.1933594,0.0,0.37,352.8,352.8,0.0,0.0
1526667811.04364014,32771053,0.0,1.12,0.0,14345.7441406,0.0,0.36,352.86,352.86,0.0,0.0
1526667811.14359999,32871013,0.0,1.15,0.0,14273.8525391,0.0,0.37,352.93,352.93,0.0,0.0
1526667811.24356008,32970973,0.0,1.19,0.0,14244.4238281,0.0,0.35,353.01,353.01,0.0,0.0
1526667811.34352016,33070933,0.0,1.21,0.0,14247.9316406,0.0,0.34,353.09,353.09,0.0,0.0
1526667811.44348001,33170893,0.0,1.22,0.0,14266.8134766,0.0,0.32,353.14,353.14,0.0,0.0
1526667811.54344010,33270853,0.0,1.22,0.0,14290.5507812,0.0,0.31,353.19,353.19,0.0,0.0
1526667811.64339995,33370813,0.0,1.22,0.0,15104.5,0.0,0.31,353.25,353.25,0.0,0.0
1526667811.74336004,33470773,0.0,1.22,0.0,14994.25,0.0,0.3,353.35,353.35,0.0,0.07
1526667811.84332013,33570733,0.0,1.2,0.0,14896.8662109,0.0,0.29,353.46,353.46,0.0,0.08
1526667811.94327998,33670693,0.0,1.17,0.0,14689.3876953,0.0,0.26,353.56,353.56,0.0,0.08
1526667812.04324007,33770653,0.0,1.15,0.0,14445.0898438,0.0,0.24,353.69,353.69,0.0,0.08
1526667812.14403296,33871446,0.0,1.14,0.0,14221.7041016,0.0,0.22,353.8,353.8,0.0,0.07
1526667812.24399304,33971406,0.0,1.15,0.0,14072.7753906,0.0,0.18,353.92,353.92,0.0,0.01
1526667812.34395313,34071366,0.0,1.12,0.0,13921.9121094,0.0,0.13,354.03,354.03,0.0,0.0
1526667812.44391298,34171326,0.0,1.08,0.0,13726.4248047,0.0,0.07,354.13,354.13,0.0,0.0
1526667812.54387307,34271286,0.0,1.05,0.0,13482.2402344,0.0,0.03,354.24,354.24,0.0,0.0
1526667812.64383316,34371246,0.0,1.03,0.0,13234.7109375,0.0,0.0,354.36,354.36,0.0,0.0
1526667812.74379301,34471206,0.0,1.02,0.0,13015.0478516,0.0,-0.01,354.5,354.5,0.0,0.0
1526667812.84375310,34571166,0.0,1.02,0.0,12814.1982422,0.0,-0.02,354.64,354.64,0.0,0.0
1526667812.94371295,34671126,0.0,1.03,0.0,12643.1396484,0.0,-0.01,354.76,354.76,0.0,0.0
1526667813.04367304,34771086,0.0,1.01,0.0,12499.3398438,0.0,-0.01,354.87,354.87,0.0,0.0
1526667813.14363313,34871046,0.0,1.01,0.0,12353.1816406,0.0,0.0,354.94,354.94,0.0,0.0
1526667813.24359298,34971006,0.0,1.02,0.0,12228.0751953,0.0,0.0,355.0,355.0,0.0,0.0
1526667813.34355307,35070966,0.0,1.02,0.0,12126.7373047,0.0,0.01,355.03,355.03,0.0,0.0
1526667813.44351315,35170926,0.0,1.02,0.0,12036.0673828,0.0,0.01,355.05,355.05,0.0,0.0
1526667813.54347301,35270886,0.0,1.03,0.0,11957.2822266,0.0,0.01,355.03,355.03,0.0,0.0
1526667813.64343309,35370846,0.0,1.03,0.0,11893.078125,0.0,0.03,355.01,355.01,0.0,0.0
1526667813.74339294,35470806,0.0,1.02,0.0,11830.984375,0.0,0.04,355.01,355.01,0.0,0.0
1526667813.84335303,35570766,0.0,1.01,0.0,11762.5419922,0.0,0.06,355.02,355.02,0.0,0.07
1526667813.94331312,35670726,0.0,1.01,0.0,11697.4785156,0.0,0.08,355.06,355.06,0.0,0.08
1526667814.04327297,35770686,0.0,1.01,0.0,11637.6191406,0.0,0.12,355.1,355.1,0.0,0.08
1526667814.14323306,35870646,0.0,1.0,0.0,11581.5917969,0.0,0.16,355.14,355.14,0.0,0.07
1526667814.24402595,35971439,0.0,0.98,0.0,9826.27539062,0.0,0.2,355.19,355.19,0.0,0.07
1526667814.34398603,36071399,0.0,0.97,0.0,9646.88769531,0.0,0.23,355.23,355.23,0.0,0.01
1526667814.44394612,36171359,0.0,0.97,0.0,9567.59179688,0.0,0.24,355.28,355.28,0.0,0.0
1526667814.54390597,36271319,0.0,0.97,0.0,9527.94335938,0.0,0.25,355.32,355.32,0.0,0.0
1526667814.64386606,36371279,0.0,0.99,0.0,9552.08007812,0.0,0.24,355.36,355.36,0.0,0.0
1526667814.74382615,36471239,0.0,1.0,0.0,9619.27050781,0.0,0.23,355.39,355.39,0.0,0.0
1526667814.84378600,36571199,0.0,0.98,0.0,9641.01757812,0.0,0.25,355.41,355.41,0.0,0.0
1526667814.94374609,36671159,0.0,0.99,0.0,9656.70605469,0.0,0.25,355.43,355.43,0.0,0.0
1526667815.04370618,36771119,-0.05,0.89,0.0,9611.94335938,-0.41,0.11,355.43,355.43,0.0,0.0
1526667815.14366603,36871079,-0.16,0.63,-0.02,9252.49121094,-0.42,-0.13,355.43,355.44,0.0,0.0
1526667815.24362612,36971039,-0.24,0.38,-0.07,8686.24609375,-0.43,-0.32,355.43,355.45,0.0,0.0
1526667815.34358597,37070999,-0.27,0.16,-0.13,8072.73242188,-0.41,-0.44,355.43,355.46,0.0,0.0
1526667815.44354606,37170959,-0.32,0.0,-0.19,7497.44335938,-0.38,-0.53,355.43,355.45,0.0,0.0
1526667815.54350615,37270919,-0.32,-0.14,-0.25,6979.89501953,-0.33,-0.57,355.43,355.45,0.0,0.0
1526667815.64346600,37370879,-0.31,-0.3,-0.29,6516.87841797,-0.26,-0.53,355.43,355.44,0.0,0.0
1526667815.74342608,37470839,-0.28,-0.4,-0.32,6110.53564453,-0.18,-0.41,355.43,355.41,0.0,0.0
1526667815.84338617,37570799,-0.25,-0.49,-0.32,5760.11816406,-0.11,-0.29,355.43,355.41,0.0,0.0
1526667815.94334602,37670759,-0.17,-0.52,-0.3,5460.03808594,-0.04,-0.2,355.43,355.39,0.0,0.07
1526667816.04330611,37770719,-0.08,-0.51,-0.26,5201.16796875,0.01,-0.06,355.43,355.39,0.0,0.07
1526667816.14326596,37870679,0.02,-0.44,-0.19,4971.59228516,0.07,0.03,355.43,355.4,0.0,0.07
1526667816.24322605,37970639,0.15,-0.33,-0.09,4762.11181641,0.11,0.06,355.43,355.36,0.0,0.07
1526667816.34401917,38071432,0.3,-0.22,0.01,4570.98144531,0.15,0.1,355.43,355.29,0.0,0.07
1526667816.44397902,38171392,0.4,-0.08,0.14,4394.21679688,0.15,0.13,355.43,355.19,0.0,0.01
1526667816.54393911,38271352,0.47,0.04,0.27,4233.85644531,0.14,0.11,355.43,355.22,0.0,0.01
1526667816.64389896,38371312,0.49,0.18,0.38,4084.16992188,0.14,0.09,355.43,355.27,0.0,0.01
1526667816.74385905,38471272,0.49,0.19,0.47,3948.53320312,0.2,0.12,355.43,355.32,0.0,0.0
1526667816.84381914,38571232,0.47,0.23,0.52,866.243530273,0.22,0.22,355.43,355.46,0.0,0.01
1526667816.94377899,38671192,0.43,0.31,0.53,759.426757812,0.2,0.23,355.43,355.58,0.0,0.01
1526667817.04373908,38771152,0.38,0.37,0.51,621.667602539,0.16,0.19,355.43,355.76,0.0,0.01
1526667817.14369917,38871112,0.35,0.47,0.47,483.628234863,0.15,0.11,355.43,355.85,0.0,0.01
1526667817.24365902,38971072,0.23,0.41,0.41,386.937347412,0.12,0.0,355.43,355.94,0.0,0.0
1526667817.34361911,39071032,0.13,0.3,0.33,323.203460693,0.14,-0.06,355.43,355.99,0.0,0.0
1526667817.44357896,39170992,0.06,0.17,0.23,281.948181152,0.16,-0.05,355.43,356.11,0.0,0.0
1526667817.54353905,39270952,0.04,0.08,0.14,252.479095459,0.19,-0.02,355.43,356.13,0.0,0.0
1526667817.64349914,39370912,0.04,0.04,0.06,226.808486938,0.22,0.06,355.43,356.1,0.0,0.0
1526667817.74345899,39470872,0.06,0.05,0.01,204.471191406,0.25,0.21,355.43,356.02,0.0,0.0
1526667817.84341908,39570832,0.06,0.09,0.0,190.061660767,0.27,0.31,356.35,356.83,0.0,0.0
1526667817.94337916,39670792,0.04,0.16,-0.01,189.99395752,0.24,0.37,356.35,356.67,0.0,0.06
1526667818.04333901,39770752,0.0,0.23,-0.01,213.618484497,0.16,0.39,356.35,356.57,0.0,0.07
1526667818.14329910,39870712,0.0,0.27,-0.01,251.686294556,0.09,0.4,356.35,356.44,0.0,0.07
1526667818.24325895,39970672,-0.02,0.33,0.0,301.67376709,0.0,0.36,356.35,356.36,0.0,0.07
1526667818.34321904,40070632,-0.06,0.34,-0.01,361.315582275,-0.11,0.2,356.35,356.22,0.0,0.07
1526667818.44401217,40171425,-0.18,0.3,-0.03,408.124023438,-0.18,0.06,356.35,356.14,0.0,0.07
1526667818.54397202,40271385,-0.28,0.23,-0.07,442.1015625,-0.21,-0.01,356.35,356.16,0.0,0.01
1526667818.64393210,40371345,-0.36,0.15,-0.14,468.215240479,-0.23,-0.11,356.35,356.21,0.0,0.01
1526667818.74389195,40471305,-0.39,0.06,-0.22,485.647644043,-0.21,-0.26,356.35,356.21,0.0,0.0
1526667818.84385204,40571265,-0.38,-0.04,-0.29,497.16607666,-0.11,-0.36,356.35,356.19,0.0,0.0
1526667818.94381213,40671225,-0.39,-0.2,-0.34,493.599090576,0.0,-0.39,356.35,356.17,0.0,0.0
1526667819.04377198,40771185,-0.37,-0.32,-0.38,476.857757568,0.11,-0.34,356.35,356.16,0.0,0.0
1526667819.14373207,40871145,-0.3,-0.45,-0.39,457.490081787,0.21,-0.26,356.35,356.15,0.0,0.0
1526667819.24369216,40971105,-0.19,-0.58,-0.37,447.611938477,0.26,-0.12,356.35,356.15,0.0,0.0
1526667819.34365201,41071065,-0.04,-0.6,-0.3,457.241119385,0.3,0.06,356.35,356.09,0.0,0.0
1526667819.44361210,41171025,0.1,-0.51,-0.2,889.255249023,0.35,0.25,356.35,356.07,0.0,0.01
1526667819.54357195,41270985,0.26,-0.37,-0.07,890.530273438,0.35,0.43,356.24,355.96,0.0,0.01
1526667819.64353204,41370945,0.36,-0.15,0.07,827.012878418,0.31,0.61,356.24,355.95,0.0,0.01
1526667819.74349213,41470905,0.41,0.09,0.21,701.320617676,0.25,0.65,356.24,355.91,0.0,0.01
1526667819.84345198,41570865,0.38,0.37,0.33,569.110412598,0.15,0.6,356.24,355.87,0.0,0.01
1526667819.94341207,41670825,0.29,0.52,0.4,486.856781006,0.02,0.48,356.24,355.84,0.0,0.01
1526667820.04337215,41770785,0.16,0.59,0.41,451.05947876,-0.09,0.3,356.24,355.77,0.0,0.06
1526667820.14333200,41870745,0.0,0.61,0.36,451.968933105,-0.15,0.05,356.24,355.69,0.0,0.07
1526667820.24329209,41970705,-0.16,0.51,0.24,475.286193848,-0.17,-0.18,356.24,355.67,0.0,0.07
1526667820.34325194,42070665,-0.31,0.29,0.09,480.862762451,-0.14,-0.36,356.24,355.71,0.0,0.07
1526667820.44321203,42170625,-0.4,0.05,-0.07,461.209716797,-0.09,-0.42,356.24,355.81,0.0,0.07
1526667820.54400516,42271418,-0.44,-0.13,-0.24,435.723114014,-0.03,-0.37,356.24,355.91,0.0,0.07
1526667820.64396501,42371378,-0.43,-0.36,-0.37,405.954162598,0.06,-0.32,356.24,355.99,0.0,0.01
1526667820.74392509,42471338,-0.38,-0.5,-0.45,377.269805908,0.15,-0.21,356.24,356.05,0.0,0.01
1526667820.84388494,42571298,-0.3,-0.57,-0.48,354.744567871,0.22,-0.05,356.24,356.05,0.0,0.01
1526667820.94384503,42671258,-0.17,-0.58,-0.46,339.187438965,0.29,0.11,356.24,356.06,0.0,0.01
1526667821.04380512,42771218,-0.01,-0.56,-0.38,332.280731201,0.32,0.26,356.24,356.05,0.0,0.01
1526667821.14376497,42871178,0.16,-0.47,-0.24,335.53338623,0.31,0.38,356.24,356.07,0.0,0.01
1526667821.24372506,42971138,0.27,-0.34,-0.08,346.506317139,0.28,0.39,356.24,356.16,0.0,0.01
1526667821.34368515,43071098,0.36,-0.21,0.08,367.039916992,0.24,0.43,356.24,356.25,0.0,0.01
1526667821.44364500,43171058,0.42,-0.06,0.23,392.760742188,0.15,0.5,356.24,356.26,0.0,0.01
1526667821.54360509,43271018,0.46,0.06,0.36,417.487854004,0.05,0.52,356.24,356.16,0.0,0.01
1526667821.64356518,43370978,0.44,0.26,0.46,431.32510376,-0.03,0.52,356.24,356.03,0.0,0.01
1526667821.74352503,43470938,0.41,0.46,0.51,420.892669678,-0.11,0.41,356.24,355.95,0.0,0.01
1526667821.84348512,43570898,0.36,0.57,0.52,404.3331604,-0.22,0.25,356.24,355.94,0.0,0.01
1526667821.94344497,43670858,0.27,0.63,0.48,392.383117676,-0.32,0.03,356.24,355.97,0.0,0.01
1526667822.04340506,43770818,0.19,0.63,0.42,325.129699707,-0.34,-0.18,356.24,356.09,0.0,0.01
1526667822.14336514,43870778,0.04,0.52,0.32,375.455413818,-0.34,-0.38,356.24,356.32,0.0,0.06
1526667822.24332500,43970738,-0.07,0.31,0.2,338.008331299,-0.26,-0.47,356.24,356.53,0.0,0.07
1526667822.34328508,44070698,-0.18,0.14,0.06,272.668548584,-0.15,-0.49,356.24,356.71,0.0,0.07
1526667822.44324517,44170658,-0.3,-0.05,-0.07,221.875930786,-0.03,-0.47,356.24,356.8,0.0,0.07
1526667822.54320502,44270618,-0.36,-0.18,-0.2,185.705581665,0.08,-0.39,356.24,356.84,0.0,0.07
1526667822.64399815,44371411,-0.41,-0.29,-0.31,159.818069458,0.19,-0.31,356.24,356.89,0.0,0.06
1526667822.74395800,44471371,-0.4,-0.43,-0.39,140.30480957,0.31,-0.21,356.24,356.87,0.0,0.01
1526667822.84391809,44571331,-0.36,-0.58,-0.44,132.297241211,0.39,-0.03,356.24,356.79,0.0,0.01
1526667822.94387817,44671291,-0.29,-0.62,-0.44,143.653076172,0.45,0.18,356.24,356.61,0.0,0.01
1526667823.04383802,44771251,-0.17,-0.61,-0.41,162.680755615,0.45,0.36,356.24,356.36,0.0,0.01
1526667823.14379811,44871211,-0.04,-0.51,-0.33,178.808792114,0.4,0.42,356.24,356.14,0.0,0.01
1526667823.24375796,44971171,0.09,-0.41,-0.21,191.684082031,0.32,0.49,356.24,355.98,0.0,0.01
1526667823.34371805,45071131,0.22,-0.24,-0.08,200.098770142,0.21,0.58,356.24,355.75,0.0,0.01
1526667823.44367814,45171091,0.31,-0.03,0.06,196.916381836,0.13,0.6,356.24,355.57,0.0,0.01
1526667823.54363799,45271051,0.3,0.16,0.19,188.596481323,0.01,0.53,356.24,355.43,0.0,0.01
1526667823.64359808,45371011,0.23,0.38,0.28,179.006164551,-0.1,0.4,356.24,355.33,0.0,0.01
1526667823.74355817,45470971,0.16,0.49,0.32,180.182418823,-0.18,0.23,356.24,355.27,0.0,0.01
1526667823.84351802,45570931,0.11,0.53,0.31,190.271972656,-0.21,0.09,356.24,355.36,0.0,0.01
1526667823.94347811,45670891,0.04,0.48,0.27,203.521835327,-0.25,-0.01,356.24,355.45,0.0,0.01
1526667824.04343796,45770851,0.0,0.43,0.2,216.14251709,-0.24,-0.08,356.24,355.53,0.0,0.01
1526667824.14339805,45870811,-0.07,0.35,0.11,232.682418823,-0.23,-0.2,356.24,355.71,0.0,0.01
1526667824.24335814,45970771,-0.17,0.29,0.02,249.773132324,-0.18,-0.28,356.24,355.95,0.0,0.06
1526667824.34331799,46070731,-0.25,0.23,-0.07,272.987304688,-0.15,-0.32,356.24,356.29,0.0,0.06
1526667824.44327807,46170691,-0.28,0.13,-0.17,300.940979004,-0.09,-0.4,356.24,356.65,0.0,0.06
1526667824.54323816,46270651,-0.29,0.0,-0.25,318.135131836,-0.02,-0.38,356.24,356.9,0.0,0.06
1526667824.64403105,46371444,-0.28,-0.13,-0.3,433.050201416,0.06,-0.34,356.24,357.13,0.0,0.06
1526667824.74399114,46471404,-0.21,-0.26,-0.32,303.280944824,0.18,-0.2,356.24,357.24,0.0,0.01
1526667824.84395099,46571364,-0.12,-0.39,-0.31,209.076156616,0.28,-0.07,356.24,357.28,0.0,0.01
1526667824.94391108,46671324,-0.04,-0.4,-0.25,194.019134521,0.35,0.07,356.24,357.25,0.0,0.01
1526667825.04387116,46771284,-0.21,-0.33,-0.19,198.244369507,0.18,0.17,301.37,356.96,0.0,0.01
1526667825.14383101,46871244,-0.78,-0.24,-0.22,180.852386475,-0.28,0.2,301.37,355.89,0.0,0.0
1526667825.24379110,46971204,-1.17,-0.26,-0.38,161.812896729,-0.7,0.03,301.37,354.09,0.0,0.0
1526667825.34375095,47071164,-1.47,-0.44,-0.63,176.046478271,-1.08,-0.23,301.37,351.77,0.0,0.01
1526667825.44371104,47171124,-1.72,-0.68,-0.94,219.010482788,-1.49,-0.57,301.37,349.02,0.0,0.02
1526667825.54367113,47271084,-1.97,-0.92,-1.28,301.125366211,-1.91,-0.99,301.37,345.98,0.0,0.03
1526667825.64363098,47371044,-2.17,-1.19,-1.61,416.582336426,-2.35,-1.46,301.37,342.72,0.0,0.03
1526667825.74359107,47471004,-2.34,-1.5,-1.92,533.19744873,-2.81,-1.89,301.37,339.28,0.0,0.03
1526667825.84355116,47570964,-2.43,-1.76,-2.18,633.079528809,-3.31,-2.35,301.37,335.71,0.0,0.04
1526667825.94351101,47670924,-2.42,-1.94,-2.37,720.201538086,-3.84,-2.81,301.37,332.06,0.0,0.04
1526667826.04347110,47770884,-2.27,-2.05,-2.47,796.570495605,-4.34,-3.24,301.37,328.33,0.0,0.04
1526667826.14343095,47870844,-2.06,-2.05,-2.46,859.21081543,-4.86,-3.68,301.37,324.49,0.0,0.03
1526667826.24339104,47970804,-1.77,-1.95,-2.35,906.893920898,-5.4,-4.1,301.37,320.61,0.0,0.03
1526667826.34335113,48070764,-1.4,-1.72,-2.13,951.729858398,-5.92,-4.57,301.37,316.68,0.0,0.07
1526667826.44331098,48170724,-0.97,-1.44,-1.82,989.966674805,-6.43,-5.1,301.37,312.73,0.0,0.07
1526667826.54327106,48270684,-0.5,-1.11,-1.43,1003.18609619,-6.89,-5.64,301.37,308.79,0.0,0.06
1526667826.64323115,48370644,-0.02,-0.72,-0.98,996.809997559,-7.24,-6.13,301.37,304.97,0.0,0.05
1526667826.74402404,48471437,0.47,-0.27,-0.48,976.299194336,-7.51,-6.48,301.37,301.58,0.0,0.04
1526667826.84398413,48571397,0.92,0.2,0.02,952.045837402,-7.76,-6.73,301.37,298.94,0.0,0.01
1526667826.94394398,48671357,1.22,0.65,0.51,922.137329102,-7.85,-6.89,301.37,297.2,0.0,0.0
1526667827.04390407,48771317,1.31,1.04,0.94,889.846984863,-7.79,-7.07,301.37,296.35,0.0,0.0
1526667827.14386415,48871277,1.25,1.36,1.24,859.207702637,-7.7,-7.23,301.37,296.27,0.0,0.01
1526667827.24382401,48971237,1.04,1.55,1.4,187.230056763,-7.67,-7.44,301.37,296.79,0.0,0.02
1526667827.34378409,49071197,0.75,1.52,1.38,203.1197052,-7.63,-7.62,301.37,297.72,0.0,0.02
1526667827.44374394,49171157,0.45,1.29,1.22,171.135009766,-7.64,-7.77,301.37,298.81,0.0,0.02
1526667827.54370403,49271117,0.12,0.95,0.94,132.064987183,-7.7,-7.88,301.37,299.85,0.0,0.02
1526667827.64366412,49371077,-0.16,0.59,0.59,105.992279053,-8.06,-7.98,301.37,300.78,0.0,0.02
1526667827.74362397,49471037,-0.39,0.28,0.2,90.6334915161,-8.55,-8.12,301.37,301.56,0.0,0.01
1526667827.84358406,49570997,-0.55,0.0,-0.16,98.7236480713,-9.1,-8.34,301.37,302.11,0.0,0.01
1526667827.94354415,49670957,-0.63,-0.24,-0.47,137.82649231,-9.66,-8.65,301.37,302.38,0.0,0.0
1526667828.04350400,49770917,-0.63,-0.44,-0.7,196.494293213,-9.98,-9.0,301.37,302.43,0.0,0.0
1526667828.14346409,49870877,-0.6,-0.55,-0.84,254.538284302,-10.07,-9.33,301.37,302.32,0.0,0.0
1526667828.24342418,49970837,-0.48,-0.57,-0.88,316.815063477,-10.08,-9.6,301.37,302.09,0.0,0.0
1526667828.34338403,50070797,-0.37,-0.59,-0.83,359.653930664,-10.07,-9.79,301.37,301.87,0.0,0.0
1526667828.44334412,50170757,-0.23,-0.61,-0.71,357.902893066,-10.07,-9.88,301.37,301.66,0.0,0.0
1526667828.54330397,50270717,-0.1,-0.61,-0.55,334.152496338,-9.19,-9.92,301.37,301.48,0.0,0.0
1526667828.64326406,50370677,0.03,-0.67,-0.36,336.537353516,-7.11,-9.57,301.37,301.32,0.0,0.01
1526667828.74322414,50470637,0.15,-0.71,-0.17,436.502380371,-6.36,-8.83,301.37,301.17,0.0,0.02
1526667828.84401703,50571430,0.28,-0.63,0.01,628.318054199,-6.03,-8.0,301.37,300.98,0.0,0.02
1526667828.94397712,50671390,0.41,-0.46,0.18,832.172729492,-5.85,-7.26,301.37,300.88,0.0,0.03
1526667829.04393697,50771350,0.49,-0.25,0.33,994.457702637,-5.83,-6.67,301.37,300.9,0.0,0.03
1526667829.14389706,50871310,0.56,-0.06,0.46,1105.42614746,-5.83,-6.24,301.37,301.02,0.0,0.03
1526667829.24385715,50971270,0.61,0.17,0.55,1157.55285645,-5.93,-5.95,301.37,301.13,0.0,0.02
1526667829.34381700,51071230,0.61,0.39,0.61,1145.50805664,-6.15,-5.83,301.37,301.19,0.0,0.02
1526667829.44377708,51171190,0.59,0.51,0.64,1110.35009766,-6.46,-5.89,301.37,301.24,0.0,0.01
1526667829.54373717,51271150,0.53,0.63,0.64,1066.93713379,-6.62,-6.01,301.37,301.34,0.0,0.01
1526667829.64369702,51371110,0.46,0.63,0.6,1024.34814453,-6.88,-6.17,301.37,301.51,0.0,0.01
1526667829.74365711,51471070,0.36,0.66,0.54,986.710510254,-7.06,-6.38,301.37,301.68,0.0,0.01
1526667829.84361696,51571030,0.26,0.65,0.45,268.285003662,-7.31,-6.69,301.37,301.83,0.0,0.0
1526667829.94357705,51670990,0.16,0.59,0.35,374.062896729,-7.49,-7.0,301.37,301.89,0.0,0.0
1526667830.04353714,51770950,0.07,0.49,0.24,446.734710693,-7.65,-7.25,301.37,301.88,0.0,0.0
1526667830.14349699,51870910,-0.01,0.39,0.12,502.653320312,-7.77,-7.49,301.37,301.91,0.0,0.0
1526667830.24345708,51970870,-0.06,0.29,0.02,542.293640137,-7.83,-7.69,301.37,301.92,0.0,0.0
1526667830.34341717,52070830,-0.1,0.16,-0.05,551.523864746,-7.89,-7.88,301.37,301.89,0.0,0.0
1526667830.44337702,52170790,-0.13,0.05,-0.12,526.242004395,-7.86,-8.04,301.37,301.83,0.0,0.0
1526667830.54333711,52270750,-0.14,-0.08,-0.16,483.743713379,-7.86,-8.15,301.37,301.74,0.0,0.0
1526667830.64329696,52370710,-0.12,-0.25,-0.18,432.089874268,-7.93,-8.19,301.37,301.62,0.0,0.0
1526667830.74325705,52470670,-0.07,-0.36,-0.18,404.767211914,-7.97,-8.13,301.37,301.53,0.0,0.0
1526667830.84321713,52570630,0.01,-0.39,-0.15,410.939880371,-8.04,-8.03,301.37,301.37,0.0,0.0
1526667830.94401002,52671423,0.11,-0.27,-0.09,411.847198486,-8.08,-7.95,301.37,301.18,0.0,0.0
1526667831.04397011,52771383,0.22,-0.09,-0.01,391.777770996,-8.07,-7.92,301.37,301.03,0.0,0.01
1526667831.14392996,52871343,0.29,0.08,0.08,365.131561279,-8.1,-7.93,301.37,300.95,0.0,0.01
1526667831.24389005,52971303,0.36,0.22,0.18,340.966278076,-8.15,-7.93,301.37,300.84,0.0,0.01
1526667831.34385014,53071263,0.38,0.33,0.28,321.313262939,-8.2,-7.97,301.37,300.73,0.0,0.01
1526667831.44380999,53171223,0.38,0.37,0.35,302.899291992,-8.2,-7.99,301.37,300.68,0.0,0.01
1526667831.54377007,53271183,0.36,0.43,0.4,286.151031494,-8.27,-7.99,301.37,300.67,0.0,0.01
1526667831.64373016,53371143,0.3,0.47,0.41,271.958953857,-8.35,-8.06,301.37,300.75,0.0,0.01
1526667831.74369001,53471103,0.24,0.52,0.4,262.365356445,-8.33,-8.17,301.37,300.82,0.0,0.01
1526667831.84365010,53571063,0.17,0.54,0.35,260.9793396,-8.36,-8.25,301.37,300.89,0.0,0.01
1526667831.94360995,53671023,0.09,0.51,0.28,268.519073486,-8.4,-8.37,301.37,300.97,0.0,0.0
1526667832.04357004,53770983,0.03,0.46,0.2,280.767791748,-8.36,-8.48,301.37,301.02,0.0,0.0
1526667832.14353013,53870943,-0.02,0.38,0.11,297.966766357,-8.42,-8.52,301.37,301.07,0.0,0.0
1526667832.24348998,53970903,-0.04,0.3,0.03,314.065155029,-8.39,-8.55,301.37,301.13,0.0,0.0
1526667832.34345007,54070863,-0.08,0.2,-0.02,324.360748291,-8.42,-8.57,301.37,301.26,0.0,0.0
1526667832.44341016,54170823,-0.11,0.07,-0.08,388.131347656,-8.44,-8.61,301.37,301.4,0.0,0.0
1526667832.54337001,54270783,-0.15,-0.08,-0.12,242.536773682,-8.42,-8.67,301.37,301.59,0.0,0.0
1526667832.64333010,54370743,-0.17,-0.24,-0.15,168.76713562,-8.46,-8.69,301.37,301.77,0.0,0.0
1526667832.74328995,54470703,-0.16,-0.31,-0.17,160.987869263,-8.43,-8.67,301.37,301.88,0.0,0.0
1526667832.84325004,54570663,-0.09,-0.35,-0.17,180.07208252,-8.45,-8.67,301.37,301.95,0.0,0.0
1526667832.94321012,54670623,-0.02,-0.39,-0.15,223.110565186,-8.37,-8.63,301.37,302.0,0.0,0.0
1526667833.04400301,54771416,0.04,-0.37,-0.1,279.854217529,-8.41,-8.58,301.37,302.01,0.0,0.0
1526667833.14396310,54871376,0.13,-0.32,-0.04,335.782684326,-8.42,-8.5,301.37,302.0,0.0,0.01
1526667833.24392295,54971336,0.23,-0.18,0.03,369.158935547,-8.43,-8.41,301.37,301.88,0.0,0.01
1526667833.34388304,55071296,0.29,-0.02,0.12,364.294372559,-8.4,-8.35,301.37,301.76,0.0,0.01
1526667833.44384313,55171256,0.34,0.12,0.21,345.773010254,-8.44,-8.38,301.37,301.62,0.0,0.01
1526667833.54380298,55271216,0.37,0.17,0.29,325.027984619,-8.49,-8.44,301.37,301.46,0.0,0.0
1526667833.64376307,55371176,0.38,0.22,0.35,316.353546143,-8.48,-8.43,301.37,301.35,0.0,0.0
1526667833.74372315,55471136,0.4,0.36,0.4,299.56942749,-8.45,-8.52,301.37,301.24,0.0,0.0
1526667833.84368300,55571096,0.43,0.41,0.42,280.082122803,-8.51,-8.62,301.37,301.12,0.0,0.0
1526667833.94364309,55671056,0.43,0.45,0.44,262.672546387,-8.51,-8.64,301.37,301.04,0.0,0.0
1526667834.04360294,55771016,0.43,0.46,0.45,247.269042969,-8.49,-8.58,301.37,301.03,0.0,0.0
1526667834.14356303,55870976,0.41,0.45,0.44,233.543228149,-8.48,-8.53,301.37,301.08,0.0,0.01
1526667834.24352312,55970936,0.43,0.46,0.43,221.476608276,-8.56,-8.5,301.37,301.02,0.0,0.0
1526667834.34348297,56070896,0.45,0.47,0.43,210.585144043,-8.57,-8.46,301.37,301.01,0.0,0.0
1526667834.44344306,56170856,0.43,0.49,0.42,201.75177002,-8.58,-8.43,301.37,301.03,0.0,0.0
1526667834.54340315,56270816,0.4,0.5,0.41,195.109237671,-8.64,-8.4,301.37,301.06,0.0,0.0
1526667834.64336300,56370776,0.35,0.49,0.4,189.516586304,-8.69,-8.38,301.37,301.05,0.0,0.0
1526667834.74332309,56470736,0.32,0.48,0.37,185.226425171,-8.77,-8.4,301.37,301.02,0.0,0.0
1526667834.84328318,56570696,0.24,0.47,0.34,183.648773193,-8.73,-8.45,301.37,301.01,0.0,0.0
1526667834.94324303,56670656,0.18,0.44,0.29,182.98765564,-8.76,-8.53,301.37,301.09,0.0,0.0
1526667835.04403615,56771449,0.14,0.43,0.24,272.10369873,-8.78,-8.59,301.37,301.21,0.0,0.0
1526667835.14399600,56871409,0.11,0.42,0.19,346.377258301,-8.76,-8.67,301.37,301.31,0.0,0.0
1526667835.24395609,56971369,0.06,0.4,0.14,432.81137085,-8.77,-8.78,301.37,301.37,0.0,0.0
1526667835.34391618,57071329,0.0,0.32,0.09,474.998596191,-8.86,-8.86,301.37,301.42,0.0,0.0
1526667835.44387603,57171289,0.0,0.22,0.04,466.401062012,-8.86,-8.9,301.37,301.47,0.0,0.0
1526667835.54383612,57271249,-0.02,0.08,0.01,415.219390869,-8.89,-8.96,301.37,301.58,0.0,0.0
1526667835.64379597,57371209,-0.06,-0.05,-0.01,357.801818848,-8.9,-8.99,301.37,301.68,0.0,0.0
1526667835.74375606,57471169,-0.09,-0.21,-0.04,326.682250977,-8.92,-8.98,301.37,301.8,0.0,0.0
1526667835.84371614,57571129,-0.07,-0.36,-0.06,355.477355957,-8.86,-8.94,301.37,301.85,0.0,0.0
1526667835.94367599,57671089,-0.01,-0.4,-0.06,426.511047363,-8.86,-8.85,301.37,301.84,0.0,0.0
1526667836.04363608,57771049,0.06,-0.38,-0.04,492.627258301,-8.89,-8.79,301.37,301.84,0.0,0.0
1526667836.14359617,57871009,0.14,-0.3,0.0,532.70489502,-8.88,-8.74,301.37,301.88,0.0,0.0
1526667836.24355602,57970969,0.2,-0.23,0.05,556.835327148,-8.93,-8.73,301.37,301.91,0.0,0.0
1526667836.34351611,58070929,0.26,-0.12,0.12,568.703430176,-8.91,-8.76,301.37,301.85,0.0,0.0
1526667836.44347596,58170889,0.33,0.02,0.19,560.061218262,-8.92,-8.81,301.37,301.84,0.0,0.0
1526667836.54343605,58270849,0.37,0.13,0.27,540.569702148,-8.99,-8.88,301.37,301.79,0.0,0.0
1526667836.64339614,58370809,0.4,0.22,0.33,519.108886719,-8.97,-8.93,301.37,301.71,0.0,0.0
1526667836.74335599,58470769,0.43,0.28,0.39,497.677734375,-8.98,-8.91,301.37,301.58,0.0,0.0
1526667836.84331608,58570729,0.47,0.31,0.44,479.520111084,-8.98,-8.86,301.37,301.45,0.0,0.0
1526667836.94327617,58670689,0.49,0.34,0.47,464.768920898,-8.89,-8.82,301.37,301.36,0.0,0.0
1526667837.04323602,58770649,0.49,0.41,0.5,448.952911377,-8.93,-8.78,301.37,301.24,0.0,0.0
1526667837.14402914,58871442,0.5,0.49,0.51,430.600982666,-9.0,-8.8,301.37,301.03,0.0,0.0
1526667837.24398899,58971402,0.49,0.57,0.51,412.173034668,-8.98,-8.86,301.37,300.9,0.0,0.0
1526667837.34394908,59071362,0.52,0.61,0.51,397.651306152,-9.01,-8.9,301.37,300.79,0.0,0.0
1526667837.44390917,59171322,0.53,0.56,0.51,384.039886475,-9.0,-9.0,301.37,300.73,0.0,0.0
1526667837.54386902,59271282,0.53,0.55,0.51,369.705932617,-9.04,-9.11,301.37,300.67,0.0,0.0
1526667837.64382911,59371242,0.51,0.51,0.51,5.10746908188,-9.05,-9.16,301.37,300.72,0.0,0.0
1526667837.74378896,59471202,0.51,0.47,0.51,9.83840370178,-8.99,-9.12,301.37,300.8,0.0,0.0
1526667837.84374905,59571162,0.48,0.52,0.5,8.63074684143,-9.0,-9.05,301.37,300.91,0.0,0.0
1526667837.94370914,59671122,0.44,0.55,0.49,10.8166618347,-9.06,-8.99,301.37,301.08,0.0,0.0
1526667838.04366899,59771082,0.4,0.57,0.46,21.4967823029,-9.05,-8.94,301.37,301.25,0.0,0.0
1526667838.14362907,59871042,0.34,0.58,0.43,42.3657608032,-9.01,-8.95,301.37,301.37,0.0,0.0
1526667838.24358916,59971002,0.25,0.55,0.39,69.7425231934,-9.03,-8.96,301.37,301.43,0.0,0.0
1526667838.34354901,60070962,0.2,0.52,0.33,94.1202468872,-9.06,-9.03,301.37,301.43,0.0,0.0
1526667838.44350910,60170922,0.15,0.49,0.27,131.655838013,-9.1,-9.13,301.37,301.47,0.0,0.0
1526667838.54346895,60270882,0.08,0.43,0.21,165.69732666,-9.09,-9.25,301.37,301.57,0.0,0.0
1526667838.64342904,60370842,0.02,0.3,0.14,181.857681274,-9.05,-9.37,301.37,301.68,0.0,0.0
1526667838.74338913,60470802,-0.01,0.15,0.08,177.148223877,-9.01,-9.41,301.37,301.72,0.0,0.0
1526667838.84334898,60570762,-0.02,0.01,0.03,164.259460449,-8.66,-9.36,301.37,301.68,0.0,0.0
1526667838.94330907,60670722,0.0,-0.15,0.0,157.087341309,-8.13,-9.2,301.37,301.59,0.0,0.0
1526667839.04326916,60770682,0.09,-0.32,-0.01,182.225479126,-7.51,-8.85,301.37,301.45,0.0,0.0
1526667839.14322901,60870642,0.2,-0.41,0.01,257.758209229,-6.83,-8.36,301.37,301.35,0.0,0.0
1526667839.24402213,60971435,0.31,-0.41,0.07,369.011657715,-6.05,-7.77,301.37,301.27,0.0,0.0
1526667839.34398198,61071395,0.45,-0.34,0.17,491.387512207,-5.27,-7.07,301.37,301.19,0.0,0.01
1526667839.44394207,61171355,0.59,-0.19,0.29,597.134765625,-4.42,-6.32,301.37,301.14,0.0,0.02
1526667839.54390216,61271315,0.72,-0.05,0.43,682.690063477,-3.53,-5.57,301.37,301.11,0.0,0.02
1526667839.64386201,61371275,0.82,0.07,0.58,767.050598145,-2.62,-4.76,301.37,301.08,0.0,0.02
1526667839.74382210,61471235,0.9,0.19,0.72,855.602416992,-1.41,-3.93,301.37,300.98,0.0,0.02
1526667839.84378195,61571195,0.99,0.31,0.84,942.163085938,-0.15,-2.95,117.31,300.87,0.0,0.02
1526667839.94374204,61671155,1.06,0.47,0.95,1012.4440918,0.74,-1.85,117.31,301.19,0.0,0.03
1526667840.04370213,61771115,1.14,0.66,1.04,1050.06921387,1.45,-0.79,117.31,302.3,0.0,0.04
1526667840.14366198,61871075,1.18,0.82,1.12,1055.71398926,2.12,0.13,117.31,304.12,0.0,0.05
1526667840.24362206,61971035,1.18,0.98,1.17,629.126098633,2.83,0.95,117.31,306.4,0.0,0.05
1526667840.34358215,62070995,1.2,1.11,1.2,417.703918457,3.26,1.65,117.31,309.09,0.0,0.05
1526667840.44354200,62170955,1.23,1.23,1.22,292.606750488,3.14,2.22,117.31,312.11,0.0,0.05
1526667840.54350209,62270915,1.21,1.39,1.23,241.503448486,2.71,2.61,117.31,315.31,0.0,0.05
1526667840.64346194,62370875,1.14,1.54,1.22,316.91607666,2.09,2.78,117.31,318.69,0.0,0.05
1526667840.74342203,62470835,1.1,1.66,1.19,529.262268066,1.62,2.69,117.31,322.3,0.0,0.05
1526667840.84338212,62570795,1.15,1.65,1.15,797.720214844,1.47,2.39,117.31,325.96,0.0,0.04
1526667840.94334197,62670755,1.26,1.62,1.14,995.057250977,1.44,2.13,117.31,329.68,0.0,0.01
1526667841.04330206,62770715,1.42,1.64,1.16,1126.25390625,1.51,1.95,117.31,333.49,0.0,0.01
1526667841.14326215,62870675,1.67,1.67,1.24,1218.70410156,1.58,1.78,117.31,337.29,0.0,0.01
1526667841.24322200,62970635,1.93,1.68,1.39,1222.20654297,1.71,1.66,117.31,341.13,0.0,0.01
1526667841.34401512,63071428,2.29,1.66,1.6,1148.75134277,1.83,1.7,117.31,344.96,0.0,0.02
1526667841.44397497,63171388,2.76,1.8,1.89,1062.18359375,1.87,1.88,117.31,348.86,0.0,0.05
1526667841.54393506,63271348,3.28,2.1,2.26,998.983398438,1.82,1.99,117.31,352.72,0.0,0.05
1526667841.64389515,63371308,3.82,2.48,2.71,962.144897461,1.73,2.03,117.31,356.61,0.0,0.06
1526667841.74385500,63471268,4.38,2.92,3.22,947.176574707,1.55,2.02,117.31,0.46,0.0,0.06
1526667841.84381509,63571228,4.94,3.45,3.78,955.306091309,1.31,1.97,117.31,4.36,0.0,0.06
1526667841.94377518,63671188,5.48,3.99,4.36,969.1328125,0.98,1.82,117.31,8.18,0.0,0.06
1526667842.04373503,63771148,5.93,4.5,4.93,1005.37097168,0.6,1.61,117.31,11.97,0.0,0.06
1526667842.14369512,63871108,6.22,5.03,5.47,1051.90979004,0.15,1.29,117.31,15.74,0.0,0.06
1526667842.24365497,63971068,6.25,5.49,5.91,1093.07006836,-0.34,0.93,117.31,19.53,0.0,0.06
1526667842.34361506,64071028,6.18,5.87,6.2,1109.43164062,-0.81,0.53,117.31,23.36,0.0,0.06
1526667842.44357514,64170988,6.1,6.09,6.34,1099.40649414,-1.26,0.08,117.31,27.17,0.0,0.06
1526667842.54353499,64270948,5.98,6.21,6.36,1072.88598633,-1.71,-0.43,117.31,31.0,0.0,0.06
1526667842.64349508,64370908,5.85,6.26,6.27,1033.86621094,-2.14,-0.94,117.31,34.86,0.0,0.05
1526667842.74345517,64470868,5.73,6.23,6.11,995.612915039,-2.55,-1.47,117.31,38.66,0.0,0.05
1526667842.84341502,64570828,5.61,6.15,5.91,320.964385986,-2.93,-1.93,117.31,42.44,0.0,0.05
1526667842.94337511,64670788,5.48,6.01,5.71,507.499176025,-3.31,-2.39,117.31,46.28,0.0,0.03
1526667843.04333496,64770748,5.33,5.88,5.51,684.799133301,-3.72,-2.84,117.31,50.2,0.0,0.02
1526667843.14329505,64870708,5.18,5.73,5.33,888.706726074,-4.11,-3.28,117.31,54.15,0.0,0.01
1526667843.24325514,64970668,4.99,5.56,5.16,1027.53393555,-4.47,-3.66,117.31,58.1,0.0,0.01
1526667843.34321499,65070628,4.88,5.37,5.0,1112.59265137,-4.92,-4.04,117.31,62.08,0.0,0.01
1526667843.44400811,65171421,4.91,5.15,4.88,1095.58703613,-5.53,-4.43,117.31,66.14,0.0,0.01
1526667843.54396796,65271381,4.99,5.02,4.83,1020.25067139,-6.24,-4.83,117.31,70.21,0.0,0.06
1526667843.64392805,65371341,4.98,5.0,4.82,938.745483398,-7.01,-5.25,117.31,74.35,0.0,0.06
1526667843.74388814,65471301,4.87,5.02,4.84,873.684143066,-7.86,-5.78,117.31,78.44,0.0,0.07
1526667843.84384799,65571261,4.62,5.01,4.84,818.600585938,-8.73,-6.46,117.31,82.52,0.0,0.07
1526667843.94380808,65671221,4.25,4.88,4.78,764.895874023,-9.57,-7.25,117.31,86.59,0.0,0.07
1526667844.04376817,65771181,3.74,4.62,4.61,708.3046875,-10.35,-8.1,117.31,90.67,0.0,0.08
1526667844.14372802,65871141,3.11,4.3,4.32,657.989135742,-11.07,-8.88,117.31,94.71,0.0,0.07
1526667844.24368811,65971101,2.4,3.88,3.88,614.383483887,-11.71,-9.71,117.31,98.71,0.0,0.08
1526667844.34364796,66071061,1.6,3.33,3.31,576.09777832,-12.27,-10.52,117.31,102.74,0.0,0.08
1526667844.44360805,66171021,0.71,2.61,2.61,542.268981934,-12.73,-11.23,117.31,106.83,0.0,0.08
1526667844.54356813,66270981,-0.25,1.78,1.8,512.210998535,-13.11,-11.83,117.31,110.9,0.0,0.07
1526667844.64352798,66370941,-1.2,0.75,0.89,488.654571533,-13.38,-12.38,117.31,114.78,0.0,0.07
1526667844.74348807,66470901,-2.05,-0.38,-0.06,493.183074951,-13.58,-12.87,117.31,118.18,0.0,0.07
1526667844.84344816,66570861,-2.67,-1.56,-0.99,561.264831543,-13.68,-13.28,117.31,120.84,0.0,0.06
1526667844.94340801,66670821,-3.03,-2.71,-1.83,778.646728516,-13.61,-13.56,117.31,122.71,0.0,0.05
1526667845.04336810,66770781,-3.1,-3.63,-2.5,1190.22241211,-13.47,-13.57,117.31,123.69,0.0,0.03
1526667845.14332795,66870741,-2.87,-4.21,-2.92,1760.21179199,-13.36,-13.5,117.31,123.88,0.0,0.01
1526667845.24328804,66970701,-2.41,-4.41,-3.06,2385.18579102,-13.3,-13.35,117.31,123.45,0.0,0.0
1526667845.34324813,67070661,-1.8,-4.23,-2.91,2979.88330078,-13.29,-13.17,117.31,122.55,0.0,0.01
1526667845.44320798,67170621,-1.09,-3.73,-2.49,16214.9394531,-13.31,-13.01,117.31,121.34,0.0,0.02
1526667845.54400110,67271414,-0.36,-2.96,-1.86,14858.9091797,-13.34,-12.84,117.31,120.07,0.0,0.02
1526667845.64396095,67371374,0.32,-2.01,-1.09,13225.2216797,-13.45,-12.76,117.31,118.91,0.0,0.02
1526667845.74392104,67471334,0.88,-1.04,-0.27,11618.1484375,-13.58,-12.8,117.31,117.85,0.0,0.01
1526667845.84388113,67571294,1.34,-0.19,0.52,10367.9414062,-13.73,-12.92,117.31,116.93,0.0,0.01
1526667845.94384098,67671254,1.63,0.6,1.22,9403.60449219,-13.9,-13.09,117.31,116.22,0.0,0.0
1526667846.04380107,67771214,1.78,1.25,1.78,8520.9921875,-14.07,-13.33,117.31,115.7,0.0,0.0
1526667846.14376116,67871174,1.76,1.69,2.15,7763.09912109,-14.25,-13.58,117.31,115.54,0.0,0.0
1526667846.24372101,67971134,1.65,1.94,2.33,7104.69921875,-14.4,-13.83,117.31,115.5,0.0,0.0
1526667846.34368110,68071094,1.43,2.08,2.32,6499.19042969,-14.55,-14.05,117.31,115.65,0.0,0.0
1526667846.44364095,68171054,1.14,2.07,2.15,5934.09130859,-14.68,-14.26,117.31,115.94,0.0,0.01
1526667846.54360104,68271014,0.8,1.89,1.86,5441.63232422,-14.82,-14.51,117.31,116.41,0.0,0.01
1526667846.64356112,68370974,0.46,1.62,1.47,5029.37109375,-14.96,-14.77,117.31,116.87,0.0,0.01
1526667846.74352098,68470934,0.12,1.27,1.03,4701.05859375,-15.08,-15.07,117.31,117.35,0.0,0.01
1526667846.84348106,68570894,-0.18,0.77,0.58,4418.75878906,-15.16,-15.26,117.31,117.82,0.0,0.01
1526667846.94344115,68670854,-0.43,0.35,0.16,4163.60058594,-15.2,-15.39,117.31,118.1,0.0,0.01
1526667847.04340100,68770814,-0.55,-0.05,-0.2,3935.12719727,-15.22,-15.47,117.31,118.18,0.0,0.01
1526667847.14336109,68870774,-0.55,-0.35,-0.48,3729.56982422,-14.02,-15.43,117.31,118.15,0.0,0.0
1526667847.24332094,68970734,-0.47,-0.67,-0.64,3536.16308594,-12.95,-15.08,117.31,118.05,0.0,0.01
1526667847.34328103,69070694,-0.36,-0.9,-0.68,3368.53222656,-12.55,-14.46,117.31,117.9,0.0,0.01
1526667847.44324112,69170654,-0.21,-1.0,-0.63,3250.48950195,-12.48,-13.77,117.31,117.76,0.0,0.02
1526667847.54403400,69271447,-0.06,-0.92,-0.49,3180.13671875,-12.51,-13.19,117.31,117.72,0.0,0.02
1526667847.64399409,69371407,0.08,-0.69,-0.3,3117.4206543,-12.68,-12.81,117.31,117.71,0.0,0.01
1526667847.74395394,69471367,0.23,-0.43,-0.09,3039.54736328,-12.88,-12.62,117.31,117.66,0.0,0.0
1526667847.84391403,69571327,0.37,-0.18,0.12,2960.29321289,-13.11,-12.58,117.31,117.62,0.0,0.0
1526667847.94387412,69671287,0.47,0.06,0.32,2876.93041992,-13.4,-12.69,117.31,117.56,0.0,0.0
1526667848.04383397,69771247,0.53,0.27,0.49,619.973510742,-13.72,-12.87,117.31,117.47,0.0,0.0
1526667848.14379406,69871207,0.57,0.48,0.62,495.468017578,-13.97,-13.08,117.31,117.34,0.0,0.0
1526667848.24375415,69971167,0.6,0.64,0.71,368.823547363,-14.2,-13.32,117.31,117.23,0.0,0.0
1526667848.34371400,70071127,0.58,0.75,0.75,280.405792236,-14.49,-13.59,117.31,117.14,0.0,0.0
1526667848.44367409,70171087,0.53,0.8,0.75,225.677658081,-14.86,-13.91,117.31,117.13,0.0,0.0
1526667848.54363418,70271047,0.45,0.77,0.71,193.075668335,-15.03,-14.27,117.31,117.24,0.0,0.01
1526667848.64359403,70371007,0.33,0.72,0.63,171.163803101,-15.26,-14.56,117.31,117.39,0.0,0.01
1526667848.74355412,70470967,0.23,0.67,0.53,166.629165649,-15.41,-14.85,117.31,117.47,0.0,0.0
1526667848.84351397,70570927,0.16,0.61,0.41,176.983978271,-15.41,-15.1,117.31,117.52,0.0,0.0
1526667848.94347405,70670887,0.07,0.49,0.29,197.449310303,-15.49,-15.35,117.31,117.62,0.0,0.0
1526667849.04343414,70770847,-0.01,0.35,0.18,211.875152588,-15.44,-15.55,117.31,117.8,0.0,0.0
1526667849.14339399,70870807,-0.06,0.15,0.07,206.231384277,-15.47,-15.71,117.31,117.94,0.0,0.0
1526667849.24335408,70970767,-0.09,-0.06,-0.01,191.516418457,-15.46,-15.8,117.31,118.0,0.0,0.0
1526667849.34331417,71070727,-0.06,-0.17,-0.06,182.177719116,-15.44,-15.8,117.31,117.89,0.0,0.0
1526667849.44327402,71170687,-0.01,-0.29,-0.09,185.513626099,-15.45,-15.73,117.31,117.76,0.0,0.01
1526667849.54323411,71270647,0.13,-0.34,-0.07,212.489715576,-15.4,-15.59,117.31,117.44,0.0,0.01
1526667849.64402699,71371440,0.31,-0.21,0.0,233.468475342,-15.39,-15.46,117.31,117.03,0.0,0.01
1526667849.74398708,71471400,0.46,-0.08,0.12,244.120635986,-15.26,-15.36,117.31,116.82,0.0,0.0
1526667849.84394717,71571360,0.59,0.08,0.26,252.582199097,-15.16,-15.3,117.31,116.65,0.0,0.0
1526667849.94390702,71671320,0.7,0.25,0.43,256.142456055,-15.13,-15.29,117.31,116.49,0.0,0.0
1526667850.04386711,71771280,0.75,0.38,0.58,261.072540283,-15.19,-15.27,117.31,116.48,0.0,0.0
1526667850.14382696,71871240,0.75,0.48,0.71,270.974517822,-15.35,-15.24,117.31,116.54,0.0,0.0
1526667850.24378705,71971200,0.71,0.59,0.79,281.025695801,-15.29,-15.18,117.31,116.77,0.0,0.0
1526667850.34374714,72071160,0.62,0.68,0.82,282.142852783,-15.22,-15.15,117.31,117.08,0.0,0.0
1526667850.44370699,72171120,0.5,0.62,0.8,281.479614258,-15.27,-15.17,117.31,117.48,0.0,0.0
1526667850.54366708,72271080,0.38,0.52,0.72,285.659759521,-15.21,-15.22,117.31,117.86,0.0,0.0
1526667850.64362717,72371040,0.27,0.47,0.6,281.531646729,-15.33,-15.24,117.31,118.09,0.0,0.0
1526667850.74358702,72471000,0.18,0.4,0.47,199.782867432,-15.42,-15.33,117.31,118.22,0.0,0.0
1526667850.84354711,72570960,0.15,0.28,0.33,146.05519104,-15.44,-15.42,117.31,118.19,0.0,0.0
1526667850.94350696,72670920,0.15,0.16,0.22,117.999473572,-15.48,-15.48,117.31,118.06,0.0,0.0
1526667851.04346704,72770880,0.17,0.06,0.15,107.108772278,-15.46,-15.44,117.31,117.92,0.0,0.0
1526667851.14342713,72870840,0.23,0.0,0.11,106.339477539,-15.48,-15.41,117.31,117.75,0.0,0.0
1526667851.24338698,72970800,0.27,-0.01,0.11,114.149536133,-15.48,-15.39,117.31,117.64,0.0,0.0
1526667851.34334707,73070760,0.28,0.02,0.15,122.996177673,-15.55,-15.4,117.31,117.59,0.0,0.01
1526667851.44330716,73170720,0.32,0.14,0.19,120.952552795,-15.6,-15.44,117.31,117.55,0.0,0.01
1526667851.54326701,73270680,0.35,0.3,0.25,109.66091156,-15.5,-15.5,117.31,117.53,0.0,0.01
1526667851.64322710,73370640,0.41,0.44,0.31,107.449867249,-15.41,-15.53,117.31,117.4,0.0,0.01
1526667851.74401999,73471433,0.45,0.58,0.37,121.683174133,-15.47,-15.57,117.31,117.15,0.0,0.01
1526667851.84398007,73571393,0.48,0.68,0.43,150.631912231,-15.4,-15.65,117.31,116.93,0.0,0.0
1526667851.94394016,73671353,0.51,0.67,0.48,175.910430908,-15.41,-15.69,117.31,116.72,0.0,0.0
1526667852.04390001,73771313,0.52,0.63,0.52,179.726776123,-15.39,-15.67,117.31,116.64,0.0,0.0
1526667852.14386010,73871273,0.49,0.54,0.54,170.927307129,-15.47,-15.6,117.31,116.67,0.0,0.0
1526667852.24381995,73971233,0.49,0.45,0.55,164.058151245,-15.51,-15.56,117.31,116.76,0.0,0.0
1526667852.34378004,74071193,0.48,0.39,0.54,164.338973999,-15.55,-15.53,117.31,116.88,0.0,0.0
1526667852.44374013,74171153,0.45,0.34,0.53,172.400344849,-15.56,-15.45,117.31,117.04,0.0,0.0
1526667852.54369998,74271113,0.42,0.32,0.5,182.16355896,-15.57,-15.38,117.31,117.2,0.0,0.0
1526667852.64366007,74371073,0.39,0.3,0.47,189.36605835,-15.56,-15.32,117.31,117.38,0.0,0.0
1526667852.74362016,74471033,0.36,0.34,0.44,189.635726929,-15.57,-15.31,117.31,117.59,0.0,0.0
1526667852.84358001,74570993,0.33,0.37,0.4,183.203216553,-15.6,-15.37,117.31,117.73,0.0,0.0
1526667852.94354010,74670953,0.27,0.28,0.36,177.189788818,-15.6,-15.42,117.31,117.9,0.0,0.0
1526667853.04349995,74770913,0.25,0.2,0.32,175.367950439,-15.67,-15.45,117.31,117.99,0.0,0.0
1526667853.14346004,74870873,0.24,0.18,0.28,173.816726685,-15.69,-15.47,117.31,118.04,0.0,0.0
1526667853.24342012,74970833,0.25,0.19,0.26,84.097618103,-15.73,-15.54,117.31,118.06,0.0,0.0
1526667853.34337997,75070793,0.31,0.19,0.25,60.253944397,-15.74,-15.55,117.31,117.98,0.0,0.0
1526667853.44334006,75170753,0.36,0.23,0.26,47.3419647217,-15.8,-15.62,117.31,117.87,0.0,0.01
1526667853.54330015,75270713,0.4,0.34,0.29,36.8557472229,-15.77,-15.73,117.31,117.69,0.0,0.01
1526667853.64326000,75370673,0.43,0.43,0.34,40.0819473267,-15.66,-15.84,117.31,117.59,0.0,0.01
1526667853.74322009,75470633,0.44,0.49,0.38,50.6780281067,-15.58,-15.92,117.31,117.54,0.0,0.01
1526667853.84401298,75571426,0.42,0.54,0.42,59.9479789734,-15.66,-15.91,117.31,117.52,0.0,0.01
1526667853.94397306,75671386,0.42,0.58,0.44,70.8454284668,-15.66,-15.89,117.31,117.44,0.0,0.0
1526667854.04393315,75771346,0.4,0.6,0.45,83.8981628418,-15.55,-15.88,117.31,117.36,0.0,0.0
1526667854.14389300,75871306,0.41,0.62,0.45,97.0452041626,-15.52,-15.93,117.31,117.25,0.0,0.0
1526667854.24385309,75971266,0.42,0.63,0.45,113.348136902,-15.55,-15.97,117.31,117.11,0.0,0.0
1526667854.34381294,76071226,0.42,0.57,0.45,122.712272644,-15.57,-15.96,117.31,116.98,0.0,0.0
1526667854.44377303,76171186,0.41,0.5,0.44,119.717216492,-15.57,-15.91,117.31,116.98,0.0,0.0
1526667854.54373312,76271146,0.38,0.39,0.43,111.734542847,-15.59,-15.85,117.31,117.1,0.0,0.0
1526667854.64369297,76371106,0.34,0.27,0.41,109.365257263,-15.51,-15.76,117.31,117.27,0.0,0.0
1526667854.74365306,76471066,0.29,0.09,0.39,136.414321899,-15.52,-15.67,117.31,117.46,0.0,0.0
1526667854.84361315,76571026,0.26,-0.03,0.35,199.880508423,-15.57,-15.62,117.31,117.64,0.0,0.0
1526667854.94357300,76670986,0.25,-0.08,0.32,276.582855225,-15.63,-15.5,117.31,117.79,0.0,0.0
1526667855.04353309,76770946,0.26,-0.08,0.29,339.81427002,-15.62,-15.39,117.31,117.9,0.0,0.0
1526667855.14349318,76870906,0.31,-0.01,0.27,377.203491211,-15.55,-15.32,117.31,117.87,0.0,0.0
1526667855.24345303,76970866,0.37,0.11,0.28,385.87612915,-15.68,-15.26,117.31,117.74,0.0,0.0
1526667855.34341311,77070826,0.42,0.24,0.3,374.903900146,-15.79,-15.28,117.31,117.61,0.0,0.0
1526667855.44337296,77170786,0.5,0.38,0.35,358.979309082,-15.73,-15.33,117.31,117.39,0.0,0.01
1526667855.54333305,77270746,0.57,0.52,0.41,347.106933594,-15.68,-15.42,307.45,117.23,0.0,0.01
1526667855.64329314,77370706,0.76,0.03,0.49,351.483947754,-12.23,-15.63,307.45,116.76,0.0,0.0
1526667855.74325299,77470666,1.05,-0.78,0.62,706.637023926,-10.09,-14.9,307.45,115.59,0.0,0.02
1526667855.84321308,77570626,1.49,-1.33,0.82,33450.3046875,-8.9,-13.43,307.45,113.81,0.0,0.05
1526667855.94400597,77671419,2.08,-1.33,1.11,44139.25,-8.03,-11.69,307.45,111.54,0.0,0.07
1526667856.04396605,77771379,2.8,-0.82,1.52,49046.0859375,-7.41,-10.04,307.45,108.94,0.0,0.07
1526667856.14392614,77871339,3.58,0.07,2.07,48790.4414062,-6.88,-8.6,307.45,106.0,0.0,0.08
1526667856.24388599,77971299,4.33,1.19,2.73,45346.0742188,-6.45,-7.5,307.45,102.77,0.0,0.08
1526667856.34384608,78071259,5.0,2.31,3.46,40803.1914062,-6.06,-6.66,307.45,99.4,0.0,0.07
1526667856.44380617,78171219,5.56,3.39,4.21,36348.6757812,-5.71,-6.08,307.45,95.95,0.0,0.07
1526667856.54376602,78271179,6.01,4.34,4.92,32406.8691406,-5.34,-5.66,307.45,92.37,0.0,0.06
1526667856.64372611,78371139,6.33,5.13,5.55,29082.40625,-4.93,-5.35,307.45,88.71,0.0,0.06
1526667856.74368596,78471099,6.52,5.78,6.07,26300.6230469,-4.48,-5.03,307.45,85.02,0.0,0.06
1526667856.84364605,78571059,6.57,6.24,6.44,23965.4257812,-4.0,-4.73,307.45,81.23,0.0,0.06
1526667856.94360614,78671019,6.54,6.56,6.66,21987.4726562,-3.48,-4.45,307.45,77.36,0.0,0.06
1526667857.04356599,78770979,6.41,6.74,6.73,20298.3085938,-2.92,-4.17,307.45,73.39,0.0,0.06
1526667857.14352608,78870939,6.17,6.75,6.67,18850.90625,-2.32,-3.87,307.45,69.41,0.0,0.06
1526667857.24348617,78970899,5.84,6.58,6.48,17598.6289062,-1.68,-3.52,307.45,65.43,0.0,0.06
1526667857.34344602,79070859,5.45,6.3,6.19,16504.9199219,-1.02,-3.06,307.45,61.47,0.0,0.06
1526667857.44340611,79170819,4.98,5.94,5.81,15541.1923828,-0.35,-2.52,307.45,57.54,0.0,0.07
1526667857.54336596,79270779,4.42,5.51,5.36,14687.0976562,0.28,-1.95,307.45,53.58,0.0,0.13
1526667857.64332604,79370739,3.78,5.0,4.84,13927.34375,0.91,-1.38,307.45,49.57,0.0,0.14
1526667857.74328613,79470699,3.03,4.39,4.25,13243.3720703,1.46,-0.83,307.45,45.59,0.0,0.15
1526667857.84324598,79570659,2.19,3.65,3.58,12617.8457031,1.9,-0.26,307.45,41.63,0.0,0.15
1526667857.94320607,79670619,1.25,2.85,2.85,12044.6582031,2.25,0.29,307.45,37.62,0.0,0.15
1526667858.04399896,79771412,0.18,2.03,2.02,11521.0615234,2.48,0.85,307.45,33.59,0.0,0.15
1526667858.14395905,79871372,-0.94,1.25,1.1,11044.1855469,2.47,1.31,307.45,29.65,0.0,0.08
1526667858.24391913,79971332,-2.22,0.41,0.09,10625.4257812,2.13,1.55,307.45,25.67,0.0,0.07
1526667858.34387898,80071292,-3.67,-0.52,-1.03,10284.3486328,1.42,1.5,307.45,21.61,0.0,0.07
1526667858.44383907,80171252,-4.27,-1.52,-2.21,3754.56176758,0.75,1.21,307.45,17.64,0.0,0.07
1526667858.54379916,80271212,-4.26,-2.37,-3.21,4947.49462891,0.23,0.86,307.45,13.7,0.0,0.07
1526667858.64375901,80371172,-3.98,-3.01,-3.91,5968.13037109,-0.14,0.56,307.45,9.8,0.0,0.06
1526667858.74371910,80471132,-3.52,-3.47,-4.23,6280.63964844,-0.44,0.28,307.45,5.85,0.0,0.06
1526667858.84367895,80571092,-2.92,-3.68,-4.19,5873.39892578,-0.67,0.09,307.45,1.92,0.0,0.06
1526667858.94363904,80671052,-2.29,-3.62,-3.83,5139.97412109,-0.82,-0.04,307.45,358.01,0.0,0.05
1526667859.04359913,80771012,-1.69,-3.39,-3.22,4424.98828125,-1.04,-0.09,307.45,354.12,0.0,0.04
1526667859.14355898,80870972,-1.34,-2.96,-2.5,4013.57275391,-1.44,-0.09,307.45,350.2,0.0,0.04
1526667859.24351907,80970932,-1.09,-2.4,-1.78,3908.03393555,-1.94,-0.23,307.45,346.28,0.0,0.03
1526667859.34347916,81070892,-0.88,-1.77,-1.15,3901.71508789,-2.49,-0.5,307.45,342.36,0.0,0.03
1526667859.44343901,81170852,-0.74,-1.17,-0.64,3841.93457031,-3.04,-0.93,307.45,338.43,0.0,0.03
1526667859.54339910,81270812,-0.64,-0.73,-0.29,3714.83862305,-3.59,-1.51,307.45,334.47,0.0,0.04
1526667859.64335895,81370772,-0.63,-0.37,-0.09,3525.10180664,-4.13,-2.19,307.45,330.49,0.0,0.1
1526667859.74331903,81470732,-0.61,-0.1,-0.01,3297.66430664,-4.65,-2.92,307.45,326.45,0.0,0.1
1526667859.84327912,81570692,-0.58,0.05,-0.03,3079.29760742,-5.18,-3.64,307.45,322.35,0.0,0.1
1526667859.94323897,81670652,-0.52,0.1,-0.11,2903.15478516,-5.69,-4.32,307.45,318.23,0.0,0.1
1526667860.04403210,81771445,-0.3,0.12,-0.19,2774.63598633,-5.88,-4.93,307.45,314.16,0.0,0.1
1526667860.14399195,81871405,-0.06,0.19,-0.21,2692.04736328,-5.89,-5.4,307.45,310.31,0.0,0.05
1526667860.24395204,81971365,0.17,0.35,-0.17,2666.28100586,-5.86,-5.69,307.45,307.01,0.0,0.04
1526667860.34391212,82071325,0.36,0.46,-0.06,2674.82836914,-5.85,-5.85,307.45,304.51,0.0,0.02
1526667860.44387197,82171285,0.45,0.47,0.08,2646.17236328,-5.84,-5.86,307.45,302.87,0.0,0.01
1526667860.54383206,82271245,0.49,0.47,0.23,2569.83618164,-5.86,-5.76,307.45,302.0,0.0,0.0
1526667860.64379215,82371205,0.45,0.5,0.36,2473.44165039,-5.93,-5.68,307.45,301.86,0.0,0.0
1526667860.74375200,82471165,0.37,0.53,0.45,2374.77612305,-6.04,-5.69,307.45,302.23,0.0,0.01
1526667860.84371209,82571125,0.28,0.54,0.48,2281.21801758,-6.21,-5.73,307.45,303.02,0.0,0.01
1526667860.94367194,82671085,0.13,0.55,0.45,2195.71020508,-6.41,-5.83,307.45,304.06,0.0,0.01
1526667861.04363203,82771045,-0.06,0.48,0.36,133.632919312,-6.59,-6.0,307.45,305.26,0.0,0.01
1526667861.14359212,82871005,-0.3,0.35,0.21,158.103424072,-6.79,-6.22,307.45,306.45,0.0,0.01
1526667861.24355197,82970965,-0.53,0.16,0.0,179.688034058,-6.99,-6.48,307.45,307.53,0.0,0.01
1526667861.34351206,83070925,-0.72,-0.08,-0.22,185.837860107,-7.18,-6.72,307.45,308.37,0.0,0.0
1526667861.44347215,83170885,-0.86,-0.34,-0.46,188.227905273,-7.39,-6.97,307.45,308.96,0.0,0.0
1526667861.54343200,83270845,-0.94,-0.57,-0.68,182.412796021,-7.6,-7.22,307.45,309.26,0.0,0.0
1526667861.64339209,83370805,-0.95,-0.78,-0.85,170.396270752,-7.78,-7.41,307.45,309.31,0.0,0.0
1526667861.74335217,83470765,-0.88,-0.94,-0.97,152.6378479,-8.1,-7.53,307.45,309.18,0.0,0.02
1526667861.84331203,83570725,-0.72,-0.93,-1.0,138.045822144,-8.58,-7.71,307.45,308.87,0.0,0.02
1526667861.94327211,83670685,-0.57,-0.79,-0.95,140.984085083,-9.13,-7.97,307.45,308.48,0.0,0.02
1526667862.04323196,83770645,-0.43,-0.56,-0.84,173.54524231,-9.7,-8.32,307.45,308.06,0.0,0.02
1526667862.14402509,83871438,-0.29,-0.34,-0.68,243.334213257,-10.25,-8.78,307.45,307.62,0.0,0.02
1526667862.24398518,83971398,-0.18,-0.19,-0.5,310.130615234,-10.85,-9.26,307.45,307.28,0.0,0.0
1526667862.34394503,84071358,-0.1,-0.04,-0.32,352.447814941,-11.41,-9.82,307.45,307.01,0.0,0.0
1526667862.44390512,84171318,-0.05,0.09,-0.17,379.396026611,-11.93,-10.47,307.45,306.91,0.0,0.0
1526667862.54386497,84271278,-0.04,0.17,-0.04,392.07824707,-12.42,-11.15,307.45,306.93,0.0,0.0
1526667862.64382505,84371238,-0.06,0.17,0.02,388.929534912,-12.83,-11.75,307.45,307.02,0.0,0.0
1526667862.74378514,84471198,-0.09,0.16,0.06,375.291931152,-13.22,-12.26,307.45,307.08,0.0,0.0
1526667862.84374499,84571158,-0.09,0.14,0.05,359.946411133,-13.57,-12.74,307.45,307.05,0.0,0.0
1526667862.94370508,84671118,-0.08,0.09,0.03,344.73550415,-13.89,-13.18,307.45,307.03,0.0,0.0
1526667863.04366517,84771078,-0.06,0.03,0.0,329.289550781,-14.2,-13.48,307.45,307.01,0.0,0.0
1526667863.14362502,84871038,-0.06,-0.06,-0.03,314.438598633,-14.5,-13.73,307.45,307.03,0.0,0.0
1526667863.24358511,84970998,-0.04,-0.1,-0.05,301.448669434,-14.73,-13.97,307.45,307.04,0.0,0.0
1526667863.34354496,85070958,-0.04,-0.08,-0.07,289.115447998,-14.81,-14.25,307.45,307.09,0.0,0.0
1526667863.44350505,85170918,-0.06,-0.06,-0.08,277.615722656,-14.84,-14.49,307.45,307.21,0.0,0.0
1526667863.54346514,85270878,-0.06,-0.05,-0.09,267.455505371,-14.87,-14.7,307.45,307.3,0.0,0.0
1526667863.64342499,85370838,-0.06,-0.11,-0.09,7.16735935211,-14.9,-14.9,307.45,307.39,0.0,0.0
1526667863.74338508,85470798,-0.07,-0.26,-0.09,51.7112808228,-14.91,-15.02,307.45,307.52,0.0,0.0
1526667863.84334517,85570758,-0.06,-0.38,-0.09,229.157562256,-14.92,-15.11,307.45,307.59,0.0,0.0
1526667863.94330502,85670718,-0.01,-0.41,-0.08,432.750549316,-14.96,-15.17,307.45,307.58,0.0,0.0
1526667864.04326510,85770678,0.03,-0.37,-0.05,549.927001953,-15.02,-15.19,307.45,307.53,0.0,0.0
1526667864.14322495,85870638,0.07,-0.31,-0.02,602.913696289,-15.07,-15.18,307.45,307.48,0.0,0.0
1526667864.24401808,85971431,0.13,-0.29,0.01,633.19934082,-15.11,-15.17,307.45,307.42,0.0,0.0
1526667864.34397817,86071391,0.18,-0.24,0.05,669.128540039,-15.22,-15.17,307.45,307.34,0.0,0.0
1526667864.44393802,86171351,0.24,-0.16,0.11,682.73614502,-15.33,-15.19,307.45,307.23,0.0,0.0
1526667864.54389811,86271311,0.28,-0.05,0.16,675.570556641,-14.83,-15.16,307.45,307.18,0.0,0.0
1526667864.64385796,86371271,0.27,-0.03,0.21,652.92175293,-12.12,-14.89,307.45,307.17,0.0,0.0
1526667864.74381804,86471231,0.26,-0.16,0.25,689.930114746,-11.24,-14.13,307.45,307.16,0.0,0.01
1526667864.84377813,86571191,0.28,-0.27,0.27,817.262390137,-11.02,-13.2,307.45,307.18,0.0,0.02
1526667864.94373798,86671151,0.34,-0.24,0.28,976.637634277,-11.35,-12.37,307.45,307.21,0.0,0.02
1526667865.04369807,86771111,0.42,-0.07,0.31,1055.66186523,-11.36,-11.83,307.45,307.17,0.0,0.02
1526667865.14365816,86871071,0.47,0.1,0.35,1052.31750488,-11.66,-11.55,307.45,307.15,0.0,0.01
1526667865.24361801,86971031,0.47,0.34,0.39,1007.56500244,-12.03,-11.47,307.45,307.18,0.0,0.01
1526667865.34357810,87070991,0.45,0.55,0.42,954.492553711,-12.23,-11.55,307.45,307.19,0.0,0.01
1526667865.44353795,87170951,0.42,0.73,0.43,929.860778809,-12.75,-11.78,307.45,307.19,0.0,0.0
1526667865.54349804,87270911,0.33,0.85,0.43,949.192871094,-13.08,-12.13,307.45,307.23,0.0,0.0
1526667865.64345813,87370871,0.23,0.87,0.39,1000.5123291,-13.49,-12.5,307.45,307.26,0.0,0.0
1526667865.74341798,87470831,0.09,0.81,0.33,1057.8782959,-13.88,-12.9,307.45,307.32,0.0,0.0
1526667865.84337807,87570791,-0.01,0.68,0.23,1103.27319336,-14.06,-13.32,307.45,307.38,0.0,0.01
1526667865.94333816,87670751,-0.1,0.55,0.12,1135.61950684,-14.21,-13.65,307.45,307.42,0.0,0.01
1526667866.04329801,87770711,-0.18,0.4,0.01,1157.09570312,-14.33,-13.94,307.45,307.44,0.0,0.01
1526667866.14325809,87870671,-0.26,0.26,-0.1,1163.6953125,-14.63,-14.16,307.45,307.43,0.0,0.01
1526667866.24321795,87970631,-0.26,0.18,-0.19,1351.39135742,-14.66,-14.4,307.45,307.34,0.0,0.01
1526667866.34401107,88071424,-0.28,0.13,-0.26,1437.54516602,-14.52,-14.59,307.45,307.32,0.0,0.01
1526667866.44397116,88171384,-0.29,-0.02,-0.31,1345.6697998,-14.64,-14.64,307.45,307.37,0.0,0.0
1526667866.54393101,88271344,-0.31,-0.17,-0.33,1145.62902832,-14.62,-14.65,307.45,307.47,0.0,0.0
1526667866.64389110,88371304,-0.33,-0.31,-0.34,936.435913086,-15.08,-14.69,307.45,307.59,0.0,0.0
1526667866.74385095,88471264,-0.33,-0.43,-0.35,783.751342773,-14.73,-14.77,307.45,307.64,0.0,0.0
1526667866.84381104,88571224,-0.25,-0.47,-0.33,688.661010742,-14.73,-14.86,307.45,307.64,0.0,0.0
1526667866.94377112,88671184,-0.17,-0.52,-0.29,643.222473145,-14.7,-14.91,307.45,307.66,0.0,0.0
1526667867.04373097,88771144,-0.1,-0.51,-0.24,638.093688965,-14.67,-14.9,307.45,307.66,0.0,0.0
1526667867.14369106,88871104,0.0,-0.47,-0.17,654.873657227,-14.91,-14.89,307.45,307.66,0.0,0.0
1526667867.24365115,88971064,0.09,-0.41,-0.08,684.051940918,-14.81,-14.93,307.45,307.66,0.0,0.0
1526667867.34361100,89071024,0.16,-0.38,0.0,731.194885254,-14.76,-14.97,307.45,307.67,0.0,0.0
1526667867.44357109,89170984,0.27,-0.3,0.09,800.025878906,-14.79,-14.94,307.45,307.59,0.0,0.0
1526667867.54353118,89270944,0.38,-0.2,0.19,855.004882812,-14.91,-14.86,307.45,307.49,0.0,0.0
1526667867.64349103,89370904,0.46,-0.06,0.29,897.494995117,-14.94,-14.78,307.45,307.38,0.0,0.0
1526667867.74345112,89470864,0.5,0.08,0.39,908.883666992,-14.89,-14.82,307.45,307.35,0.0,0.0
1526667867.84341097,89570824,0.53,0.19,0.46,905.685302734,-14.78,-14.87,307.45,307.4,0.0,0.0
1526667867.94337106,89670784,0.53,0.27,0.52,896.644897461,-14.94,-14.91,307.45,307.44,0.0,0.0
1526667868.04333115,89770744,0.54,0.35,0.55,878.796936035,-14.93,-14.87,307.45,307.47,0.0,0.0
1526667868.14329100,89870704,0.54,0.47,0.57,848.278259277,-15.04,-14.81,307.45,307.48,0.0,0.0
1526667868.24325109,89970664,0.52,0.53,0.56,810.425354004,-14.83,-14.82,307.45,307.49,0.0,0.0
1526667868.34321117,90070624,0.48,0.56,0.55,773.850219727,-14.92,-14.83,307.45,307.49,0.0,0.0
1526667868.44400406,90171417,0.45,0.63,0.52,741.813598633,-15.15,-14.88,307.45,307.48,0.0,0.0
1526667868.54396415,90271377,0.41,0.66,0.48,720.906616211,-15.02,-14.99,307.45,307.52,0.0,0.0
1526667868.64392400,90371337,0.35,0.65,0.44,707.194335938,-15.17,-15.12,307.45,307.57,0.0,0.0
1526667868.74388409,90471297,0.28,0.59,0.38,695.646850586,-15.22,-15.22,307.45,307.62,0.0,0.0
1526667868.84384418,90571257,0.24,0.53,0.32,424.430023193,-15.22,-15.3,307.45,307.68,0.0,0.0
1526667868.94380403,90671217,0.19,0.39,0.27,345.796813965,-15.27,-15.42,307.45,307.74,0.0,0.0
1526667869.04376411,90771177,0.14,0.26,0.21,251.186279297,-15.41,-15.5,307.45,307.74,0.0,0.0
1526667869.14372396,90871137,0.13,0.17,0.16,190.227325439,-15.39,-15.58,307.45,307.73,0.0,0.0
1526667869.24368405,90971097,0.13,0.09,0.13,154.025970459,-15.25,-15.56,307.45,307.68,0.0,0.0
1526667869.34364414,91071057,0.14,0.0,0.11,138.702362061,-15.08,-15.51,307.45,307.66,0.0,0.0
1526667869.44360399,91171017,0.23,-0.03,0.11,141.083282471,-15.13,-15.42,307.45,307.55,0.0,0.0
1526667869.54356408,91270977,0.3,-0.02,0.14,153.772827148,-15.22,-15.33,307.45,307.45,0.0,0.0
1526667869.64352417,91370937,0.34,0.0,0.19,169.700256348,-15.37,-15.32,307.45,307.44,0.0,0.0
1526667869.74348402,91470897,0.38,0.03,0.25,197.116775513,-15.44,-15.28,307.45,307.48,0.0,0.0
1526667869.84344411,91570857,0.45,0.11,0.31,220.662307739,-15.5,-15.18,307.45,307.52,0.0,0.0
1526667869.94340396,91670817,0.53,0.19,0.39,236.598907471,-15.4,-15.12,307.45,307.53,0.0,0.0
1526667870.04336405,91770777,0.56,0.28,0.46,246.900024414,-15.46,-15.11,307.45,307.63,0.0,0.0
1526667870.14332414,91870737,0.56,0.33,0.52,253.009567261,-15.6,-15.14,307.45,307.75,0.0,0.0
1526667870.24328399,91970697,0.54,0.36,0.56,266.036315918,-15.58,-15.19,307.45,307.85,0.0,0.0
1526667870.34324408,92070657,0.54,0.46,0.58,266.563354492,-15.53,-15.25,307.45,307.89,0.0,0.0
1526667870.44403696,92171450,0.55,0.5,0.59,257.209655762,-15.29,-15.34,307.45,307.88,0.0,0.0
1526667870.54399705,92271410,0.54,0.51,0.58,247.289428711,-15.29,-15.45,307.45,307.92,0.0,0.0
1526667870.64395714,92371370,0.54,0.54,0.57,236.431335449,-15.37,-15.52,307.45,307.86,0.0,0.0
1526667870.74391699,92471330,0.55,0.62,0.56,225.012191772,-15.44,-15.52,307.45,307.72,0.0,0.0
1526667870.84387708,92571290,0.54,0.74,0.55,222.493896484,-15.51,-15.52,307.45,307.59,0.0,0.0
1526667870.94383717,92671250,0.53,0.8,0.54,236.626266479,-15.48,-15.55,307.45,307.43,0.0,0.0
1526667871.04379702,92771210,0.51,0.79,0.53,256.925384521,-15.26,-15.49,307.45,307.34,0.0,0.0
1526667871.14375710,92871170,0.46,0.7,0.51,269.359527588,-15.38,-15.38,307.45,307.34,0.0,0.0
1526667871.24371696,92971130,0.45,0.59,0.49,267.22442627,-15.35,-15.27,307.45,307.31,0.0,0.0
1526667871.34367704,93071090,0.44,0.48,0.47,258.399200439,-15.36,-15.25,307.45,307.34,0.0,0.0
1526667871.44363713,93171050,0.44,0.42,0.45,4.36949825287,-15.32,-15.28,307.45,307.35,0.0,0.0
1526667871.54359698,93271010,0.45,0.4,0.44,9.80455589294,-15.56,-15.31,307.45,307.34,0.0,0.0
1526667871.64355707,93370970,0.49,0.41,0.44,11.7059593201,-15.77,-15.33,307.45,307.34,0.0,0.0
1526667871.74351716,93470930,0.54,0.48,0.45,9.31179523468,-15.75,-15.4,307.45,307.27,0.0,0.0
1526667871.84347701,93570890,0.6,0.52,0.48,9.74847984314,-15.61,-15.48,307.45,307.13,0.0,0.0
1526667871.94343710,93670850,0.67,0.56,0.53,9.80029010773,-15.42,-15.57,307.45,306.99,0.0,0.0
1526667872.04339695,93770810,0.74,0.59,0.58,9.12450122833,-15.58,-15.62,307.45,306.85,0.0,0.0
1526667872.14335704,93870770,0.8,0.62,0.65,8.61484146118,-15.69,-15.65,307.45,306.77,0.0,0.0
1526667872.24331713,93970730,0.84,0.63,0.72,13.1010828018,-15.37,-15.66,307.45,306.72,0.0,0.0
1526667872.34327698,94070690,0.86,0.66,0.79,26.0221500397,-15.55,-15.62,307.45,306.7,0.0,0.0
1526667872.44323707,94170650,0.86,0.69,0.84,41.4378623962,-15.66,-15.63,307.45,306.73,0.0,0.0
1526667872.54402995,94271443,0.85,0.73,0.87,57.0249710083,-15.65,-15.61,307.45,306.77,0.0,0.0
1526667872.64399004,94371403,0.83,0.77,0.89,67.9665527344,-15.55,-15.58,307.45,306.94,0.0,0.0
1526667872.74395013,94471363,0.77,0.82,0.88,71.4523010254,-15.62,-15.52,307.45,307.13,0.0,0.01
1526667872.84390998,94571323,0.68,0.86,0.85,67.3815612793,-15.78,-15.52,307.45,307.36,0.0,0.01
1526667872.94387007,94671283,0.59,0.82,0.79,63.4403152466,-15.67,-15.59,307.45,307.56,0.0,0.0
1526667873.04383016,94771243,0.51,0.73,0.71,60.0417900085,-15.67,-15.6,307.45,307.79,0.0,0.0
1526667873.14379001,94871203,0.43,0.62,0.62,56.751373291,-15.54,-15.62,307.45,307.95,0.0,0.0
1526667873.24375010,94971163,0.35,0.53,0.53,53.7812042236,-15.54,-15.61,307.45,308.04,0.0,0.0
1526667873.34370995,95071123,0.31,0.45,0.43,51.1380844116,-15.67,-15.68,307.45,308.04,0.0,0.0
1526667873.44367003,95171083,0.32,0.39,0.36,48.9551353455,-15.68,-15.74,307.45,307.91,0.0,0.0
1526667873.54363012,95271043,0.37,0.39,0.32,47.9584312439,-15.49,-15.8,307.45,307.76,0.0,0.0
1526667873.64358997,95371003,0.41,0.32,0.31,47.1740531921,-15.64,-15.79,307.45,307.66,0.0,0.0
1526667873.74355006,95470963,0.47,0.27,0.32,45.8223075867,-15.78,-15.77,307.45,307.52,0.0,0.0
1526667873.84351015,95570923,0.67,-0.17,0.38,80.303894043,-12.99,-15.83,167.81,307.04,0.0,0.01
1526667873.94347000,95670883,1.05,-0.91,0.51,476.712402344,-10.29,-15.12,167.81,305.71,0.0,0.01
1526667874.04343009,95770843,1.56,-1.31,0.73,31692.109375,-8.82,-13.62,167.81,303.68,0.0,0.0
1526667874.14339018,95870803,2.19,-1.19,1.07,39981.1953125,-7.78,-11.79,167.81,301.19,0.0,0.01
1526667874.24335003,95970763,2.91,-0.67,1.55,43817.2773438,-6.94,-10.03,167.81,298.41,0.0,0.02
1526667874.34331012,96070723,3.64,0.13,2.14,44130.375,-6.22,-8.51,167.81,295.38,0.0,0.02
1526667874.44326997,96170683,4.34,1.13,2.82,42298.359375,-5.59,-7.21,167.81,292.15,0.0,0.02
1526667874.54323006,96270643,4.94,2.25,3.55,39039.3828125,-5.04,-6.16,167.81,288.77,0.0,0.02
1526667874.64402318,96371436,5.39,3.31,4.26,35268.6875,-4.49,-5.39,167.81,285.26,0.0,0.01
