timestamp,TimeUS,DesR,R,IR,IRErr,DesP,P,DesY,Y,ErrRP,ErrYaw
1526667957.76399994,29471540,0.0,1.05,0.0,9739.4375,0.0,0.43,353.17,353.17,0.0,0.0
1526667957.86396003,29571500,0.0,1.08,0.0,9845.25976562,0.0,0.42,353.11,353.11,0.0,0.0
1526667957.96391988,29671460,0.0,1.1,0.0,9972.53417969,0.0,0.41,353.05,353.05,0.0,0.0
1526667958.06387997,29771420,0.0,1.13,0.0,10122.8427734,0.0,0.41,352.97,352.97,0.0,0.0
1526667958.16384006,29871380,0.0,1.15,0.0,10282.4931641,0.0,0.42,352.87,352.87,0.0,0.0
1526667958.26379991,29971340,0.0,1.17,0.0,10450.15625,0.0,0.43,352.78,352.78,0.0,0.0
1526667958.36375999,30071300,0.0,1.18,0.0,10615.6240234,0.0,0.44,352.68,352.68,0.0,0.0
1526667958.46372008,30171260,0.0,1.21,0.0,10785.0556641,0.0,0.44,352.58,352.58,0.0,0.0
1526667958.56367993,30271220,0.0,1.23,0.0,10968.0673828,0.0,0.43,352.49,352.49,0.0,0.0
1526667958.66364002,30371180,0.0,1.24,0.0,11156.4941406,0.0,0.43,352.42,352.42,0.0,0.0
1526667958.76359987,30471140,0.0,1.23,0.0,11324.3310547,0.0,0.4,352.35,352.35,0.0,0.0
1526667958.86355996,30571100,0.0,1.23,0.0,11476.5175781,0.0,0.39,352.28,352.28,0.0,0.0
1526667958.96352005,30671060,0.0,1.25,0.0,11632.0068359,0.0,0.38,352.21,352.21,0.0,0.0
1526667959.06347990,30771020,0.0,1.26,0.0,15775.5996094,0.0,0.37,352.16,352.16,0.0,0.0
1526667959.16343999,30870980,0.0,1.27,0.0,15835.2871094,0.0,0.38,352.12,352.12,0.0,0.0
1526667959.26340008,30970940,0.0,1.27,0.0,15933.1914062,0.0,0.39,352.11,352.11,0.0,0.0
1526667959.36335993,31070900,0.0,1.28,0.0,16002.8623047,0.0,0.41,352.11,352.11,0.0,0.0
1526667959.46332002,31170860,0.0,1.28,0.0,16079.0898438,0.0,0.42,352.09,352.09,0.0,0.0
1526667959.56327987,31270820,0.0,1.3,0.0,16174.9501953,0.0,0.42,352.1,352.1,0.0,0.0
1526667959.66323996,31370780,0.0,1.3,0.0,16278.5283203,0.0,0.42,352.12,352.12,0.0,0.07
1526667959.76320004,31470740,0.0,1.3,0.0,16356.2128906,0.0,0.42,352.18,352.18,0.0,0.08
1526667960.71198702,32419527,0.0,1.23,0.0,16082.4394531,0.0,0.35,352.89,352.89,0.0,0.0
1526667960.81194687,32519487,0.0,1.24,0.0,16033.5878906,0.0,0.34,352.98,352.98,0.0,0.0
1526667960.91190696,32619447,0.0,1.26,0.0,16008.4892578,0.0,0.33,353.05,353.05,0.0,0.0
1526667961.01186705,32719407,0.0,1.27,0.0,16006.9248047,0.0,0.32,353.13,353.13,0.0,0.0
1526667961.11182690,32819367,0.0,1.3,0.0,16029.1855469,0.0,0.32,353.21,353.21,0.0,0.0
1526667961.21178699,32919327,0.0,1.34,0.0,16093.5693359,0.0,0.33,353.28,353.28,0.0,0.0
1526667961.31174707,33019287,0.0,1.39,0.0,16207.5664062,0.0,0.31,353.37,353.37,0.0,0.0
1526667961.41170692,33119247,0.0,1.41,0.0,16350.9873047,0.0,0.3,353.44,353.44,0.0,0.0
1526667961.51166701,33219207,0.0,1.43,0.0,16507.21875,0.0,0.29,353.49,353.49,0.0,0.0
1526667961.61162686,33319167,0.0,1.45,0.0,16669.3222656,0.0,0.29,353.55,353.55,0.0,0.0
1526667961.71158695,33419127,0.0,1.45,0.0,21025.0,0.0,0.29,353.63,353.63,0.0,0.0
1526667961.81154704,33519087,0.0,1.45,0.0,21025.0,0.0,0.28,353.74,353.74,0.0,0.0
1526667961.91150689,33619047,0.0,1.43,0.0,20957.5996094,0.0,0.27,353.85,353.85,0.0,0.0
1526667962.01146698,33719007,0.0,1.41,0.0,20766.4257812,0.0,0.24,353.97,353.97,0.0,0.0
1526667962.11142707,33818967,0.0,1.41,0.0,20589.3398438,0.0,0.22,354.08,354.08,0.0,0.0
1526667962.21138692,33918927,0.0,1.42,0.0,20477.1796875,0.0,0.2,354.2,354.2,0.0,0.0
1526667962.31134701,34018887,0.0,1.41,0.0,20427.3847656,0.0,0.15,354.32,354.32,0.0,0.0
1526667962.41130686,34118847,0.0,1.39,0.0,20338.9101562,0.0,0.1,354.43,354.43,0.0,0.0
1526667962.51126695,34218807,0.0,1.36,0.0,20169.1699219,0.0,0.05,354.53,354.53,0.0,0.0
1526667962.61122704,34318767,0.0,1.34,0.0,19966.0195312,0.0,0.01,354.64,354.64,0.0,0.0
1526667962.71118689,34418727,0.0,1.34,0.0,19783.2910156,0.0,-0.01,354.78,354.78,0.0,0.0
1526667962.81198001,34519520,0.0,1.34,0.0,19631.0175781,0.0,-0.01,354.93,354.93,0.0,0.0
1526667962.91193986,34619480,0.0,1.34,0.0,19502.1699219,0.0,-0.01,355.06,355.06,0.0,0.0
1526667963.01189995,34719440,0.0,1.35,0.0,19409.0214844,0.0,0.0,355.18,355.18,0.0,0.0
1526667963.11186004,34819400,0.0,1.34,0.0,19322.4648438,0.0,0.0,355.27,355.27,0.0,0.0
1526667963.21181989,34919360,0.0,1.35,0.0,19240.4238281,0.0,0.0,355.34,355.34,0.0,0.0
1526667963.31177998,35019320,0.0,1.37,0.0,19196.6699219,0.0,0.02,355.38,355.38,0.0,0.0
1526667963.41174006,35119280,0.0,1.37,0.0,19172.9101562,0.0,0.02,355.42,355.42,0.0,0.0
1526667963.51169991,35219240,0.0,1.38,0.0,19153.0996094,0.0,0.02,355.42,355.42,0.0,0.0
1526667963.61166000,35319200,0.0,1.39,0.0,19154.5683594,0.0,0.03,355.39,355.39,0.0,0.0
1526667963.75993395,35467474,0.0,1.38,0.0,19159.5253906,0.0,0.06,355.39,355.39,0.0,0.0
1526667963.85989404,35567434,0.0,1.38,0.0,19154.2753906,0.0,0.07,355.4,355.4,0.0,0.0
1526667963.95985389,35667394,0.0,1.38,0.0,19149.4804688,0.0,0.1,355.44,355.44,0.0,0.0
1526667964.05981398,35767354,0.0,1.38,0.0,19145.0859375,0.0,0.14,355.48,355.48,0.0,0.0
1526667964.15977407,35867314,0.0,1.38,0.0,19141.0429688,0.0,0.18,355.52,355.52,0.0,0.0
1526667964.25973392,35967274,0.0,1.35,0.0,19120.6855469,0.0,0.22,355.57,355.57,0.0,0.0
1526667964.35969400,36067234,0.0,1.35,0.0,18225.0,0.0,0.25,355.62,355.62,0.0,0.0
1526667964.45965385,36167194,0.0,1.34,0.0,18204.8242188,0.0,0.26,355.66,355.66,0.0,0.0
1526667964.55961394,36267154,0.0,1.35,0.0,18204.8242188,0.0,0.27,355.71,355.71,0.0,0.0
1526667964.65957403,36367114,0.0,1.37,0.0,18282.8632812,0.0,0.26,355.75,355.75,0.0,0.0
1526667964.75953388,36467074,0.0,1.38,0.0,18424.0898438,0.0,0.25,355.78,355.78,0.0,0.0
1526667964.85949397,36567034,0.0,1.37,0.0,18489.5957031,0.0,0.27,355.81,355.81,0.0,0.0
1526667964.95945406,36666994,0.0,1.37,0.0,18529.5097656,0.0,0.27,355.82,355.82,0.0,0.0
1526667965.05941391,36766954,0.0,1.36,0.0,18536.4121094,0.0,0.24,355.84,355.84,0.0,0.0
1526667965.15937400,36866914,0.0,1.35,0.0,18511.5976562,0.0,0.22,355.84,355.84,0.0,0.0
1526667965.25933385,36966874,0.0,1.34,0.0,18480.9199219,0.0,0.19,355.85,355.85,0.0,0.0
1526667965.35929394,37066834,0.0,1.33,0.0,18419.2441406,0.0,0.18,355.87,355.87,0.0,0.0
1526667965.45925403,37166794,0.0,1.32,0.0,18356.7324219,0.0,0.16,355.86,355.86,0.0,0.0
1526667965.55921388,37266754,0.0,1.3,0.0,18276.390625,0.0,0.16,355.86,355.86,0.0,0.0
1526667965.65917397,37366714,0.0,1.26,0.0,18144.9902344,0.0,0.14,355.85,355.85,0.0,0.0
1526667965.75913405,37466674,0.0,1.24,0.0,17981.6171875,0.0,0.17,355.84,355.84,0.0,0.0
1526667965.85992694,37567467,0.0,1.2,0.0,17785.84375,0.0,0.18,355.83,355.83,0.0,0.0
1526667965.95988703,37667427,0.0,1.16,0.0,17554.5996094,0.0,0.18,355.82,355.82,0.0,0.0
1526667966.05984688,37767387,0.0,1.11,0.0,17293.8554688,0.0,0.18,355.82,355.82,0.0,0.0
1526667966.15980697,37867347,0.0,1.08,0.0,17017.3574219,0.0,0.18,355.82,355.82,0.0,0.0
1526667966.25976706,37967307,0.0,1.08,0.0,16749.6894531,0.0,0.16,355.81,355.81,0.0,0.0
1526667966.35972691,38067267,0.0,1.07,0.0,16499.8339844,0.0,0.13,355.78,355.78,0.0,0.0
1526667966.45968699,38167227,0.0,1.08,0.0,16278.5576172,0.0,0.12,355.73,355.73,0.0,0.0
1526667966.55964708,38267187,0.0,1.09,0.0,16081.4628906,0.0,0.08,355.72,355.72,0.0,0.0
1526667966.70792103,38415461,0.0,1.11,0.0,15916.0498047,0.0,0.04,355.7,355.7,0.0,0.0
1526667966.80788088,38515421,0.0,1.07,0.0,15753.1689453,0.0,0.03,355.7,355.7,0.0,0.0
1526667966.90784097,38615381,0.0,1.05,0.0,15579.0410156,0.0,0.02,355.71,355.71,0.0,0.0
1526667967.00780106,38715341,0.0,1.04,0.0,10977.9746094,0.0,0.0,355.75,355.75,0.0,0.0
1526667967.10776091,38815301,0.0,1.04,0.0,10896.9873047,0.0,-0.02,355.79,355.79,0.0,0.0
1526667967.20772099,38915261,0.0,1.04,0.0,10932.6914062,0.0,-0.07,355.82,355.82,0.0,0.0
1526667967.30768108,39015221,0.0,1.02,0.0,10859.6435547,0.0,-0.12,355.86,355.86,0.0,0.0
1526667967.40764093,39115181,0.0,0.98,0.0,10696.0048828,0.0,-0.17,355.93,355.93,0.0,0.0
1526667967.50760102,39215141,0.0,0.95,0.0,10471.9707031,0.0,-0.2,356.01,356.01,0.0,0.0
1526667967.60756087,39315101,0.0,0.93,0.0,10245.0390625,0.0,-0.23,356.08,356.08,0.0,0.0
1526667967.70752096,39415061,0.0,0.92,0.0,10040.3310547,0.0,-0.22,356.16,356.16,0.0,0.0
1526667967.80748105,39515021,0.0,0.92,0.0,9865.18359375,0.0,-0.21,356.24,356.24,0.0,0.0
1526667967.90744090,39614981,0.0,0.93,0.0,9743.56542969,0.0,-0.2,356.3,356.3,0.0,0.0
1526667968.00740099,39714941,0.0,0.95,0.0,9664.09277344,0.0,-0.2,356.37,356.37,0.0,0.0
1526667968.10736108,39814901,0.0,0.96,0.0,9618.79394531,0.0,-0.2,356.44,356.44,0.0,0.0
1526667968.20732093,39914861,0.0,0.97,0.0,9590.77929688,0.0,-0.18,356.51,356.51,0.0,0.0
1526667968.30728102,40014821,0.0,0.98,0.0,9584.41113281,0.0,-0.19,356.58,356.58,0.0,0.0
1526667968.40724087,40114781,0.0,0.98,0.0,9591.29785156,0.0,-0.21,356.63,356.63,0.0,0.0
1526667968.50720096,40214741,0.0,0.98,0.0,9592.09179688,0.0,-0.22,356.7,356.7,0.0,0.0
1526667968.60716105,40314701,0.0,0.98,0.0,9592.79296875,0.0,-0.22,356.79,356.79,0.0,0.0
1526667968.70712090,40414661,0.0,0.98,0.0,9593.41503906,0.0,-0.22,356.87,356.87,0.0,0.0
1526667968.80791402,40515454,0.0,0.99,0.0,9598.12011719,0.0,-0.25,356.94,356.94,0.0,0.0
1526667968.90787387,40615414,0.0,1.01,0.0,9619.48730469,0.0,-0.26,356.99,356.99,0.0,0.0
1526667969.00783396,40715374,0.0,1.02,0.0,9649.35351562,0.0,-0.27,357.05,357.05,0.0,0.0
1526667969.10779405,40815334,0.0,1.03,0.0,9684.8203125,0.0,-0.28,357.1,357.1,0.0,0.0
1526667969.20775390,40915294,0.0,1.02,0.0,9720.32324219,0.0,-0.29,357.15,357.15,0.0,0.0
1526667969.30771399,41015254,0.0,0.99,0.0,9737.01953125,0.0,-0.3,357.19,357.19,0.0,0.0
1526667969.40767407,41115214,0.0,0.99,0.0,9739.57910156,0.0,-0.31,357.21,357.21,0.0,0.0
1526667969.50763392,41215174,0.0,0.98,0.0,9736.44824219,0.0,-0.31,357.24,357.24,0.0,0.0
1526667969.60759401,41315134,0.0,0.98,0.0,9604.0,0.0,-0.29,357.27,357.27,0.0,0.0
1526667969.75586796,41463408,0.0,1.0,0.0,9636.03710938,0.0,-0.25,357.28,357.28,0.0,0.0
1526667969.85582805,41563368,0.0,1.03,0.0,9853.45019531,0.0,-0.23,357.27,357.27,0.0,0.0
1526667969.95578790,41663328,0.0,1.05,0.0,10115.0371094,0.0,-0.22,357.27,357.27,0.0,0.0
1526667970.05574799,41763288,0.0,1.07,0.0,10342.5048828,0.0,-0.21,357.24,357.24,0.0,0.0
1526667970.15570807,41863248,0.0,1.11,0.0,10583.7333984,0.0,-0.22,357.19,357.19,0.0,0.0
1526667970.25566792,41963208,0.0,1.14,0.0,10878.3574219,0.0,-0.24,357.14,357.14,0.0,0.0
1526667970.35562801,42063168,0.0,1.17,0.0,11189.0566406,0.0,-0.27,357.1,357.1,0.0,0.0
1526667970.45558786,42163128,0.0,1.19,0.0,11485.1162109,0.0,-0.29,357.07,357.07,0.0,0.0
1526667970.55554795,42263088,0.0,1.2,0.0,11767.6425781,0.0,-0.28,357.03,357.03,0.0,0.0
1526667970.65550804,42363048,0.0,1.19,0.0,12004.2314453,0.0,-0.28,356.98,356.98,0.0,0.0
1526667972.80381489,44511355,0.0,1.14,0.0,13597.7832031,0.0,-0.25,356.04,356.04,0.0,0.0
1526667972.90377498,44611315,0.0,1.11,0.0,13470.6533203,0.0,-0.24,356.02,356.02,0.0,0.0
1526667973.00373507,44711275,0.0,1.09,0.0,13310.390625,0.0,-0.24,355.98,355.98,0.0,0.0
1526667973.10369492,44811235,0.0,1.08,0.0,13135.2949219,0.0,-0.25,355.92,355.92,0.0,0.0
1526667973.20365500,44911195,0.0,1.08,0.0,12988.1650391,0.0,-0.28,355.86,355.86,0.0,0.0
1526667973.30361485,45011155,0.0,1.08,0.0,12867.7861328,0.0,-0.29,355.8,355.8,0.0,0.0
1526667973.40357494,45111115,0.0,1.09,0.0,12771.5400391,0.0,-0.27,355.7,355.7,0.0,0.0
1526667973.50353503,45211075,0.0,1.09,0.0,12703.0361328,0.0,-0.27,355.61,355.61,0.0,0.0
1526667973.60349488,45311035,0.0,1.12,0.0,12663.5537109,0.0,-0.27,355.49,355.49,0.0,0.0
1526667973.70345497,45410995,0.0,1.16,0.0,12684.296875,0.0,-0.27,355.37,355.37,0.0,0.0
1526667973.80341506,45510955,0.0,1.18,0.0,12749.3183594,0.0,-0.26,355.24,355.24,0.0,0.0
1526667973.90337491,45610915,0.0,1.2,0.0,12833.0703125,0.0,-0.24,355.11,355.11,0.0,0.0
1526667974.00333500,45710875,0.0,1.19,0.0,12912.4873047,0.0,-0.21,354.98,354.98,0.0,0.0
1526667974.10329485,45810835,0.0,1.2,0.0,12980.7148438,0.0,-0.19,354.84,354.84,0.0,0.0
1526667974.20325494,45910795,0.0,1.19,0.0,13043.0146484,0.0,-0.19,354.71,354.71,0.0,0.0
1526667974.30321503,46010755,0.0,1.21,0.0,13113.6582031,0.0,-0.17,354.61,354.61,0.0,0.08
1526667974.40317488,46110715,0.0,1.24,0.0,13202.8027344,0.0,-0.17,354.56,354.56,0.0,0.08
1526667974.50313497,46210675,0.0,1.28,0.0,13320.4384766,0.0,-0.16,354.51,354.51,0.0,0.08
1526667974.60309505,46310635,0.0,1.29,0.0,13454.7792969,0.0,-0.15,354.47,354.47,0.0,0.08
1526667974.70305490,46410595,0.0,1.31,0.0,13594.1679688,0.0,-0.12,354.45,354.45,0.0,0.08
1526667974.80301499,46510555,0.0,1.3,0.0,13726.0839844,0.0,-0.09,354.43,354.43,0.0,0.08
1526667974.90380788,46611348,0.0,1.28,0.0,16473.9492188,0.0,-0.07,354.44,354.44,0.0,0.08
1526667975.00376797,46711308,0.0,1.29,0.0,16483.5878906,0.0,-0.05,354.44,354.44,0.0,0.01
1526667975.10372806,46811268,0.0,1.32,0.0,16709.625,0.0,-0.05,354.42,354.42,0.0,0.0
1526667975.20368791,46911228,0.0,1.37,0.0,17068.6816406,0.0,-0.04,354.4,354.4,0.0,0.0
1526667975.30364799,47011188,0.0,1.4,0.0,17495.7304688,0.0,-0.02,354.38,354.38,0.0,0.0
1526667975.40360808,47111148,0.0,1.4,0.0,17846.4414062,0.0,0.0,354.37,354.37,0.0,0.0
1526667975.50356793,47211108,0.0,1.39,0.0,18066.0605469,0.0,0.0,354.38,354.38,0.0,0.0
1526667975.60352802,47311068,0.0,1.4,0.0,18241.2382812,0.0,0.01,354.38,354.38,0.0,0.0
1526667975.75180197,47459342,0.0,1.38,0.0,18381.3730469,0.0,0.03,354.39,354.39,0.0,0.0
1526667975.85176206,47559302,0.0,1.36,0.0,18427.7324219,0.0,0.02,354.41,354.41,0.0,0.0
1526667975.95172191,47659262,0.0,1.33,0.0,18391.6445312,0.0,0.0,354.43,354.43,0.0,0.0
1526667976.05168200,47759222,0.0,1.3,0.0,18296.8300781,0.0,0.0,354.46,354.46,0.0,0.0
1526667976.15164185,47859182,0.0,1.27,0.0,18150.71875,0.0,-0.01,354.47,354.47,0.0,0.0
1526667976.25160193,47959142,0.0,1.25,0.0,17982.875,0.0,0.01,354.48,354.48,0.0,0.0
1526667976.35156202,48059102,0.0,1.26,0.0,17826.1015625,0.0,0.04,354.48,354.48,0.0,0.0
1526667976.45152187,48159062,0.0,1.27,0.0,17710.1503906,0.0,0.05,354.48,354.48,0.0,0.0
1526667976.55148196,48259022,0.0,1.29,0.0,17631.4121094,0.0,0.04,354.49,354.49,0.0,0.0
1526667976.65144205,48358982,0.0,1.31,0.0,17595.5078125,0.0,0.01,354.49,354.49,0.0,0.0
1526667976.75140190,48458942,0.0,1.32,0.0,17585.7890625,0.0,-0.01,354.5,354.5,0.0,0.0
1526667976.85136199,48558902,0.0,1.32,0.0,17587.3046875,0.0,-0.02,354.49,354.49,0.0,0.0
1526667976.95132208,48658862,0.0,1.28,0.0,17556.203125,0.0,-0.01,354.5,354.5,0.0,0.0
1526667977.05128193,48758822,0.0,1.22,0.0,17465.9960938,0.0,0.0,354.52,354.52,0.0,0.0
1526667977.15124202,48858782,0.0,1.2,0.0,17342.4003906,0.0,0.01,354.54,354.54,0.0,0.0
1526667977.25120187,48958742,0.0,1.21,0.0,17229.5917969,0.0,0.02,354.56,354.56,0.0,0.0
1526667977.35116196,49058702,0.0,1.23,0.0,17136.9960938,0.0,0.05,354.6,354.6,0.0,0.0
1526667977.45112205,49158662,0.0,1.22,0.0,17050.5761719,0.0,0.08,354.63,354.63,0.0,0.0
1526667977.55108190,49258622,0.0,1.19,0.0,14611.4746094,0.0,0.1,354.64,354.64,0.0,0.0
1526667977.65104198,49358582,0.0,1.16,0.0,14194.7753906,0.0,0.11,354.62,354.62,0.0,0.0
1526667977.75100207,49458542,0.0,1.14,0.0,13862.0751953,0.0,0.12,354.6,354.6,0.0,0.0
1526667977.85179496,49559335,0.0,1.13,0.0,13622.8564453,0.0,0.13,354.57,354.57,0.0,0.0
1526667977.95175505,49659295,0.0,1.1,0.0,13398.2949219,0.0,0.12,354.52,354.52,0.0,0.0
1526667978.05171490,49759255,0.0,1.06,0.0,13130.2412109,0.0,0.11,354.45,354.45,0.0,0.0
1526667978.15167499,49859215,0.0,1.03,0.0,12811.7070312,0.0,0.11,354.37,354.37,0.0,0.0
1526667978.25163507,49959175,0.0,1.02,0.0,12515.2285156,0.0,0.11,354.27,354.27,0.0,0.0
1526667978.35159492,50059135,0.0,1.0,0.0,12259.8222656,0.0,0.12,354.19,354.19,0.0,0.0
1526667978.45155501,50159095,0.0,0.98,0.0,12017.9550781,0.0,0.14,354.12,354.12,0.0,0.0
1526667978.55151486,50259055,0.0,0.95,0.0,11768.1298828,0.0,0.16,354.06,354.06,0.0,0.0
1526667978.65147495,50359015,0.0,0.92,0.0,11509.8232422,0.0,0.19,354.0,354.0,0.0,0.0
1526667978.79974890,50507289,0.0,0.9,0.0,11256.234375,0.0,0.22,353.89,353.89,0.0,0.0
1526667978.89970899,50607249,0.0,0.9,0.0,11030.7890625,0.0,0.23,353.79,353.79,0.0,0.0
1526667978.99966908,50707209,0.0,0.89,0.0,10832.4199219,0.0,0.23,353.71,353.71,0.0,0.0
1526667979.09962893,50807169,0.0,0.86,0.0,10638.3408203,0.0,0.24,353.66,353.66,0.0,0.0
1526667979.19958901,50907129,0.0,0.83,0.0,10432.3837891,0.0,0.25,353.62,353.62,0.0,0.0
1526667979.29954886,51007089,0.0,0.81,0.0,10223.2041016,0.0,0.28,353.57,353.57,0.0,0.0
1526667979.39950895,51107049,0.0,0.76,0.0,10010.8193359,0.0,0.29,353.5,353.5,0.0,0.0
1526667979.49946904,51207009,0.0,0.7,0.0,9776.68457031,0.0,0.29,353.45,353.45,0.0,0.0
1526667979.59942889,51306969,0.0,0.65,0.0,9532.05957031,0.0,0.3,353.42,353.42,0.0,0.0
1526667979.69938898,51406929,0.0,0.59,0.0,9272.9921875,0.0,0.32,353.41,353.41,0.0,0.0
1526667979.79934907,51506889,0.0,0.55,0.0,9008.41015625,0.0,0.33,353.43,353.43,0.0,0.0
1526667979.89930892,51606849,0.0,0.52,0.0,8753.35644531,0.0,0.33,353.45,353.45,0.0,0.0
1526667979.99926901,51706809,0.0,0.5,0.0,8507.79882812,0.0,0.32,353.47,353.47,0.0,0.0
1526667980.09922886,51806769,0.0,0.47,0.0,8269.77050781,0.0,0.31,353.5,353.5,0.0,0.0
1526667980.19918895,51906729,0.0,0.45,0.0,2125.44995117,0.0,0.29,353.57,353.57,0.0,0.0
1526667980.29914904,52006689,0.0,0.44,0.0,2066.32495117,0.0,0.28,353.64,353.64,0.0,0.0
1526667980.39910889,52106649,0.0,0.42,0.0,1993.35827637,0.0,0.25,353.72,353.72,0.0,0.0
1526667980.49906898,52206609,0.0,0.41,0.0,1925.125,0.0,0.22,353.81,353.81,0.0,0.0
1526667980.59902906,52306569,0.0,0.38,0.0,1857.43505859,0.0,0.18,353.88,353.88,0.0,0.0
1526667980.69898891,52406529,0.0,0.35,0.0,1770.4083252,0.0,0.14,353.97,353.97,0.0,0.0
1526667980.79894900,52506489,0.0,0.3,0.0,1669.13574219,0.0,0.12,354.04,354.04,0.0,0.0
1526667980.89974189,52607282,0.0,0.27,0.0,1561.27185059,0.0,0.11,354.09,354.09,0.0,0.0
1526667980.99970198,52707242,0.0,0.27,0.0,1465.8527832,0.0,0.1,354.13,354.13,0.0,0.0
1526667981.09966207,52807202,0.0,0.29,0.0,1396.3125,0.0,0.09,354.16,354.16,0.0,0.0
1526667981.19962192,52907162,0.0,0.31,0.0,1351.11364746,0.0,0.07,354.2,354.2,0.0,0.0
1526667981.29958200,53007122,0.0,0.33,0.0,1323.48962402,0.0,0.08,354.19,354.19,0.0,0.0
1526667981.39954185,53107082,0.0,0.32,0.0,1304.9519043,0.0,0.07,354.18,354.18,0.0,0.0
1526667981.49950194,53207042,0.0,0.31,0.0,1284.20898438,0.0,0.07,354.15,354.15,0.0,0.0
1526667981.59946203,53307002,0.0,0.31,0.0,1262.66162109,0.0,0.1,354.11,354.11,0.0,0.0
1526667981.74773598,53455276,0.0,0.32,0.0,1244.890625,0.0,0.1,354.06,354.06,0.0,0.0
1526667981.84769607,53555236,0.0,0.33,0.0,1232.47058105,0.0,0.11,354.0,354.0,0.0,0.0
1526667984.69572306,56403263,0.0,0.69,0.0,3138.00390625,0.0,0.23,353.63,353.63,0.0,0.0
1526667984.79568291,56503223,0.0,0.69,0.0,3219.15380859,0.0,0.24,353.6,353.6,0.0,0.0
1526667984.89564300,56603183,0.0,0.67,0.0,3289.15234375,0.0,0.24,353.57,353.57,0.0,0.0
1526667984.99560285,56703143,0.0,0.67,0.0,3343.69091797,0.0,0.24,353.56,353.56,0.0,0.0
1526667985.09556293,56803103,0.0,0.68,0.0,3398.76953125,0.0,0.27,353.57,353.57,0.0,0.0
1526667985.19552302,56903063,0.0,0.71,0.0,3457.86669922,0.0,0.28,353.55,353.55,0.0,0.0
1526667985.29548287,57003023,0.0,0.74,0.0,3530.42602539,0.0,0.3,353.54,353.54,0.0,0.0
1526667985.39544296,57102983,0.0,0.77,0.0,3614.77124023,0.0,0.32,353.51,353.51,0.0,0.0
1526667985.49540305,57202943,0.0,0.77,0.0,5929.0,0.0,0.34,353.51,353.51,0.0,0.0
1526667985.59536290,57302903,0.0,0.76,0.0,5896.48730469,0.0,0.35,353.52,353.52,0.0,0.0
1526667985.69532299,57402863,0.0,0.74,0.0,5802.45019531,0.0,0.36,353.56,353.56,0.0,0.0
1526667985.79528308,57502823,0.0,0.7,0.0,5640.09375,0.0,0.37,353.6,353.6,0.0,0.0
1526667985.89524293,57602783,0.0,0.65,0.0,5413.60986328,0.0,0.4,353.65,353.65,0.0,0.0
1526667985.99520302,57702743,0.0,0.62,0.0,5177.69580078,0.0,0.41,353.69,353.69,0.0,0.0
1526667986.09516287,57802703,0.0,0.61,0.0,4973.54980469,0.0,0.43,353.76,353.76,0.0,0.0
1526667986.19512296,57902663,0.0,0.61,0.0,4816.98144531,0.0,0.45,353.86,353.86,0.0,0.0
1526667986.29508305,58002623,0.0,0.61,0.0,4695.20556641,0.0,0.44,353.96,353.96,0.0,0.0
1526667986.39504290,58102583,0.0,0.63,0.0,4603.63769531,0.0,0.43,354.05,354.05,0.0,0.0
1526667986.49500299,58202543,0.0,0.66,0.0,4563.42041016,0.0,0.41,354.18,354.18,0.0,0.0
1526667986.59496307,58302503,0.0,0.68,0.0,4559.49365234,0.0,0.38,354.3,354.3,0.0,0.0
1526667986.69492292,58402463,0.0,0.7,0.0,4574.23095703,0.0,0.37,354.41,354.41,0.0,0.0
1526667986.79571605,58503256,0.0,0.69,0.0,4595.51416016,0.0,0.39,354.5,354.5,0.0,0.0
1526667986.89567590,58603216,0.0,0.68,0.0,4603.12158203,0.0,0.41,354.6,354.6,0.0,0.0
1526667986.99563599,58703176,0.0,0.67,0.0,4599.36425781,0.0,0.43,354.71,354.71,0.0,0.0
1526667987.09559608,58803136,0.0,0.66,0.0,4591.69873047,0.0,0.45,354.78,354.78,0.0,0.0
1526667987.19555593,58903096,0.0,0.67,0.0,4582.66796875,0.0,0.45,354.83,354.83,0.0,0.0
1526667987.29551601,59003056,0.0,0.67,0.0,4577.73828125,0.0,0.44,354.88,354.88,0.0,0.0
1526667987.39547586,59103016,0.0,0.67,0.0,4573.30126953,0.0,0.43,354.9,354.9,0.0,0.0
1526667987.49543595,59202976,0.0,0.63,0.0,4553.98681641,0.0,0.39,354.91,354.91,0.0,0.0
1526667987.59539604,59302936,0.0,0.62,0.0,4526.68652344,0.0,0.36,354.91,354.91,0.0,0.0
1526667987.74366999,59451210,0.0,0.59,0.0,4487.77587891,0.0,0.36,354.91,354.91,0.0,0.0
1526667987.84363008,59551170,0.0,0.6,0.0,4447.06689453,0.0,0.38,354.9,354.9,0.0,0.0
1526667987.94358993,59651130,0.0,0.62,0.0,4416.93701172,0.0,0.41,354.92,354.92,0.0,0.0
1526667988.04355001,59751090,0.0,0.62,0.0,4394.90087891,0.0,0.45,354.93,354.93,0.0,0.0
1526667988.14350986,59851050,0.0,0.63,0.0,3909.625,0.0,0.48,354.94,354.94,0.0,0.0
1526667988.24346995,59951010,0.0,0.62,0.0,3917.4375,0.0,0.51,354.93,354.93,0.0,0.0
1526667988.34343004,60050970,0.0,0.6,0.0,3848.07495117,0.0,0.52,354.91,354.91,0.0,0.0
1526667988.44338989,60150930,0.0,0.61,0.0,3803.44995117,0.0,0.51,354.9,354.9,0.0,0.0
1526667988.54334998,60250890,0.0,0.63,0.0,3815.94506836,0.0,0.51,354.91,354.91,0.0,0.0
1526667988.64331007,60350850,0.0,0.66,0.0,3878.87084961,0.0,0.48,354.95,354.95,0.0,0.0
1526667988.74326992,60450810,0.0,0.69,0.0,3985.90722656,0.0,0.45,354.98,354.98,0.0,0.0
1526667988.84323001,60550770,0.0,0.71,0.0,4105.89697266,0.0,0.43,354.99,354.99,0.0,0.07
1526667988.94318986,60650730,0.0,0.72,0.0,4222.50830078,0.0,0.42,355.0,355.0,0.0,0.08
1526667989.04314995,60750690,0.0,0.7,0.0,4303.69726562,0.0,0.41,354.99,354.99,0.0,0.08
1526667989.14311004,60850650,0.0,0.66,0.0,4331.05224609,0.0,0.41,354.98,354.98,0.0,0.08
1526667989.24306989,60950610,0.0,0.64,0.0,4320.91259766,0.0,0.39,354.98,354.98,0.0,0.07
1526667989.34302998,61050570,0.0,0.61,0.0,4286.20361328,0.0,0.38,354.97,354.97,0.0,0.07
1526667989.44299006,61150530,0.0,0.59,0.0,4238.28027344,0.0,0.39,354.96,354.96,0.0,0.07
1526667989.54294991,61250490,0.0,0.59,0.0,4187.79492188,0.0,0.4,354.95,354.95,0.0,0.07
1526667989.64291000,61350450,0.0,0.57,0.0,4135.95166016,0.0,0.41,354.92,354.92,0.0,0.07
1526667989.74286985,61450410,0.0,0.56,0.0,4080.62060547,0.0,0.42,354.87,354.87,0.0,0.07
1526667989.84366298,61551203,0.0,0.56,0.0,4024.28759766,0.0,0.43,354.79,354.79,0.0,0.07
1526667989.94362307,61651163,0.0,0.55,0.0,3976.22094727,0.0,0.43,354.7,354.7,0.0,0.01
1526667990.04358292,61751123,0.0,0.55,0.0,3928.65991211,0.0,0.42,354.59,354.59,0.0,0.01
1526667990.14354300,61851083,0.0,0.54,0.0,3885.10961914,0.0,0.42,354.49,354.49,0.0,0.01
1526667990.24350286,61951043,0.0,0.53,0.0,3840.08642578,0.0,0.41,354.37,354.37,0.0,0.01
1526667990.34346294,62051003,0.0,0.53,0.0,3795.2565918,0.0,0.4,354.25,354.25,0.0,0.01
1526667990.44342303,62150963,0.0,0.52,0.0,3750.77197266,0.0,0.37,354.14,354.14,0.0,0.01
1526667990.54338288,62250923,0.0,0.53,0.0,3712.26098633,0.0,0.35,354.02,354.02,0.0,0.01
1526667990.64334297,62350883,0.0,0.53,0.0,3677.52026367,0.0,0.34,353.9,353.9,0.0,0.01
1526667990.79161692,62499157,0.0,0.54,0.0,2833.07495117,0.0,0.35,353.78,353.78,0.0,0.01
1526667990.89157701,62599117,0.0,0.54,0.0,2862.5,0.0,0.32,353.69,353.69,0.0,0.01
1526667990.99153686,62699077,0.0,0.54,0.0,2880.33325195,0.0,0.31,353.62,353.62,0.0,0.01
1526667991.09149694,62799037,0.0,0.57,0.0,2935.35620117,0.0,0.32,353.54,353.54,0.0,0.01
1526667991.19145703,62898997,0.0,0.61,0.0,3048.23510742,0.0,0.3,353.47,353.47,0.0,0.01
1526667991.29141688,62998957,0.0,0.63,0.0,3185.625,0.0,0.27,353.39,353.39,0.0,0.01
1526667991.39137697,63098917,0.0,0.63,0.0,3297.53564453,0.0,0.25,353.29,353.29,0.0,0.01
1526667991.49133706,63198877,0.0,0.63,0.0,3381.46875,0.0,0.25,353.22,353.22,0.0,0.01
1526667991.59129691,63298837,0.0,0.64,0.0,3458.39160156,0.0,0.24,353.13,353.13,0.0,0.01
1526667991.69125700,63398797,0.0,0.67,0.0,3539.01245117,0.0,0.21,353.04,353.04,0.0,0.01
1526667991.79121685,63498757,0.0,0.67,0.0,3625.375,0.0,0.19,352.94,352.94,0.0,0.0
1526667991.89117694,63598717,0.0,0.7,0.0,3713.73950195,0.0,0.18,352.84,352.84,0.0,0.0
1526667991.99113703,63698677,0.0,0.7,0.0,3808.51538086,0.0,0.16,352.71,352.71,0.0,0.0
1526667992.09109688,63798637,0.0,0.7,0.0,3886.47851562,0.0,0.14,352.56,352.56,0.0,0.0
1526667992.19105697,63898597,0.0,0.69,0.0,3947.79174805,0.0,0.11,352.41,352.41,0.0,0.0
1526667992.29101706,63998557,0.0,0.7,0.0,4005.78442383,0.0,0.1,352.25,352.25,0.0,0.0
1526667992.39097691,64098517,0.0,0.7,0.0,4058.38525391,0.0,0.1,352.09,352.09,0.0,0.0
1526667992.49093699,64198477,0.0,0.69,0.0,4102.43896484,0.0,0.1,351.92,351.92,0.0,0.0
1526667992.59089708,64298437,0.0,0.69,0.0,4137.10009766,0.0,0.08,351.75,351.75,0.0,0.0
1526667992.69085693,64398397,0.0,0.69,0.0,4165.72607422,0.0,0.07,351.58,351.58,0.0,0.0
1526667992.79081702,64498357,0.0,0.7,0.0,4196.5546875,0.0,0.05,351.37,351.37,0.0,0.0
1526667992.89160991,64599150,0.0,0.71,0.0,4233.81689453,0.0,0.04,351.16,351.16,0.0,0.0
1526667992.99157000,64699110,0.0,0.71,0.0,4268.91210938,0.0,0.03,350.96,350.96,0.0,0.0
1526667993.09152985,64799070,0.0,0.75,0.0,4311.00927734,0.0,0.01,350.79,350.79,0.0,0.0
1526667993.19148993,64899030,0.0,0.78,0.0,4371.17089844,0.0,0.0,350.61,350.61,0.0,0.0
1526667993.29145002,64998990,0.0,0.82,0.0,4449.10791016,0.0,0.0,350.44,350.44,0.0,0.0
1526667993.39140987,65098950,0.0,0.85,0.0,7006.5,0.0,-0.01,350.28,350.28,0.0,0.0
1526667993.49136996,65198910,0.0,0.89,0.0,7268.8125,0.0,-0.03,350.14,350.14,0.0,0.0
1526667993.59133005,65298870,0.0,0.93,0.0,7582.44189453,0.0,-0.05,350.03,350.03,0.0,0.0
1526667993.73960400,65447144,0.0,0.98,0.0,7958.18115234,0.0,-0.02,349.88,349.88,0.0,0.0
1526667993.83956385,65547104,0.0,1.0,0.0,8322.83496094,0.0,0.0,349.79,349.79,0.0,0.0
1526667993.93952394,65647064,0.0,1.0,0.0,8602.36230469,0.0,0.02,349.7,349.7,0.0,0.0
1526667994.03948402,65747024,0.0,0.99,0.0,8785.67871094,0.0,0.0,349.62,349.62,0.0,0.0
1526667996.78755093,68495091,0.0,0.95,0.0,9177.52148438,0.0,-0.07,348.16,348.16,0.0,0.0
1526667996.88751101,68595051,0.0,0.93,0.0,9143.82519531,0.0,-0.05,348.15,348.15,0.0,0.0
1526667996.98747087,68695011,0.0,0.93,0.0,9094.34277344,0.0,-0.05,348.12,348.12,0.0,0.0
1526667997.08743095,68794971,0.0,0.9,0.0,9026.65917969,0.0,-0.04,348.06,348.06,0.0,0.0
1526667997.18739104,68894931,0.0,0.9,0.0,8945.70800781,0.0,-0.02,347.99,347.99,0.0,0.0
1526667997.28735089,68994891,0.0,0.9,0.0,8880.65429688,0.0,0.0,347.91,347.91,0.0,0.0
1526667997.38731098,69094851,0.0,0.91,0.0,8832.65039062,0.0,0.01,347.84,347.84,0.0,0.0
1526667997.48727107,69194811,0.0,0.9,0.0,8788.63378906,0.0,0.04,347.77,347.77,0.0,0.0
1526667997.58723092,69294771,0.0,0.89,0.0,8734.96582031,0.0,0.04,347.73,347.73,0.0,0.0
1526667997.68719101,69394731,0.0,0.91,0.0,8697.91308594,0.0,0.03,347.7,347.7,0.0,0.0
1526667997.78715086,69494691,0.0,0.91,0.0,8674.75097656,0.0,0.02,347.67,347.67,0.0,0.0
1526667997.88711095,69594651,0.0,0.91,0.0,8654.02734375,0.0,0.0,347.63,347.63,0.0,0.0
1526667997.98707104,69694611,0.0,0.9,0.0,8635.15039062,0.0,-0.04,347.58,347.58,0.0,0.0
1526667998.08703089,69794571,0.0,0.89,0.0,8607.53613281,0.0,-0.08,347.53,347.53,0.0,0.0
1526667998.18699098,69894531,0.0,0.88,0.0,8572.70898438,0.0,-0.1,347.46,347.46,0.0,0.0
1526667998.28695107,69994491,0.0,0.86,0.0,8532.30566406,0.0,-0.11,347.39,347.39,0.0,0.0
1526667998.38691092,70094451,0.0,0.84,0.0,8479.09765625,0.0,-0.12,347.31,347.31,0.0,0.0
1526667998.48687100,70194411,0.0,0.81,0.0,8412.53417969,0.0,-0.13,347.25,347.25,0.0,0.0
1526667998.58683085,70294371,0.0,0.78,0.0,8331.94921875,0.0,-0.16,347.22,347.22,0.0,0.0
1526667998.68679094,70394331,0.0,0.76,0.0,5944.79980469,0.0,-0.16,347.19,347.19,0.0,0.0
1526667998.78675103,70494291,0.0,0.74,0.0,5815.17480469,0.0,-0.16,347.14,347.14,0.0,0.0
1526667998.88754392,70595084,0.0,0.75,0.0,5707.08349609,0.0,-0.16,347.09,347.09,0.0,0.0
1526667998.98750401,70695044,0.0,0.76,0.0,5694.11230469,0.0,-0.17,347.07,347.07,0.0,0.0
1526667999.08746386,70795004,0.0,0.8,0.0,5773.85986328,0.0,-0.17,347.07,347.07,0.0,0.0
1526667999.18742394,70894964,0.0,0.83,0.0,5905.18310547,0.0,-0.2,347.08,347.08,0.0,0.0
1526667999.28738403,70994924,0.0,0.84,0.0,6051.69287109,0.0,-0.21,347.07,347.07,0.0,0.0
1526667999.38734388,71094884,0.0,0.86,0.0,6205.33447266,0.0,-0.21,347.04,347.04,0.0,0.0
1526667999.48730397,71194844,0.0,0.84,0.0,6330.04150391,0.0,-0.21,347.0,347.0,0.0,0.0
1526667999.58726406,71294804,0.0,0.81,0.0,6376.52978516,0.0,-0.2,346.89,346.89,0.0,0.0
1526667999.73553801,71443078,0.0,0.78,0.0,6370.83203125,0.0,-0.21,346.71,346.71,0.0,0.0
1526667999.83549786,71543038,0.0,0.75,0.0,6321.95019531,0.0,-0.23,346.6,346.6,0.0,0.0
1526667999.93545794,71642998,0.0,0.74,0.0,6263.75390625,0.0,-0.27,346.46,346.46,0.0,0.0
1526668000.03541803,71742958,0.0,0.73,0.0,6200.3984375,0.0,-0.32,346.32,346.32,0.0,0.0
1526668000.13537788,71842918,0.0,0.71,0.0,6129.06689453,0.0,-0.36,346.17,346.17,0.0,0.0
1526668000.23533797,71942878,0.0,0.7,0.0,6054.23291016,0.0,-0.38,346.06,346.06,0.0,0.0
1526668000.33529806,72042838,0.0,0.71,0.0,5991.72802734,0.0,-0.39,345.96,345.96,0.0,0.0
1526668000.43525791,72142798,0.0,0.71,0.0,5943.67626953,0.0,-0.4,345.9,345.9,0.0,0.0
1526668000.53521800,72242758,0.0,0.69,0.0,5887.65917969,0.0,-0.41,345.87,345.87,0.0,0.0
1526668000.63517785,72342718,0.0,0.69,0.0,5831.32617188,0.0,-0.42,345.82,345.82,0.0,0.0
1526668000.73513794,72442678,0.0,0.68,0.0,5774.32373047,0.0,-0.43,345.78,345.78,0.0,0.0
1526668000.83509803,72542638,0.0,0.66,0.0,5717.14111328,0.0,-0.45,345.72,345.72,0.0,0.0
1526668000.93505788,72642598,0.0,0.63,0.0,5648.09765625,0.0,-0.46,345.65,345.65,0.0,0.0
1526668001.03501797,72742558,0.0,0.58,0.0,5564.70507812,0.0,-0.45,345.58,345.58,0.0,0.0
1526668001.13497806,72842518,0.0,0.54,0.0,5468.40820312,0.0,-0.44,345.51,345.51,0.0,0.0
1526668001.23493791,72942478,0.0,0.5,0.0,5361.16552734,0.0,-0.44,345.45,345.45,0.0,0.0
1526668001.33489799,73042438,0.0,0.47,0.0,2314.30004883,0.0,-0.44,345.41,345.41,0.0,0.0
1526668001.43485808,73142398,0.0,0.48,0.0,2268.77490234,0.0,-0.45,345.38,345.38,0.0,0.0
1526668001.53481793,73242358,0.0,0.51,0.0,2326.33325195,0.0,-0.47,345.35,345.35,0.0,0.0
1526668001.63477802,73342318,0.0,0.54,0.0,2436.66259766,0.0,-0.48,345.31,345.31,0.0,0.0
1526668001.73473787,73442278,0.0,0.56,0.0,2557.73999023,0.0,-0.49,345.21,345.21,0.0,0.0
1526668001.83553100,73543071,0.0,0.59,0.0,2685.00415039,0.0,-0.51,345.11,345.11,0.0,0.0
1526668001.93549085,73643031,0.0,0.6,0.0,2813.16796875,0.0,-0.54,344.97,344.97,0.0,0.0
1526668002.03545094,73742991,0.0,0.6,0.0,2911.52197266,0.0,-0.55,344.84,344.84,0.0,0.0
1526668002.13541102,73842951,0.0,0.59,0.0,2985.375,0.0,-0.55,344.73,344.73,0.0,0.0
1526668002.23537087,73942911,0.0,0.57,0.0,3023.29760742,0.0,-0.56,344.61,344.61,0.0,0.0
1526668002.33533096,74042871,0.0,0.56,0.0,3041.50463867,0.0,-0.58,344.49,344.49,0.0,0.0
1526668002.43529105,74142831,0.0,0.55,0.0,3044.29174805,0.0,-0.58,344.38,344.38,0.0,0.0
1526668002.53525090,74242791,0.0,0.53,0.0,3030.92895508,0.0,-0.56,344.26,344.26,0.0,0.0
1526668002.68352485,74391065,0.0,0.5,0.0,3001.5534668,0.0,-0.53,344.1,344.1,0.0,0.0
1526668002.78348494,74491025,0.0,0.5,0.0,2968.11669922,0.0,-0.51,344.02,344.02,0.0,0.0
1526668002.88344502,74590985,0.0,0.49,0.0,2937.93115234,0.0,-0.52,343.94,343.94,0.0,0.0
1526668002.98340487,74690945,0.0,0.46,0.0,2898.31030273,0.0,-0.52,343.87,343.87,0.0,0.0
1526668003.08336496,74790905,0.0,0.43,0.0,2846.60693359,0.0,-0.52,343.81,343.81,0.0,0.0
1526668003.18332505,74890865,0.0,0.42,0.0,2792.53564453,0.0,-0.52,343.76,343.76,0.0,0.0
1526668003.28328490,74990825,0.0,0.42,0.0,2741.10864258,0.0,-0.53,343.7,343.7,0.0,0.0
1526668003.38324499,75090785,0.0,0.4,0.0,2689.18579102,0.0,-0.51,343.65,343.65,0.0,0.06
1526668003.48320508,75190745,0.0,0.4,0.0,2639.22851562,0.0,-0.53,343.58,343.58,0.0,0.06
1526668003.58316493,75290705,0.0,0.41,0.0,2595.18920898,0.0,-0.55,343.51,343.51,0.0,0.06
1526668003.68312502,75390665,0.0,0.43,0.0,2560.92285156,0.0,-0.58,343.46,343.46,0.0,0.06
1526668003.78308487,75490625,0.0,0.46,0.0,2538.97802734,0.0,-0.6,343.43,343.43,0.0,0.06
1526668003.88304496,75590585,0.0,0.5,0.0,2531.10375977,0.0,-0.59,343.4,343.4,0.0,0.06
1526668003.98300505,75690545,0.0,0.53,0.0,2648.14990234,0.0,-0.58,343.36,343.36,0.0,0.06
1526668004.08296490,75790505,0.0,0.56,0.0,2791.91259766,0.0,-0.58,343.31,343.31,0.0,0.06
1526668004.18292499,75890465,0.0,0.6,0.0,2964.91674805,0.0,-0.61,343.25,343.25,0.0,0.06
1526668004.28288507,75990425,0.0,0.66,0.0,3222.35620117,0.0,-0.65,343.18,343.18,0.0,0.05
1526668004.38284492,76090385,0.0,0.71,0.0,3519.44506836,0.0,-0.68,343.1,343.1,0.0,0.05
1526668004.48280501,76190345,0.0,0.75,0.0,3819.48339844,0.0,-0.7,343.04,343.04,0.0,0.05
1526668004.58276486,76290305,0.0,0.77,0.0,4101.24267578,0.0,-0.71,343.01,343.01,0.0,0.05
1526668004.68272495,76390265,0.0,0.77,0.0,4348.11865234,0.0,-0.71,343.0,343.0,0.0,0.05
1526668004.78351808,76491058,0.0,0.75,0.0,4509.77490234,0.0,-0.72,343.0,343.0,0.0,0.05
1526668004.88347793,76591018,0.0,0.74,0.0,4613.10253906,0.0,-0.74,342.99,342.99,0.0,0.02
1526668004.98343801,76690978,0.0,0.73,0.0,4678.51806641,0.0,-0.72,343.0,343.0,0.0,0.01
1526668005.08339787,76790938,0.0,0.72,0.0,4729.10009766,0.0,-0.7,343.01,343.01,0.0,0.01
1526668005.18335795,76890898,0.0,0.72,0.0,4764.09228516,0.0,-0.67,342.99,342.99,0.0,0.01
1526668005.28331804,76990858,0.0,0.72,0.0,4794.0859375,0.0,-0.65,342.95,342.95,0.0,0.01
1526668005.38327789,77090818,0.0,0.71,0.0,4816.02832031,0.0,-0.62,342.91,342.91,0.0,0.01
1526668005.48323798,77190778,0.0,0.7,0.0,4824.36083984,0.0,-0.6,342.85,342.85,0.0,0.05
1526668005.58319807,77290738,0.0,0.71,0.0,4832.12792969,0.0,-0.58,342.79,342.79,0.0,0.05
1526668005.73147202,77439012,0.0,0.75,0.0,4857.35693359,0.0,-0.57,342.73,342.73,0.0,0.05
1526668005.83143187,77538972,0.0,0.76,0.0,4902.32910156,0.0,-0.55,342.72,342.72,0.0,0.02
1526668005.93139195,77638932,0.0,0.75,0.0,4942.04882812,0.0,-0.52,342.73,342.73,0.0,0.02
1526668006.03135204,77738892,0.0,0.73,0.0,4969.60839844,0.0,-0.5,342.75,342.75,0.0,0.02
1526668006.13131189,77838852,0.0,0.7,0.0,4977.59765625,0.0,-0.48,342.77,342.77,0.0,0.02
1526668006.23127198,77938812,0.0,0.69,0.0,4970.59765625,0.0,-0.45,342.77,342.77,0.0,0.02
1526668008.77941895,80486959,0.0,0.59,0.0,3451.36938477,0.0,-0.35,342.1,342.1,0.0,0.01
1526668008.87937903,80586919,0.0,0.61,0.0,3459.54125977,0.0,-0.38,342.07,342.07,0.0,0.01
1526668008.97933888,80686879,0.0,0.64,0.0,3480.93017578,0.0,-0.43,342.06,342.06,0.0,0.01
1526668009.07929897,80786839,0.0,0.63,0.0,3505.40600586,0.0,-0.51,342.07,342.07,0.0,0.01
1526668009.17925906,80886799,0.0,0.62,0.0,3522.51538086,0.0,-0.57,342.07,342.07,0.0,0.01
1526668009.27921891,80986759,0.0,0.61,0.0,3751.75,0.0,-0.64,342.07,342.07,0.0,0.01
1526668009.37917900,81086719,0.0,0.6,0.0,3722.76245117,0.0,-0.68,342.08,342.08,0.0,0.01
1526668009.47913885,81186679,0.0,0.59,0.0,3663.99169922,0.0,-0.7,342.1,342.1,0.0,0.01
1526668009.57909894,81286639,0.0,0.55,0.0,3553.45629883,0.0,-0.72,342.1,342.1,0.0,0.01
1526668009.67905903,81386599,0.0,0.51,0.0,3402.70507812,0.0,-0.73,342.11,342.11,0.0,0.01
1526668009.77901888,81486559,0.0,0.48,0.0,3248.22094727,0.0,-0.73,342.09,342.09,0.0,0.01
1526668009.87897897,81586519,0.0,0.46,0.0,3102.53222656,0.0,-0.72,342.05,342.05,0.0,0.01
1526668009.97893906,81686479,0.0,0.43,0.0,2962.66870117,0.0,-0.71,342.0,342.0,0.0,0.01
1526668010.07889891,81786439,0.0,0.38,0.0,2815.69165039,0.0,-0.7,341.96,341.96,0.0,0.01
1526668010.17885900,81886399,0.0,0.35,0.0,2668.88256836,0.0,-0.7,341.93,341.93,0.0,0.01
1526668010.27881885,81986359,0.0,0.35,0.0,2537.62036133,0.0,-0.7,341.92,341.92,0.0,0.01
1526668010.37877893,82086319,0.0,0.33,0.0,2422.92089844,0.0,-0.69,341.92,341.92,0.0,0.01
1526668010.47873902,82186279,0.0,0.29,0.0,2311.66723633,0.0,-0.69,341.93,341.93,0.0,0.01
1526668010.57869887,82286239,0.0,0.24,0.0,2196.22509766,0.0,-0.69,341.92,341.92,0.0,0.01
1526668010.67865896,82386199,0.0,0.18,0.0,2078.87011719,0.0,-0.7,341.89,341.89,0.0,0.01
1526668010.77861905,82486159,0.0,0.13,0.0,1963.125,0.0,-0.72,341.83,341.83,0.0,0.0
1526668010.87941194,82586952,0.0,0.09,0.0,1854.66320801,0.0,-0.73,341.76,341.76,0.0,0.01
1526668010.97937202,82686912,0.0,0.08,0.0,1755.67773438,0.0,-0.74,341.69,341.69,0.0,0.01
1526668011.07933187,82786872,0.0,0.06,0.0,1665.81311035,0.0,-0.73,341.63,341.63,0.0,0.01
1526668011.17929196,82886832,0.0,0.04,0.0,1583.67126465,0.0,-0.71,341.59,341.59,0.0,0.01
1526668011.27925205,82986792,0.0,0.04,0.0,1509.02026367,0.0,-0.69,341.57,341.57,0.0,0.01
1526668011.37921190,83086752,0.0,0.05,0.0,1441.26818848,0.0,-0.66,341.55,341.55,0.0,0.01
1526668011.47917199,83186712,0.0,0.06,0.0,1380.08581543,0.0,-0.64,341.54,341.54,0.0,0.01
1526668011.57913208,83286672,0.0,0.07,0.0,1324.61047363,0.0,-0.64,341.54,341.54,0.0,0.01
1526668011.72740602,83434946,0.0,0.05,0.0,1273.27294922,0.0,-0.61,341.55,341.55,0.0,0.01
1526668011.82736588,83534906,0.0,0.05,0.0,1225.26245117,0.0,-0.61,341.56,341.56,0.0,0.01
1526668011.92732596,83634866,0.0,0.08,0.0,38.9249992371,0.0,-0.61,341.57,341.57,0.0,0.01
1526668012.02728605,83734826,0.0,0.11,0.0,61.0750007629,0.0,-0.59,341.59,341.59,0.0,0.01
1526668012.12724590,83834786,0.0,0.15,0.0,98.2583312988,0.0,-0.57,341.6,341.6,0.0,0.01
1526668012.22720599,83934746,0.0,0.17,0.0,140.0625,0.0,-0.53,341.61,341.61,0.0,0.01
1526668012.32716608,84034706,0.0,0.17,0.0,169.850006104,0.0,-0.5,341.63,341.63,0.0,0.01
1526668012.42712593,84134666,0.0,0.18,0.0,191.604171753,0.0,-0.49,341.66,341.66,0.0,0.01
1526668012.52708602,84234626,0.0,0.22,0.0,223.282150269,0.0,-0.52,341.73,341.73,0.0,0.01
1526668012.62704587,84334586,0.0,0.27,0.0,272.962493896,0.0,-0.55,341.81,341.81,0.0,0.01
1526668012.72700596,84434546,0.0,0.31,0.0,336.408325195,0.0,-0.57,341.89,341.89,0.0,0.01
1526668012.82696605,84534506,0.0,0.35,0.0,411.787506104,0.0,-0.59,341.95,341.95,0.0,0.01
1526668012.92692590,84634466,0.0,0.37,0.0,493.543182373,0.0,-0.63,341.98,341.98,0.0,0.01
1526668013.02688599,84734426,0.0,0.38,0.0,572.279174805,0.0,-0.65,342.01,342.01,0.0,0.01
1526668013.12684608,84834386,0.0,0.37,0.0,638.5,0.0,-0.66,342.03,342.03,0.0,0.0
1526668013.22680593,84934346,0.0,0.33,0.0,679.594665527,0.0,-0.66,342.05,342.05,0.0,0.0
1526668013.32676601,85034306,0.0,0.3,0.0,699.546691895,0.0,-0.66,342.07,342.07,0.0,0.0
1526668013.42672586,85134266,0.0,0.3,0.0,712.075012207,0.0,-0.68,342.11,342.11,0.0,0.01
1526668013.52668595,85234226,0.0,0.3,0.0,723.129394531,0.0,-0.69,342.15,342.15,0.0,0.01
1526668013.62664604,85334186,0.0,0.29,0.0,731.972229004,0.0,-0.71,342.18,342.18,0.0,0.0
1526668013.72660589,85434146,0.0,0.26,0.0,733.452636719,0.0,-0.72,342.23,342.23,0.0,0.0
1526668013.82739902,85534939,0.0,0.21,0.0,723.51373291,0.0,-0.73,342.28,342.28,0.0,0.0
1526668013.92735887,85634899,0.0,0.18,0.0,706.702392578,0.0,-0.75,342.32,342.32,0.0,0.0
1526668014.02731895,85734859,0.0,0.18,0.0,689.30682373,0.0,-0.77,342.34,342.34,0.0,0.0
1526668014.12727904,85834819,0.0,0.18,0.0,673.42388916,0.0,-0.77,342.36,342.36,0.0,0.0
1526668014.22723889,85934779,0.0,0.19,0.0,660.367736816,0.0,-0.77,342.38,342.38,0.0,0.0
1526668014.32719898,86034739,0.0,0.17,0.0,646.463989258,0.0,-0.77,342.39,342.39,0.0,0.0
1526668014.42715907,86134699,0.0,0.17,0.0,632.715393066,0.0,-0.79,342.4,342.4,0.0,0.0
1526668014.52711892,86234659,0.0,0.16,0.0,274.149993896,0.0,-0.78,342.4,342.4,0.0,0.0
1526668014.62707901,86334619,0.0,0.16,0.0,257.712493896,0.0,-0.77,342.41,342.41,0.0,0.0
1526668014.77535295,86482893,0.0,0.2,0.0,287.891662598,0.0,-0.73,342.42,342.42,0.0,0.0
1526668014.87531304,86582853,0.0,0.21,0.0,325.65625,0.0,-0.71,342.43,342.43,0.0,0.0
1526668014.97527289,86682813,0.0,0.19,0.0,339.415008545,0.0,-0.69,342.45,342.45,0.0,0.0
1526668015.07523298,86782773,0.0,0.17,0.0,336.766662598,0.0,-0.7,342.44,342.44,0.0,0.0
1526668015.17519307,86882733,0.0,0.14,0.0,323.024993896,0.0,-0.73,342.43,342.43,0.0,0.0
1526668015.27515292,86982693,0.0,0.13,0.0,303.478118896,0.0,-0.75,342.43,342.43,0.0,0.0
1526668015.37511301,87082653,0.0,0.12,0.0,286.799987793,0.0,-0.76,342.43,342.43,0.0,0.0
1526668015.47507286,87182613,0.0,0.13,0.0,272.582489014,0.0,-0.77,342.42,342.42,0.0,0.0
1526668015.57503295,87282573,0.0,0.15,0.0,264.590911865,0.0,-0.78,342.41,342.41,0.0,0.0
1526668015.67499304,87382533,0.0,0.16,0.0,262.454162598,0.0,-0.78,342.41,342.41,0.0,0.0
1526668015.77495289,87482493,0.0,0.17,0.0,263.290374756,0.0,-0.77,342.42,342.42,0.0,0.0
1526668015.87491298,87582453,0.0,0.18,0.0,266.314300537,0.0,-0.76,342.42,342.42,0.0,0.0
1526668015.97487307,87682413,0.0,0.2,0.0,272.97833252,0.0,-0.74,342.42,342.42,0.0,0.0
1526668016.07483292,87782373,0.0,0.22,0.0,284.103118896,0.0,-0.71,342.42,342.42,0.0,0.0
1526668016.17479300,87882333,0.0,0.23,0.0,296.854400635,0.0,-0.68,342.4,342.4,0.0,0.0
1526668016.27475286,87982293,0.0,0.26,0.0,313.768066406,0.0,-0.67,342.36,342.36,0.0,0.0
1526668016.37471294,88082253,0.0,0.32,0.0,342.469726562,0.0,-0.66,342.35,342.35,0.0,0.0
1526668016.47467303,88182213,0.0,0.35,0.0,381.907501221,0.0,-0.62,342.35,342.35,0.0,0.0
1526668016.57463288,88282173,0.0,0.36,0.0,423.829772949,0.0,-0.59,342.37,342.37,0.0,0.0
1526668016.67459297,88382133,0.0,0.35,0.0,460.56930542,0.0,-0.58,342.41,342.41,0.0,0.0
1526668016.77455306,88482093,0.0,0.34,0.0,491.930419922,0.0,-0.58,342.42,342.42,0.0,0.0
1526668016.87534595,88582886,0.0,0.34,0.0,519.599975586,0.0,-0.6,342.44,342.44,0.0,0.0
1526668016.97530603,88682846,0.0,0.34,0.0,545.056030273,0.0,-0.62,342.47,342.47,0.0,0.0
1526668017.07526588,88782806,0.0,0.35,0.0,569.88079834,0.0,-0.62,342.5,342.5,0.0,0.0
1526668017.17522597,88882766,0.0,0.37,0.0,1298.125,0.0,-0.63,342.54,342.54,0.0,0.0
1526668017.27518606,88982726,0.0,0.39,0.0,1371.36254883,0.0,-0.65,342.58,342.58,0.0,0.0
1526668017.37514591,89082686,0.0,0.4,0.0,1439.01672363,0.0,-0.7,342.64,342.64,0.0,0.0
1526668017.47510600,89182646,0.0,0.42,0.0,1490.94372559,0.0,-0.73,342.67,342.67,0.0,0.0
1526668017.57506585,89282606,0.0,0.42,0.0,1551.93005371,0.0,-0.74,342.69,342.69,0.0,0.0
1526668017.72334003,89430880,0.0,0.43,0.0,1589.40002441,0.0,-0.77,342.73,342.73,0.0,0.0
1526668017.82329988,89530840,0.0,0.43,0.0,1626.48571777,0.0,-0.81,342.79,342.79,0.0,0.0
1526668017.92325997,89630800,0.0,0.44,0.0,1663.0,0.0,-0.84,342.86,342.86,0.0,0.0
1526668018.02322006,89730760,0.0,0.45,0.0,1699.26672363,0.0,-0.85,342.92,342.92,0.0,0.05
1526668018.12317991,89830720,0.0,0.47,0.0,1737.54248047,0.0,-0.84,342.98,342.98,0.0,0.06
1526668018.22314000,89930680,0.0,0.48,0.0,1786.66369629,0.0,-0.83,343.04,343.04,0.0,0.06
1526668018.32309985,90030640,0.0,0.49,0.0,1831.79577637,0.0,-0.82,343.09,343.09,0.0,0.06
1526668018.42305994,90130600,0.0,0.49,0.0,1875.58081055,0.0,-0.82,343.15,343.15,0.0,0.06
1526668020.77128696,92478827,0.0,0.75,0.0,5371.47021484,0.0,-0.98,345.46,345.46,0.0,0.04
1526668020.87124705,92578787,0.0,0.79,0.0,5416.70019531,0.0,-0.97,345.57,345.57,0.0,0.03
1526668020.97120690,92678747,0.0,0.82,0.0,5501.38330078,0.0,-0.96,345.68,345.68,0.0,0.03
1526668021.07116699,92778707,0.0,0.83,0.0,5598.92138672,0.0,-0.93,345.79,345.79,0.0,0.02
1526668021.17112708,92878667,0.0,0.81,0.0,5684.89648438,0.0,-0.89,345.93,345.93,0.0,0.02
1526668021.27108693,92978627,0.0,0.78,0.0,5726.796875,0.0,-0.84,346.05,346.05,0.0,0.02
1526668021.37104702,93078587,0.0,0.74,0.0,5730.64208984,0.0,-0.83,346.19,346.19,0.0,0.02
1526668021.47100687,93178547,0.0,0.72,0.0,5710.05126953,0.0,-0.84,346.32,346.32,0.0,0.02
1526668021.57096696,93278507,0.0,0.71,0.0,5680.62792969,0.0,-0.84,346.45,346.45,0.0,0.02
1526668021.67092705,93378467,0.0,0.71,0.0,5646.96337891,0.0,-0.84,346.57,346.57,0.0,0.02
1526668021.77088690,93478427,0.0,0.71,0.0,5616.66503906,0.0,-0.85,346.66,346.66,0.0,0.02
1526668021.87084699,93578387,0.0,0.7,0.0,5585.22363281,0.0,-0.87,346.72,346.72,0.0,0.02
1526668021.97080708,93678347,0.0,0.69,0.0,5548.07519531,0.0,-0.9,346.77,346.77,0.0,0.02
1526668022.07076693,93778307,0.0,0.68,0.0,5510.72705078,0.0,-0.92,346.79,346.79,0.0,0.02
1526668022.17072701,93878267,0.0,0.66,0.0,5468.16748047,0.0,-0.95,346.82,346.82,0.0,0.02
1526668022.27068686,93978227,0.0,0.64,0.0,5418.20507812,0.0,-0.98,346.82,346.82,0.0,0.02
1526668022.37064695,94078187,0.0,0.61,0.0,5359.47119141,0.0,-1.02,346.82,346.82,0.0,0.02
1526668022.47060704,94178147,0.0,0.59,0.0,3648.55004883,0.0,-1.07,346.82,346.82,0.0,0.02
1526668022.57056689,94278107,0.0,0.57,0.0,3519.53759766,0.0,-1.1,346.79,346.79,0.0,0.02
1526668022.67052698,94378067,0.0,0.57,0.0,3429.35839844,0.0,-1.13,346.8,346.8,0.0,0.02
1526668022.77048707,94478027,0.0,0.58,0.0,3390.01879883,0.0,-1.13,346.82,346.82,0.0,0.02
1526668022.87127995,94578820,0.0,0.59,0.0,3404.12011719,0.0,-1.13,346.85,346.85,0.0,0.02
1526668022.97124004,94678780,0.0,0.58,0.0,3408.15844727,0.0,-1.14,346.88,346.88,0.0,0.02
1526668023.07119989,94778740,0.0,0.56,0.0,3385.08935547,0.0,-1.14,346.94,346.94,0.0,0.02
1526668023.17115998,94878700,0.0,0.53,0.0,3328.93115234,0.0,-1.14,347.0,347.0,0.0,0.01
1526668023.27112007,94978660,0.0,0.5,0.0,3251.53344727,0.0,-1.14,347.07,347.07,0.0,0.01
1526668023.37107992,95078620,0.0,0.47,0.0,3158.54760742,0.0,-1.16,347.13,347.13,0.0,0.01
1526668023.47104001,95178580,0.0,0.43,0.0,3054.9909668,0.0,-1.18,347.17,347.17,0.0,0.01
1526668023.57099986,95278540,0.0,0.43,0.0,2952.72094727,0.0,-1.21,347.21,347.21,0.0,0.01
1526668023.71927404,95426814,0.0,0.41,0.0,2863.42895508,0.0,-1.22,347.27,347.27,0.0,0.01
1526668023.81923389,95526774,0.0,0.38,0.0,2768.14819336,0.0,-1.24,347.29,347.29,0.0,0.01
1526668023.91919398,95626734,0.0,0.33,0.0,2666.89990234,0.0,-1.23,347.29,347.29,0.0,0.01
1526668024.01915407,95726694,0.0,0.3,0.0,2561.62036133,0.0,-1.23,347.27,347.27,0.0,0.01
1526668024.11911392,95826654,0.0,0.29,0.0,2461.96923828,0.0,-1.22,347.26,347.26,0.0,0.01
1526668024.21907401,95926614,0.0,0.29,0.0,2372.73461914,0.0,-1.19,347.26,347.26,0.0,0.01
1526668024.31903386,96026574,0.0,0.27,0.0,2289.21850586,0.0,-1.19,347.28,347.28,0.0,0.01
1526668024.41899395,96126534,0.0,0.25,0.0,2208.58740234,0.0,-1.18,347.29,347.29,0.0,0.01
1526668024.51895404,96226494,0.0,0.24,0.0,2131.02026367,0.0,-1.16,347.3,347.3,0.0,0.01
1526668024.61891389,96326454,0.0,0.28,0.0,2064.58300781,0.0,-1.15,347.32,347.32,0.0,0.01
1526668024.71887398,96426414,0.0,0.3,0.0,2011.85217285,0.0,-1.14,347.33,347.33,0.0,0.01
1526668024.81883407,96526374,0.0,0.32,0.0,1968.7947998,0.0,-1.14,347.33,347.33,0.0,0.01
1526668024.91879392,96626334,0.0,0.34,0.0,1933.0279541,0.0,-1.15,347.32,347.32,0.0,0.01
1526668025.01875401,96726294,0.0,0.36,0.0,1906.0201416,0.0,-1.15,347.34,347.34,0.0,0.01
1526668025.11871386,96826254,0.0,0.38,0.0,1359.97497559,0.0,-1.15,347.35,347.35,0.0,0.01
1526668025.21867394,96926214,0.0,0.39,0.0,1412.57495117,0.0,-1.16,347.35,347.35,0.0,0.01
1526668025.31863403,97026174,0.0,0.39,0.0,1448.7166748,0.0,-1.17,347.35,347.35,0.0,0.01
1526668025.41859388,97126134,0.0,0.4,0.0,1470.73754883,0.0,-1.2,347.34,347.34,0.0,0.01
1526668025.51855397,97226094,0.0,0.41,0.0,1504.68994141,0.0,-1.22,347.34,347.34,0.0,0.01
1526668025.61851406,97326054,0.0,0.43,0.0,1544.83752441,0.0,-1.22,347.36,347.36,0.0,0.01
1526668025.71847391,97426014,0.0,0.45,0.0,1603.93933105,0.0,-1.23,347.38,347.38,0.0,0.01
1526668025.81926703,97526807,0.0,0.47,0.0,1670.89685059,0.0,-1.27,347.37,347.37,0.0,0.01
1526668025.91922688,97626767,0.0,0.48,0.0,1735.69995117,0.0,-1.3,347.35,347.35,0.0,0.01
1526668026.01918697,97726727,0.0,0.49,0.0,1798.83496094,0.0,-1.3,347.34,347.34,0.0,0.01
1526668026.11914706,97826687,0.0,0.5,0.0,1860.55224609,0.0,-1.29,347.28,347.28,0.0,0.01
1526668026.21910691,97926647,0.0,0.51,0.0,1914.68127441,0.0,-1.29,347.24,347.24,0.0,0.01
1526668026.31906700,98026607,0.0,0.5,0.0,1960.48266602,0.0,-1.31,347.19,347.19,0.0,0.01
1526668026.41902685,98126567,0.0,0.51,0.0,2002.98754883,0.0,-1.33,347.15,347.15,0.0,0.01
1526668026.51898694,98226527,0.0,0.53,0.0,2048.35839844,0.0,-1.36,347.1,347.1,0.0,0.01
1526668026.61894703,98326487,0.0,0.56,0.0,2103.828125,0.0,-1.36,347.07,347.07,0.0,0.01
1526668026.76722097,98474761,0.0,0.54,0.0,2161.44848633,0.0,-1.34,347.01,347.01,0.0,0.01
1526668026.86718106,98574721,0.0,0.51,0.0,2197.16796875,0.0,-1.33,346.96,346.96,0.0,0.01
1526668026.96714091,98674681,0.0,0.49,0.0,2212.61450195,0.0,-1.31,346.9,346.9,0.0,0.01
1526668027.06710100,98774641,0.0,0.46,0.0,2213.65380859,0.0,-1.29,346.88,346.88,0.0,0.01
1526668027.16706085,98874601,0.0,0.45,0.0,2206.29516602,0.0,-1.27,346.88,346.88,0.0,0.01
1526668027.26702094,98974561,0.0,0.41,0.0,2192.17163086,0.0,-1.28,346.87,346.87,0.0,0.01
1526668027.36698103,99074521,0.0,0.36,0.0,2160.76416016,0.0,-1.27,346.88,346.88,0.0,0.01
1526668027.46694088,99174481,0.0,0.32,0.0,2118.15625,0.0,-1.25,346.88,346.88,0.0,0.01
1526668027.56690097,99274441,0.0,0.29,0.0,2070.74511719,0.0,-1.24,346.9,346.9,0.0,0.01
1526668027.66686106,99374401,0.0,0.26,0.0,2019.80859375,0.0,-1.21,346.92,346.92,0.0,0.01
1526668027.76682091,99474361,0.0,0.21,0.0,536.575012207,0.0,-1.17,346.94,346.94,0.0,0.01
1526668027.86678100,99574321,0.0,0.19,0.0,461.612487793,0.0,-1.16,346.95,346.95,0.0,0.01
1526668027.96674085,99674281,0.0,0.16,0.0,408.133331299,0.0,-1.16,346.97,346.97,0.0,0.01
1526668028.06670094,99774241,0.0,0.14,0.0,359.850006104,0.0,-1.18,346.98,346.98,0.0,0.01
1526668028.16666102,99874201,0.0,0.12,0.0,322.299987793,0.0,-1.21,347.0,347.0,0.0,0.01
1526668028.26662087,99974161,0.0,0.1,0.0,287.908325195,0.0,-1.24,347.04,347.04,0.0,0.01
1526668028.36658096,100074121,0.0,0.08,0.0,258.982147217,0.0,-1.26,347.14,347.14,0.0,0.01
1526668028.46654105,100174081,0.0,0.07,0.0,233.25,0.0,-1.26,347.25,347.25,0.0,0.01
1526668028.56650090,100274041,0.0,0.06,0.0,211.405548096,0.0,-1.26,347.35,347.35,0.0,0.01
1526668028.66646099,100374001,0.0,0.08,0.0,194.660003662,0.0,-1.24,347.45,347.45,0.0,0.01
1526668028.76642108,100473961,0.0,0.12,0.0,185.156814575,0.0,-1.23,347.52,347.52,0.0,0.01
1526668028.86721396,100574754,0.0,0.16,0.0,186.862503052,0.0,-1.24,347.58,347.58,0.0,0.01
1526668028.96717405,100674714,0.0,0.2,0.0,198.919235229,0.0,-1.23,347.63,347.63,0.0,0.01
1526668029.06713390,100774674,0.0,0.23,0.0,218.085708618,0.0,-1.22,347.66,347.66,0.0,0.01
1526668029.16709399,100874634,0.0,0.29,0.0,248.401672363,0.0,-1.23,347.72,347.72,0.0,0.01
1526668029.26705408,100974594,0.0,0.33,0.0,295.481262207,0.0,-1.23,347.79,347.79,0.0,0.01
1526668029.36701393,101074554,0.0,0.34,0.0,345.50881958,0.0,-1.24,347.85,347.85,0.0,0.01
1526668029.46697402,101174514,0.0,0.36,0.0,394.493041992,0.0,-1.25,347.91,347.91,0.0,0.01
1526668029.56693387,101274474,0.0,0.36,0.0,441.940795898,0.0,-1.26,347.95,347.95,0.0,0.0
1526668029.71520805,101422748,0.0,0.38,0.0,488.158752441,0.0,-1.28,348.01,348.01,0.0,0.01
1526668029.81516790,101522708,0.0,0.38,0.0,533.674987793,0.0,-1.31,348.04,348.04,0.0,0.0
1526668029.91512799,101622668,0.0,0.38,0.0,576.190917969,0.0,-1.33,348.08,348.08,0.0,0.0
1526668030.01508808,101722628,0.0,0.35,0.0,608.864135742,0.0,-1.35,348.14,348.14,0.0,0.0
1526668030.11504793,101822588,0.0,0.34,0.0,633.458312988,0.0,-1.36,348.2,348.2,0.0,0.0
1526668030.21500802,101922548,0.0,0.33,0.0,653.62298584,0.0,-1.38,348.27,348.27,0.0,0.0
1526668030.31496787,102022508,0.0,0.31,0.0,668.008666992,0.0,-1.39,348.34,348.34,0.0,0.0
1526668030.41492796,102122468,0.0,0.29,0.0,915.599975586,0.0,-1.42,348.42,348.42,0.0,0.0
1526668030.51488805,102222428,0.0,0.27,0.0,852.112487793,0.0,-1.44,348.5,348.5,0.0,0.0
1526668030.61484790,102322388,0.0,0.26,0.0,807.983337402,0.0,-1.45,348.56,348.56,0.0,0.0
1526668032.76315498,104470695,0.0,0.4,0.0,1323.11254883,0.0,-1.31,349.52,349.52,0.0,0.0
1526668032.86311507,104570655,0.0,0.37,0.0,1329.59899902,0.0,-1.3,349.56,349.56,0.0,0.06
1526668032.96307492,104670615,0.0,0.35,0.0,1327.63366699,0.0,-1.29,349.61,349.61,0.0,0.06
1526668033.06303501,104770575,0.0,0.34,0.0,1169.80004883,0.0,-1.3,349.66,349.66,0.0,0.06
1526668033.16299486,104870535,0.0,0.35,0.0,1190.5,0.0,-1.28,349.72,349.72,0.0,0.06
1526668033.26295495,104970495,0.0,0.33,0.0,1171.75830078,0.0,-1.26,349.8,349.8,0.0,0.06
1526668033.36291504,105070455,0.0,0.32,0.0,1150.25622559,0.0,-1.23,349.87,349.87,0.0,0.06
1526668033.46287489,105170415,0.0,0.29,0.0,1112.58496094,0.0,-1.2,349.94,349.94,0.0,0.06
1526668033.56283498,105270375,0.0,0.27,0.0,1059.52502441,0.0,-1.17,350.0,350.0,0.0,0.06
1526668033.66279507,105370335,0.0,0.26,0.0,1009.27856445,0.0,-1.16,350.05,350.05,0.0,0.06
1526668033.76275492,105470295,0.0,0.23,0.0,958.856262207,0.0,-1.16,350.11,350.11,0.0,0.06
1526668033.86271501,105570255,0.0,0.22,0.0,907.219421387,0.0,-1.17,350.17,350.17,0.0,0.06
1526668033.96267486,105670215,0.0,0.22,0.0,864.897521973,0.0,-1.17,350.23,350.23,0.0,0.05
1526668034.06263494,105770175,0.0,0.23,0.0,832.622741699,0.0,-1.2,350.29,350.29,0.0,0.05
1526668034.16259503,105870135,0.0,0.24,0.0,808.104187012,0.0,-1.22,350.37,350.37,0.0,0.05
1526668034.26255488,105970095,0.0,0.26,0.0,792.903869629,0.0,-1.25,350.46,350.46,0.0,0.05
1526668034.36251497,106070055,0.0,0.27,0.0,787.014282227,0.0,-1.29,350.54,350.54,0.0,0.05
1526668034.46247506,106170015,0.0,0.28,0.0,786.446655273,0.0,-1.31,350.6,350.6,0.0,0.05
1526668034.56243491,106269975,0.0,0.27,0.0,784.575012207,0.0,-1.3,350.66,350.66,0.0,0.05
1526668034.66239500,106369935,0.0,0.27,0.0,781.305908203,0.0,-1.3,350.69,350.69,0.0,0.02
1526668034.76318789,106470728,0.0,0.28,0.0,780.462524414,0.0,-1.31,350.74,350.74,0.0,0.02
1526668034.86314797,106570688,0.0,0.27,0.0,779.128967285,0.0,-1.31,350.79,350.79,0.0,0.05
1526668034.96310806,106670648,0.0,0.28,0.0,778.684997559,0.0,-1.29,350.81,350.81,0.0,0.05
1526668035.06306791,106770608,0.0,0.28,0.0,778.545227051,0.0,-1.28,350.8,350.8,0.0,0.05
1526668035.16302800,106870568,0.0,0.26,0.0,777.552246094,0.0,-1.26,350.79,350.79,0.0,0.05
1526668035.26298785,106970528,0.0,0.23,0.0,769.991333008,0.0,-1.23,350.79,350.79,0.0,0.05
1526668035.36294794,107070488,0.0,0.2,0.0,756.721862793,0.0,-1.21,350.79,350.79,0.0,0.05
1526668035.46290803,107170448,0.0,0.18,0.0,740.083007812,0.0,-1.18,350.78,350.78,0.0,0.05
1526668035.56286788,107270408,0.0,0.18,0.0,724.079833984,0.0,-1.16,350.76,350.76,0.0,0.04
1526668035.71114206,107418682,0.0,0.19,0.0,336.024993896,0.0,-1.11,350.77,350.77,0.0,0.04
1526668035.81110191,107518642,0.0,0.22,0.0,379.412506104,0.0,-1.09,350.76,350.76,0.0,0.03
1526668035.91106200,107618602,0.0,0.22,0.0,414.274993896,0.0,-1.07,350.77,350.77,0.0,0.03
1526668036.01102185,107718562,0.0,0.21,0.0,428.212493896,0.0,-1.06,350.8,350.8,0.0,0.02
1526668036.11098194,107818522,0.0,0.2,0.0,428.105010986,0.0,-1.06,350.82,350.82,0.0,0.02
1526668036.21094203,107918482,0.0,0.2,0.0,423.420837402,0.0,-1.06,350.85,350.85,0.0,0.02
1526668036.31090188,108018442,0.0,0.21,0.0,420.953582764,0.0,-1.06,350.88,350.88,0.0,0.02
1526668036.41086197,108118402,0.0,0.22,0.0,426.684387207,0.0,-1.07,350.91,350.91,0.0,0.02
1526668036.51082206,108218362,0.0,0.2,0.0,427.408325195,0.0,-1.08,350.95,350.95,0.0,0.02
1526668036.61078191,108318322,0.0,0.18,0.0,420.977508545,0.0,-1.1,351.0,351.0,0.0,0.02
1526668036.71074200,108418282,0.0,0.17,0.0,410.490905762,0.0,-1.13,351.05,351.05,0.0,0.02
1526668036.81070185,108518242,0.0,0.13,0.0,395.28125,0.0,-1.13,351.1,351.1,0.0,0.02
1526668036.91066194,108618202,0.0,0.1,0.0,375.825012207,0.0,-1.12,351.12,351.12,0.0,0.02
1526668037.01062202,108718162,0.0,0.06,0.0,353.930358887,0.0,-1.14,351.12,351.12,0.0,0.02
1526668037.11058187,108818122,0.0,0.0,0.0,331.023345947,0.0,-1.16,351.13,351.13,0.0,0.02
1526668037.21054196,108918082,0.0,-0.02,0.0,310.392181396,0.0,-1.15,351.17,351.17,0.0,0.02
1526668037.31050205,109018042,0.0,-0.05,0.0,292.880889893,0.0,-1.1,351.22,351.22,0.0,0.02
1526668037.41046190,109118002,0.0,-0.07,0.0,278.711120605,0.0,-1.07,351.26,351.26,0.0,0.02
1526668037.51042199,109217962,0.0,-0.07,0.0,266.621063232,0.0,-1.04,351.29,351.29,0.0,0.02
1526668037.61038208,109317922,0.0,-0.06,0.0,255.220001221,0.0,-1.02,351.34,351.34,0.0,0.02
1526668037.71034193,109417882,0.0,-0.05,0.0,244.270233154,0.0,-1.0,351.39,351.39,0.0,0.02
1526668037.81113505,109518675,0.0,-0.03,0.0,234.101135254,0.0,-0.98,351.42,351.42,0.0,0.02
1526668037.91109490,109618635,0.0,-0.02,0.0,224.194564819,0.0,-0.99,351.45,351.45,0.0,0.02
1526668038.01105499,109718595,0.0,-0.02,0.0,215.019790649,0.0,-1.0,351.48,351.48,0.0,0.02
1526668038.11101508,109818555,0.0,-0.02,0.0,206.673995972,0.0,-1.04,351.5,351.5,0.0,0.02
1526668038.21097493,109918515,0.0,-0.03,0.0,198.955764771,0.0,-1.05,351.54,351.54,0.0,0.02
1526668038.31093502,110018475,0.0,-0.04,0.0,9.35000038147,0.0,-1.06,351.57,351.57,0.0,0.02
1526668038.41089487,110118435,0.0,-0.03,0.0,11.5375003815,0.0,-1.04,351.63,351.63,0.0,0.02
1526668038.51085496,110218395,0.0,-0.02,0.0,9.98333358765,0.0,-1.01,351.67,351.67,0.0,0.02
1526668038.61081505,110318355,0.0,-0.02,0.0,8.48750019073,0.0,-0.99,351.7,351.7,0.0,0.02
1526668038.75908899,110466629,0.0,0.0,0.0,6.92000007629,0.0,-0.98,351.72,351.72,0.0,0.02
1526668038.85904908,110566589,0.0,0.0,0.0,5.76666688919,0.0,-0.97,351.76,351.76,0.0,0.02
1526668038.95900893,110666549,0.0,0.01,0.0,5.03571414948,0.0,-0.99,351.79,351.79,0.0,0.02
1526668039.05896902,110766509,0.0,0.01,0.0,4.53125,0.0,-1.0,351.78,351.78,0.0,0.01
1526668039.15892887,110866469,0.0,0.02,0.0,4.35555553436,0.0,-1.03,351.78,351.78,0.0,0.01
1526668039.25888896,110966429,0.0,0.02,0.0,4.32000017166,0.0,-1.05,351.77,351.77,0.0,0.01
1526668039.35884905,111066389,0.0,0.04,0.0,4.83409070969,0.0,-1.06,351.75,351.75,0.0,0.01
1526668039.45880890,111166349,0.0,0.05,0.0,6.12083339691,0.0,-1.06,351.71,351.71,0.0,0.01
1526668039.55876899,111266309,0.0,0.03,0.0,6.94038438797,0.0,-1.05,351.66,351.66,0.0,0.01
1526668039.65872908,111366269,0.0,0.02,0.0,6.74821424484,0.0,-1.05,351.6,351.6,0.0,0.01
1526668039.75868893,111466229,0.0,0.01,0.0,6.45499992371,0.0,-1.06,351.52,351.52,0.0,0.01
1526668039.85864902,111566189,0.0,0.0,0.0,6.05625009537,0.0,-1.06,351.44,351.44,0.0,0.01
1526668039.95860887,111666149,0.0,-0.01,0.0,5.71911764145,0.0,-1.07,351.37,351.37,0.0,0.01
1526668040.05856895,111766109,0.0,-0.06,0.0,6.31944465637,0.0,-1.06,351.31,351.31,0.0,0.01
1526668040.15852904,111866069,0.0,-0.08,0.0,8.8605260849,0.0,-1.07,351.24,351.24,0.0,0.01
1526668040.25848889,111966029,0.0,-0.07,0.0,11.0174999237,0.0,-1.07,351.17,351.17,0.0,0.01
1526668040.35844898,112065989,0.0,-0.06,0.0,12.2690477371,0.0,-1.07,351.07,351.07,0.0,0.01
1526668040.45840907,112165949,0.0,-0.05,0.0,13.0352268219,0.0,-1.08,350.98,350.98,0.0,0.01
1526668040.55836892,112265909,0.0,-0.05,0.0,13.5554351807,0.0,-1.09,350.86,350.86,0.0,0.01
1526668040.65832901,112365869,0.0,-0.02,0.0,13.4572916031,0.0,-1.09,350.71,350.71,0.0,0.01
1526668040.75912189,112466662,0.0,0.0,0.0,12.9940004349,0.0,-1.09,350.55,350.55,0.0,0.01
1526668040.85908198,112566622,0.0,0.0,0.0,12.4942312241,0.0,-1.09,350.37,350.37,0.0,0.01
1526668040.95904207,112666582,0.0,-0.01,0.0,0.824999988079,0.0,-1.09,350.19,350.19,0.0,0.01
1526668041.05900192,112766542,0.0,0.0,0.0,0.41249999404,0.0,-1.1,350.03,350.03,0.0,0.01
1526668041.15896201,112866502,0.0,0.0,0.0,0.27500000596,0.0,-1.11,349.89,349.89,0.0,0.01
1526668041.25892186,112966462,0.0,0.0,0.0,0.20624999702,0.0,-1.11,349.74,349.74,0.0,0.01
1526668041.35888195,113066422,0.0,-0.01,0.0,0.219999998808,0.0,-1.11,349.6,349.6,0.0,0.01
1526668041.45884204,113166382,0.0,-0.03,0.0,0.895833313465,0.0,-1.09,349.5,349.5,0.0,0.01
1526668041.55880189,113266342,0.0,-0.03,0.0,2.05357146263,0.0,-1.06,349.4,349.4,0.0,0.01
1526668041.70707607,113414616,0.0,-0.03,0.0,3.07500004768,0.0,-1.08,349.25,349.25,0.0,0.01
1526668041.80703592,113514576,0.0,-0.01,0.0,3.36944437027,0.0,-1.09,349.16,349.16,0.0,0.01
1526668044.75502300,116462563,0.0,-0.07,0.0,5.87083339691,0.0,-1.19,346.01,346.01,0.0,0.0
1526668044.85498285,116562523,0.0,-0.11,0.0,11.6153850555,0.0,-1.2,345.93,345.93,0.0,0.0
1526668044.95494294,116662483,0.0,-0.15,0.0,22.6178569794,0.0,-1.21,345.85,345.85,0.0,0.0
