timestamp,TimeUS,DesR,R,IR,IRErr,DesP,P,DesY,Y,ErrRP,ErrYaw
1526668459.65270591,29573166,0.0,1.09,0.0,9879.2109375,0.0,0.43,355.09,355.09,0.0,0.0
1526668459.75349903,29673959,0.0,1.11,0.0,10014.0546875,0.0,0.43,353.0,353.0,0.0,0.0
1526668459.85345912,29773919,0.0,1.13,0.0,10159.7177734,0.0,0.43,352.92,352.92,0.0,0.0
1526668459.95341897,29873879,0.0,1.14,0.0,10310.4589844,0.0,0.44,352.82,352.82,0.0,0.0
1526668460.05337906,29973839,0.0,1.16,0.0,10466.3964844,0.0,0.45,352.72,352.72,0.0,0.0
1526668460.15333891,30073799,0.0,1.17,0.0,10619.1806641,0.0,0.46,352.62,352.62,0.0,0.0
1526668460.25329900,30173759,0.0,1.2,0.0,10776.4023438,0.0,0.47,352.51,352.51,0.0,0.0
1526668460.35325909,30273719,0.0,1.22,0.0,10947.7695312,0.0,0.45,352.43,352.43,0.0,0.0
1526668460.45321894,30373679,0.0,1.22,0.0,11118.7246094,0.0,0.45,352.35,352.35,0.0,0.0
1526668460.55317903,30473639,0.0,1.22,0.0,11275.4472656,0.0,0.43,352.28,352.28,0.0,0.0
1526668460.65313911,30573599,0.0,1.22,0.0,11419.6455078,0.0,0.41,352.2,352.2,0.0,0.0
1526668460.75309896,30673559,0.0,1.24,0.0,15376.0,0.0,0.4,352.13,352.13,0.0,0.0
1526668460.85305905,30773519,0.0,1.25,0.0,15503.5361328,0.0,0.4,352.08,352.08,0.0,0.0
1526668460.95301890,30873479,0.0,1.26,0.0,15569.7158203,0.0,0.41,352.04,352.04,0.0,0.0
1526668461.05297899,30973439,0.0,1.26,0.0,15670.9667969,0.0,0.42,352.03,352.03,0.0,0.0
1526668461.15293908,31073399,0.0,1.27,0.0,15745.4785156,0.0,0.44,352.02,352.02,0.0,0.0
1526668461.25289893,31173359,0.0,1.27,0.0,15821.8007812,0.0,0.45,352.0,352.0,0.0,0.0
1526668461.35285902,31273319,0.0,1.29,0.0,15923.6679688,0.0,0.45,352.01,352.01,0.0,0.0
1526668461.45281911,31373279,0.0,1.29,0.0,16025.7792969,0.0,0.45,352.02,352.02,0.0,0.07
1526668461.55277896,31473239,0.0,1.29,0.0,16102.4423828,0.0,0.44,352.08,352.08,0.0,0.08
1526668461.65273905,31573199,0.0,1.28,0.0,16159.9804688,0.0,0.41,352.16,352.16,0.0,0.08
1526668461.75353193,31673992,0.0,1.27,0.0,16171.5166016,0.0,0.38,352.22,352.22,0.0,0.06
1526668461.85349202,31773952,0.0,1.26,0.0,16154.4648438,0.0,0.36,352.3,352.3,0.0,0.0
1526668461.95345211,31873912,0.0,1.23,0.0,16104.296875,0.0,0.36,352.38,352.38,0.0,0.0
1526668462.05341196,31973872,0.0,1.18,0.0,15978.2285156,0.0,0.37,352.47,352.47,0.0,0.0
1526668462.15337205,32073832,0.0,1.13,0.0,15785.3417969,0.0,0.37,352.55,352.55,0.0,0.0
1526668462.25333190,32173792,0.0,1.13,0.0,15584.5869141,0.0,0.37,352.63,352.63,0.0,0.0
1526668462.35329199,32273752,0.0,1.12,0.0,15401.8671875,0.0,0.37,352.74,352.74,0.0,0.0
1526668462.45325208,32373712,0.0,1.1,0.0,15221.2509766,0.0,0.37,352.87,352.87,0.0,0.0
1526668462.55321193,32473672,0.0,1.08,0.0,15034.1552734,0.0,0.35,353.0,353.0,0.0,0.0
1526668462.65317202,32573632,0.0,1.08,0.0,14857.0117188,0.0,0.34,353.11,353.11,0.0,0.0
1526668462.75313210,32673592,0.0,1.08,0.0,14697.5605469,0.0,0.32,353.21,353.21,0.0,0.0
1526668462.85309196,32773552,0.0,1.09,0.0,14554.3095703,0.0,0.31,353.32,353.32,0.0,0.0
1526668462.95305204,32873512,0.0,1.11,0.0,14440.4111328,0.0,0.31,353.42,353.42,0.0,0.0
1526668463.05301213,32973472,0.0,1.15,0.0,14368.8662109,0.0,0.29,353.54,353.54,0.0,0.0
1526668463.15297198,33073432,0.0,1.17,0.0,14329.4443359,0.0,0.27,353.65,353.65,0.0,0.0
1526668463.25293207,33173392,0.0,1.18,0.0,14305.9648438,0.0,0.26,353.73,353.73,0.0,0.0
1526668463.35289192,33273352,0.0,1.18,0.0,13924.0,0.0,0.24,353.81,353.81,0.0,0.0
1526668463.45285201,33373312,0.0,1.18,0.0,13924.0,0.0,0.24,353.91,353.91,0.0,0.0
1526668463.55281210,33473272,0.0,1.18,0.0,13924.0,0.0,0.24,354.03,354.03,0.0,0.07
1526668463.65277195,33573232,0.0,1.16,0.0,13823.2226562,0.0,0.22,354.17,354.17,0.0,0.07
1526668463.75273204,33673192,0.0,1.12,0.0,13625.0,0.0,0.2,354.3,354.3,0.0,0.07
1526668463.85352492,33773985,0.0,1.11,0.0,13393.2333984,0.0,0.17,354.45,354.45,0.0,0.06
1526668463.95348501,33873945,0.0,1.1,0.0,13186.8427734,0.0,0.15,354.59,354.59,0.0,0.01
1526668464.05344510,33973905,0.0,1.1,0.0,13032.1318359,0.0,0.11,354.73,354.73,0.0,0.0
1526668464.15340495,34073865,0.0,1.08,0.0,12888.7636719,0.0,0.06,354.86,354.86,0.0,0.0
1526668464.25336504,34173825,0.0,1.04,0.0,12704.0771484,0.0,0.0,354.99,354.99,0.0,0.0
1526668464.35332513,34273785,0.0,1.01,0.0,12474.7080078,0.0,-0.03,355.12,355.12,0.0,0.0
1526668464.45328498,34373745,0.0,0.99,0.0,12244.4013672,0.0,-0.07,355.26,355.26,0.0,0.0
1526668464.55324507,34473705,0.0,0.99,0.0,12041.2080078,0.0,-0.08,355.43,355.43,0.0,0.0
1526668464.65320492,34573665,-0.12,0.76,0.0,11743.0703125,-0.05,-0.17,355.45,355.57,0.0,0.0
1526668464.75316501,34673625,-0.22,0.47,-0.04,11198.2089844,-0.03,-0.22,355.45,355.63,0.0,0.0
1526668464.85312510,34773585,-0.32,0.22,-0.1,10571.1376953,-0.03,-0.25,355.45,355.62,0.0,0.0
1526668464.95308495,34873545,-0.37,0.03,-0.18,9956.65429688,-0.02,-0.26,355.45,355.56,0.0,0.0
1526668465.05304503,34973505,-0.43,-0.09,-0.26,9394.75878906,-0.02,-0.27,355.45,355.48,0.0,0.0
1526668465.15300512,35073465,-0.46,-0.21,-0.34,8887.3125,0.0,-0.25,355.45,355.39,0.0,0.0
1526668465.25296497,35173425,-0.44,-0.32,-0.41,8426.88476562,0.02,-0.24,355.45,355.3,0.0,0.0
1526668465.35292506,35273385,-0.38,-0.39,-0.44,8008.97753906,0.04,-0.21,355.45,355.2,0.0,0.0
1526668465.45288491,35373345,-0.34,-0.45,-0.45,7628.72021484,0.04,-0.14,355.45,355.15,0.0,0.0
1526668465.55284500,35473305,-0.26,-0.5,-0.42,7283.08300781,0.08,-0.06,355.45,355.19,0.0,0.0
1526668465.65280509,35573265,-0.2,-0.52,-0.37,6973.07226562,0.11,0.02,355.45,355.27,0.0,0.07
1526668465.75276494,35673225,-0.08,-0.49,-0.3,6694.41064453,0.11,0.15,355.45,355.42,0.0,0.07
1526668465.85272503,35773185,0.01,-0.37,-0.2,6439.50488281,0.09,0.3,355.45,355.57,0.0,0.07
1526668465.95351791,35873978,0.12,-0.26,-0.1,245.687957764,0.01,0.4,355.45,355.7,0.0,0.05
1526668466.05347800,35973938,0.17,-0.12,0.0,205.162445068,-0.08,0.44,355.45,355.79,0.0,0.01
1526668466.15343809,36073898,0.23,0.05,0.1,143.757324219,-0.19,0.37,355.45,355.86,0.0,0.01
1526668466.25339794,36173858,0.26,0.2,0.19,98.5796051025,-0.27,0.27,355.45,355.89,0.0,0.01
1526668466.35335803,36273818,0.23,0.33,0.25,80.192276001,-0.33,0.12,355.45,355.88,0.0,0.0
1526668466.45331812,36373778,0.13,0.43,0.27,96.34349823,-0.36,-0.1,355.45,355.83,0.0,0.0
1526668466.55327797,36473738,0.02,0.4,0.24,124.066947937,-0.4,-0.26,355.45,355.74,0.0,0.0
1526668466.65323806,36573698,-0.1,0.31,0.18,130.941436768,-0.36,-0.31,355.45,355.61,0.0,0.0
1526668466.75319791,36673658,-0.22,0.22,0.07,140.133148193,-0.3,-0.43,355.45,355.47,0.0,0.0
1526668466.85315800,36773618,-0.3,0.05,-0.04,140.273193359,-0.22,-0.55,355.45,355.32,0.0,0.0
1526668466.95311809,36873578,-0.3,-0.13,-0.16,131.334228516,-0.1,-0.58,355.45,355.21,0.0,0.0
1526668467.05307794,36973538,-0.27,-0.29,-0.25,119.728668213,0.01,-0.54,355.45,355.14,0.0,0.0
1526668467.15303802,37073498,-0.21,-0.44,-0.31,116.596725464,0.17,-0.38,355.45,355.1,0.0,0.0
1526668467.25299811,37173458,-0.14,-0.5,-0.32,123.257217407,0.3,-0.22,355.45,355.02,0.0,0.0
1526668467.35295796,37273418,-0.03,-0.55,-0.29,147.828826904,0.41,0.0,356.63,356.19,0.0,0.0
1526668467.45291805,37373378,0.06,-0.54,-0.22,197.596679688,0.46,0.23,356.63,356.22,0.0,0.0
1526668467.55287790,37473338,0.15,-0.4,-0.12,240.972671509,0.46,0.52,356.63,356.22,0.0,0.0
1526668467.65283799,37573298,0.26,-0.24,0.0,267.28036499,0.36,0.69,356.63,356.29,0.0,0.0
1526668467.75279808,37673258,0.33,-0.06,0.11,275.261383057,0.23,0.71,356.63,356.36,0.0,0.06
1526668467.85275793,37773218,0.37,0.11,0.23,273.489532471,0.11,0.7,356.63,356.46,0.0,0.07
1526668467.95271802,37873178,0.38,0.29,0.32,263.501159668,-0.01,0.59,356.63,356.57,0.0,0.06
1526668468.05351090,37973971,0.35,0.47,0.38,251.952606201,-0.11,0.38,356.63,356.62,0.0,0.05
1526668468.15347099,38073931,0.29,0.57,0.41,246.855361938,-0.19,0.15,356.63,356.61,0.0,0.01
1526668468.25343108,38173891,0.13,0.6,0.38,251.697967529,-0.22,-0.06,356.63,356.56,0.0,0.0
1526668468.35339093,38273851,0.0,0.53,0.31,260.04208374,-0.21,-0.29,356.63,356.62,0.0,0.0
1526668468.45335102,38373811,-0.12,0.4,0.2,267.747070312,-0.11,-0.46,356.63,356.68,0.0,0.0
1526668468.55331111,38473771,-0.22,0.12,0.06,25.2618503571,0.05,-0.48,356.63,356.74,0.0,0.0
1526668468.65327096,38573731,-0.29,-0.12,-0.06,8.96626663208,0.17,-0.36,356.63,356.86,0.0,0.0
1526668468.75323105,38673691,-0.31,-0.26,-0.19,21.6629924774,0.27,-0.26,356.63,356.97,0.0,0.0
1526668468.85319090,38773651,-0.27,-0.36,-0.28,32.5379333496,0.32,-0.15,356.63,357.11,0.0,0.0
1526668468.95315099,38873611,-0.18,-0.39,-0.33,33.8182029724,0.38,-0.06,356.63,357.15,0.0,0.0
1526668469.05311108,38973571,-0.13,-0.47,-0.32,48.1161804199,0.45,0.03,356.69,357.25,0.0,0.0
1526668469.15307093,39073531,-0.06,-0.51,-0.28,98.4130172729,0.5,0.19,356.69,357.26,0.0,0.0
1526668469.25303102,39173491,0.03,-0.46,-0.21,166.793518066,0.48,0.38,356.69,357.33,0.0,0.0
1526668469.35299110,39273451,0.14,-0.35,-0.12,217.55267334,0.44,0.52,356.69,357.32,0.0,0.0
1526668469.45295095,39373411,0.22,-0.17,0.0,237.136886597,0.37,0.66,356.69,357.26,0.0,0.0
1526668469.55291104,39473371,0.27,0.06,0.1,224.908935547,0.28,0.73,356.69,357.16,0.0,0.0
1526668469.65287113,39573331,0.27,0.28,0.2,206.084854126,0.13,0.68,356.69,357.05,0.0,0.01
1526668469.75283098,39673291,0.2,0.47,0.27,205.641586304,-0.03,0.53,356.69,356.91,0.0,0.06
1526668469.85279107,39773251,0.09,0.56,0.28,235.651596069,-0.15,0.33,356.69,356.81,0.0,0.07
1526668469.95275092,39873211,0.0,0.56,0.25,279.309753418,-0.23,0.15,356.69,356.7,0.0,0.07
1526668470.05271101,39973171,-0.13,0.5,0.18,325.99105835,-0.32,-0.03,356.69,356.63,0.0,0.07
1526668470.15350413,40073964,-0.27,0.36,0.07,365.357116699,-0.37,-0.27,356.69,356.5,0.0,0.06
1526668470.25346398,40173924,-0.39,0.16,-0.06,380.122283936,-0.34,-0.42,356.69,356.44,0.0,0.01
1526668470.35342407,40273884,-0.49,-0.03,-0.21,379.639099121,-0.27,-0.47,356.69,356.48,0.0,0.0
1526668470.45338392,40373844,-0.54,-0.2,-0.35,374.9375,-0.19,-0.5,356.69,356.54,0.0,0.0
1526668470.55334401,40473804,-0.5,-0.34,-0.47,365.944000244,-0.09,-0.52,356.69,356.55,0.0,0.0
1526668470.65330410,40573764,-0.41,-0.45,-0.53,354.241973877,0.06,-0.47,356.69,356.54,0.0,0.0
1526668470.75326395,40673724,-0.33,-0.55,-0.54,339.231811523,0.21,-0.35,356.69,356.53,0.0,0.0
1526668470.85322404,40773684,-0.22,-0.59,-0.5,325.899475098,0.33,-0.16,356.69,356.53,0.0,0.0
1526668470.95318413,40873644,-0.08,-0.6,-0.41,320.610015869,0.4,0.02,356.69,356.52,0.0,0.0
1526668471.05314398,40973604,0.08,-0.57,-0.28,330.992218018,0.41,0.23,356.69,356.52,0.0,0.0
1526668471.15310407,41073564,0.25,-0.44,-0.12,982.44909668,0.39,0.44,356.69,356.47,0.0,0.01
1526668471.25306392,41173524,0.41,-0.22,0.05,850.929138184,0.36,0.59,356.69,356.45,0.0,0.01
1526668471.35302401,41273484,0.52,0.02,0.23,709.33026123,0.27,0.69,356.69,356.45,0.0,0.01
1526668471.45298409,41373444,0.6,0.29,0.4,567.26574707,0.19,0.73,356.69,356.44,0.0,0.01
1526668471.55294394,41473404,0.59,0.55,0.53,436.11227417,0.1,0.63,356.69,356.4,0.0,0.01
1526668471.65290403,41573364,0.55,0.76,0.62,366.826446533,0.01,0.47,299.18,356.37,0.0,0.01
1526668471.75286412,41673324,0.42,0.84,0.64,355.502258301,-0.08,0.27,299.18,355.92,0.0,0.0
1526668471.85282397,41773284,0.0,0.84,0.59,372.283233643,-0.32,0.06,299.18,354.57,0.0,0.08
1526668471.95278406,41873244,-0.98,0.7,0.36,432.463653564,-0.95,-0.28,299.18,352.51,0.0,0.09
1526668472.05274391,41973204,-2.08,0.3,-0.12,547.803771973,-1.8,-0.83,299.18,349.96,0.0,0.1
1526668472.15353703,42073997,-3.15,-0.36,-0.86,712.075927734,-2.75,-1.55,299.18,347.02,0.0,0.09
1526668472.25349712,42173957,-4.04,-1.18,-1.78,927.109436035,-3.77,-2.36,299.18,343.86,0.0,0.04
1526668472.35345697,42273917,-4.72,-2.04,-2.78,1241.50939941,-4.79,-3.23,299.18,340.48,0.0,0.04
1526668472.45341706,42373877,-4.91,-2.88,-3.73,1644.08654785,-5.49,-4.14,299.18,336.94,0.0,0.05
1526668472.55337691,42473837,-4.82,-3.55,-4.47,2097.46557617,-6.05,-4.94,299.18,333.28,0.0,0.05
1526668472.65333700,42573797,-4.53,-4.01,-4.93,2533.8737793,-6.52,-5.57,299.18,329.47,0.0,0.04
1526668472.75329709,42673757,-4.08,-4.26,-5.09,2866.39428711,-6.97,-6.1,299.18,325.62,0.0,0.04
1526668472.85325694,42773717,-3.46,-4.32,-4.93,3016.28442383,-7.43,-6.55,299.18,321.72,0.0,0.04
1526668472.95321703,42873677,-2.72,-4.19,-4.5,2974.89501953,-7.83,-6.91,299.18,317.81,0.0,0.03
1526668473.05317712,42973637,-1.91,-3.86,-3.83,2833.82495117,-8.15,-7.24,299.18,313.93,0.0,0.03
1526668473.15313697,43073597,-0.99,-3.34,-2.99,2715.06689453,-8.22,-7.44,299.18,310.02,0.0,0.02
1526668473.25309706,43173557,-0.01,-2.62,-2.02,2701.57348633,-8.11,-7.49,299.18,306.04,0.0,0.02
1526668473.35305691,43273517,0.9,-1.7,-0.98,2781.36499023,-7.92,-7.44,299.18,302.14,0.0,0.01
1526668473.45301700,43373477,1.65,-0.59,0.05,2868.15869141,-7.7,-7.28,299.18,298.72,0.0,0.01
1526668473.55297709,43473437,2.21,0.49,1.02,2889.22705078,-7.64,-7.14,299.18,296.09,0.0,0.0
1526668473.65293694,43573397,2.53,1.42,1.83,2864.64746094,-7.95,-7.08,299.18,294.38,0.0,0.0
1526668473.75289702,43673357,2.63,2.18,2.45,772.612792969,-8.46,-7.2,299.18,293.57,0.0,0.01
1526668473.85285711,43773317,2.5,2.74,2.83,370.253631592,-9.06,-7.54,299.18,293.57,0.0,0.01
1526668473.95281696,43873277,2.12,3.0,2.95,197.140563965,-9.68,-8.07,299.18,294.24,0.0,0.01
1526668474.05277705,43973237,1.56,2.91,2.79,158.411849976,-10.26,-8.66,299.18,295.29,0.0,0.01
1526668474.15273690,44073197,0.93,2.63,2.4,199.882461548,-10.77,-9.34,299.18,296.53,0.0,0.0
1526668474.25353003,44173990,0.3,2.1,1.81,294.647766113,-11.19,-10.05,299.18,297.76,0.0,0.0
1526668474.35349011,44273950,-0.26,1.45,1.11,410.273254395,-11.56,-10.68,299.18,298.89,0.0,0.0
1526668474.45344996,44373910,-0.73,0.71,0.37,515.287597656,-11.32,-11.2,299.18,299.89,0.0,0.0
1526668474.55341005,44473870,-1.04,-0.09,-0.31,554.590270996,-10.72,-11.48,299.18,300.59,0.0,0.0
1526668474.65336990,44573830,-1.2,-0.88,-0.9,516.951782227,-10.01,-11.4,299.18,301.0,0.0,0.0
1526668474.75332999,44673790,-1.19,-1.44,-1.33,468.205078125,-9.27,-11.02,299.18,301.07,0.0,0.0
1526668474.85329008,44773750,-1.0,-1.78,-1.57,448.909606934,-8.56,-10.43,299.18,300.86,0.0,0.01
1526668474.95324993,44873710,-0.73,-1.86,-1.6,456.58203125,-7.9,-9.75,299.18,300.52,0.0,0.01
1526668475.05321002,44973670,-0.39,-1.75,-1.45,479.143707275,-7.31,-9.02,299.18,300.13,0.0,0.01
1526668475.15317011,45073630,-0.04,-1.45,-1.14,506.207946777,-6.78,-8.25,299.18,299.61,0.0,0.02
1526668475.25312996,45173590,0.27,-1.05,-0.74,528.611206055,-6.29,-7.56,299.18,299.13,0.0,0.02
1526668475.35309005,45273550,0.48,-0.61,-0.3,553.96496582,-5.87,-7.0,299.18,298.7,0.0,0.02
1526668475.45304990,45373510,0.63,-0.18,0.1,573.43572998,-5.47,-6.52,299.18,298.36,0.0,0.02
1526668475.55300999,45473470,0.72,0.13,0.46,594.237670898,-5.09,-6.11,299.18,298.11,0.0,0.02
1526668475.65297008,45573430,0.76,0.34,0.72,631.960144043,-4.69,-5.7,299.18,298.07,0.0,0.02
1526668475.75292993,45673390,0.76,0.45,0.89,687.709655762,-4.3,-5.31,299.18,298.09,0.0,0.02
1526668475.85289001,45773350,0.74,0.54,0.97,749.916870117,-3.86,-4.92,299.18,298.15,0.0,0.02
1526668475.95285010,45873310,0.67,0.57,0.97,793.826599121,-3.42,-4.57,299.18,298.34,0.0,0.02
1526668476.05280995,45973270,0.6,0.61,0.91,814.499633789,-2.94,-4.19,299.18,298.6,0.0,0.01
1526668476.15277004,46073230,0.51,0.59,0.8,808.853210449,-2.12,-3.76,299.18,298.97,0.0,0.01
1526668476.25273013,46173190,0.41,0.5,0.66,792.030212402,-1.73,-3.27,299.18,299.34,0.0,0.01
1526668476.35352302,46273983,0.33,0.4,0.52,155.93649292,-1.45,-2.72,299.18,299.62,0.0,0.01
1526668476.45348310,46373943,0.25,0.34,0.38,92.6664352417,-1.29,-2.24,299.18,299.86,0.0,0.02
1526668476.55344296,46473903,-0.15,0.25,0.25,49.7079162598,-1.17,-1.8,220.86,299.97,0.0,0.02
1526668476.65340304,46573863,-1.69,0.02,-0.05,38.7766685486,-1.22,-1.58,220.86,299.46,0.0,0.01
1526668476.75336313,46673823,-3.15,-0.45,-0.69,106.454338074,-1.33,-1.58,220.86,298.11,0.0,0.01
1526668476.85332298,46773783,-4.56,-1.27,-1.64,281.149169922,-1.5,-1.76,220.86,296.05,0.0,0.02
1526668476.95328307,46873743,-5.95,-2.37,-2.83,525.32409668,-1.77,-2.02,220.86,293.47,0.0,0.03
1526668477.05324292,46973703,-7.21,-3.64,-4.2,833.913635254,-2.16,-2.33,220.86,290.55,0.0,0.04
1526668477.15320301,47073663,-7.88,-5.01,-5.59,1146.27319336,-2.55,-2.61,220.86,287.41,0.0,0.04
1526668477.25316310,47173623,-8.1,-6.19,-6.81,1416.19824219,-3.02,-2.83,220.86,284.08,0.0,0.04
1526668477.35312295,47273583,-8.07,-7.08,-7.73,1691.30761719,-3.54,-3.05,220.86,280.61,0.0,0.03
1526668477.45308304,47373543,-7.84,-7.65,-8.3,1937.69970703,-4.08,-3.26,220.86,277.04,0.0,0.03
1526668477.55304313,47473503,-7.4,-7.96,-8.49,2077.0534668,-4.67,-3.44,220.86,273.37,0.0,0.03
1526668477.65300298,47573463,-6.7,-7.95,-8.32,2081.38598633,-5.34,-3.67,220.86,269.62,0.0,0.03
1526668477.75296307,47673423,-5.86,-7.62,-7.82,1992.58642578,-5.99,-3.97,220.86,265.86,0.0,0.03
1526668477.85292292,47773383,-4.91,-7.01,-7.05,1870.78015137,-6.62,-4.3,220.86,262.02,0.0,0.03
1526668477.95288301,47873343,-3.97,-6.16,-6.08,1755.0201416,-7.24,-4.73,220.86,258.13,0.0,0.03
1526668478.05284309,47973303,-3.24,-5.15,-5.02,1659.03173828,-8.01,-5.23,220.86,254.19,0.0,0.04
1526668478.15280294,48073263,-2.58,-4.06,-3.98,1572.67248535,-8.82,-5.95,220.86,250.23,0.0,0.02
1526668478.25276303,48173223,-1.95,-3.08,-3.02,1491.96704102,-9.6,-6.87,220.86,246.25,0.0,0.02
1526668478.35272312,48273183,-1.4,-2.22,-2.18,1418.71618652,-10.3,-7.86,220.86,242.3,0.0,0.02
1526668478.45351601,48373976,-0.9,-1.51,-1.47,1351.7487793,-10.88,-8.87,220.86,238.28,0.0,0.02
1526668478.55347610,48473936,-0.37,-0.94,-0.89,1291.35998535,-11.4,-9.76,220.86,234.26,0.0,0.05
1526668478.65343595,48573896,0.21,-0.45,-0.4,1235.89453125,-11.8,-10.48,220.86,230.2,0.0,0.04
1526668478.75339603,48673856,0.85,0.0,0.04,1185.5760498,-12.09,-10.98,220.86,226.23,0.0,0.04
1526668478.85335612,48773816,1.48,0.6,0.49,1139.11889648,-12.31,-11.28,220.86,222.56,0.0,0.03
1526668478.95331597,48873776,2.02,1.38,0.95,1841.88391113,-12.5,-11.45,220.86,219.5,0.0,0.03
1526668479.05327606,48973736,2.4,2.14,1.4,3596.79394531,-12.73,-11.61,220.86,217.27,0.0,0.02
1526668479.15323591,49073696,2.57,2.79,1.81,5608.53466797,-13.0,-11.77,220.86,215.92,0.0,0.01
1526668479.25319600,49173656,2.53,3.24,2.13,7398.72900391,-13.34,-12.02,220.86,215.37,0.0,0.0
1526668479.35315609,49273616,2.27,3.42,2.31,8623.07226562,-13.72,-12.37,220.86,215.43,0.0,0.01
1526668479.45311594,49373576,1.86,3.39,2.32,9227.39941406,-14.1,-12.83,220.86,215.99,0.0,0.01
1526668479.55307603,49473536,1.31,3.13,2.14,9455.97851562,-14.24,-13.36,220.86,216.94,0.0,0.02
1526668479.65303612,49573496,0.73,2.63,1.78,9332.75488281,-14.25,-13.87,220.86,218.04,0.0,0.02
1526668479.75299597,49673456,0.17,1.92,1.27,8856.484375,-14.22,-14.25,220.86,219.11,0.0,0.03
1526668479.85295606,49773416,-0.29,1.14,0.69,8203.95605469,-14.16,-14.47,220.86,220.07,0.0,0.03
1526668479.95291591,49873376,-0.69,0.41,0.09,7520.29248047,-14.11,-14.56,220.86,220.88,0.0,0.03
1526668480.05287600,49973336,-0.95,-0.2,-0.46,6910.52050781,-14.05,-14.56,220.86,221.45,0.0,0.03
1526668480.15283608,50073296,-1.12,-0.72,-0.93,6385.99853516,-14.01,-14.5,220.86,221.88,0.0,0.03
1526668480.25279593,50173256,-1.17,-1.13,-1.29,5923.88720703,-14.01,-14.39,220.86,222.09,0.0,0.11
1526668480.35275602,50273216,-1.13,-1.43,-1.5,5512.41015625,-14.05,-14.26,220.86,222.16,0.0,0.11
1526668480.45271611,50373176,-1.0,-1.56,-1.58,5147.10791016,-14.12,-14.11,220.86,222.06,0.0,0.11
1526668480.55350900,50473969,-0.84,-1.51,-1.52,4826.13330078,-14.21,-14.01,220.86,221.84,0.0,0.08
1526668480.65346909,50573929,-0.62,-1.32,-1.36,4543.34375,-14.38,-13.98,220.86,221.45,0.0,0.01
1526668480.75342894,50673889,-0.42,-1.07,-1.12,4292.67529297,-14.56,-14.02,220.86,221.1,0.0,0.0
1526668480.85338902,50773849,-0.27,-0.82,-0.84,4068.03881836,-14.74,-14.09,220.86,220.84,0.0,0.0
1526668480.95334911,50873809,-0.15,-0.6,-0.57,3865.02148438,-14.93,-14.21,220.86,220.68,0.0,0.0
1526668481.05330896,50973769,-0.08,-0.34,-0.33,3681.61083984,-15.14,-14.37,220.86,220.53,0.0,0.0
1526668481.15326905,51073729,-0.03,-0.13,-0.13,3514.50244141,-15.34,-14.57,220.86,220.39,0.0,0.0
1526668481.25322890,51173689,-0.11,-0.07,0.0,3362.46166992,-14.19,-14.81,220.86,220.3,0.0,0.0
1526668481.35318899,51273649,-0.32,-0.25,0.03,3235.11230469,-11.95,-14.62,220.86,220.32,0.0,0.0
1526668481.45314908,51373609,-0.42,-0.61,-0.02,3188.83886719,-11.32,-13.89,220.86,220.46,0.0,0.02
1526668481.55310893,51473569,-0.48,-0.8,-0.13,4421.95898438,-10.98,-13.03,220.86,220.64,0.0,0.02
1526668481.65306902,51573529,-0.46,-0.86,-0.26,4081.37646484,-11.18,-12.33,220.86,220.85,0.0,0.02
1526668481.75302911,51673489,-0.43,-0.81,-0.37,3398.85644531,-11.41,-11.84,220.86,221.0,0.0,0.01
1526668481.85298896,51773449,-0.4,-0.69,-0.46,2661.00415039,-11.8,-11.55,220.86,221.1,0.0,0.0
1526668481.95294905,51873409,-0.4,-0.51,-0.51,2042.02246094,-12.19,-11.51,220.86,221.26,0.0,0.0
1526668482.05290890,51973369,-0.41,-0.36,-0.53,1658.95678711,-12.43,-11.66,220.86,221.38,0.0,0.0
1526668482.15286899,52073329,-0.45,-0.29,-0.54,1466.54492188,-12.74,-11.92,220.86,221.46,0.0,0.0
1526668482.25282907,52173289,-0.51,-0.24,-0.54,1367.57177734,-12.79,-12.23,220.86,221.46,0.0,0.08
1526668482.35278893,52273249,-0.56,-0.26,-0.55,1309.93676758,-12.96,-12.51,220.86,221.4,0.0,0.08
1526668482.45274901,52373209,-0.58,-0.32,-0.56,1247.19763184,-13.39,-12.77,220.86,221.27,0.0,0.08
1526668482.55270910,52473169,-0.59,-0.39,-0.58,1170.96850586,-13.64,-12.98,220.86,221.13,0.0,0.08
1526668482.65350199,52573962,-0.55,-0.39,-0.59,1095.21447754,-14.04,-13.18,220.86,220.93,0.0,0.06
1526668482.75346208,52673922,-0.49,-0.28,-0.58,1056.55810547,-14.28,-13.44,220.86,220.69,0.0,0.01
1526668482.85342193,52773882,-0.46,-0.14,-0.56,1084.76379395,-14.31,-13.76,105.81,220.48,0.0,0.01
1526668482.95338202,52873842,-0.61,-0.6,-0.55,1066.68310547,-11.65,-14.18,105.81,220.07,0.0,0.01
1526668483.05334210,52973802,-0.57,-1.53,-0.56,1220.39672852,-9.35,-13.76,105.81,218.74,0.0,0.0
1526668483.15330195,53073762,-0.26,-2.28,-0.54,2363.97265625,-8.14,-12.58,105.81,216.66,0.0,0.0
1526668483.25326204,53173722,0.24,-2.54,-0.43,4497.58642578,-7.32,-11.02,105.81,214.03,0.0,0.0
1526668483.35322213,53273682,0.9,-2.25,-0.19,6706.89941406,-6.68,-9.43,105.81,211.05,0.0,0.01
1526668483.45318198,53373642,1.64,-1.6,0.2,8327.13378906,-6.14,-8.07,105.81,207.87,0.0,0.02
1526668483.55314207,53473602,2.37,-0.71,0.75,9245.99707031,-5.69,-6.97,105.81,204.47,0.0,0.03
1526668483.65310192,53573562,3.07,0.27,1.42,9621.85742188,-5.28,-6.06,105.81,200.91,0.0,0.04
1526668483.75306201,53673522,3.58,1.26,2.14,9648.34179688,-4.91,-5.39,105.81,197.26,0.0,0.04
1526668483.85302210,53773482,3.92,2.18,2.84,9490.96679688,-4.57,-4.89,105.81,193.49,0.0,0.04
1526668483.95298195,53873442,4.14,2.99,3.44,9220.18457031,-4.24,-4.49,105.81,189.66,0.0,0.04
1526668484.05294204,53973402,4.26,3.65,3.92,8904.484375,-3.91,-4.21,105.81,185.8,0.0,0.04
1526668484.15290213,54073362,4.26,4.12,4.25,170.93838501,-3.56,-4.01,105.81,181.96,0.0,0.04
1526668484.25286198,54173322,4.15,4.39,4.41,58.0541572571,-3.2,-3.88,105.81,178.11,0.0,0.05
1526668484.35282207,54273282,3.93,4.45,4.42,30.70262146,-2.82,-3.78,105.81,174.3,0.0,0.04
1526668484.45278192,54373242,3.62,4.35,4.29,26.1631011963,-2.39,-3.62,105.81,170.49,0.0,0.04
1526668484.55274200,54473202,3.21,4.16,4.02,45.1909675598,-1.94,-3.41,105.81,166.64,0.0,0.03
1526668484.65353513,54573995,2.67,3.81,3.64,80.520072937,-1.46,-3.16,105.81,162.74,0.0,0.02
1526668484.75349498,54673955,2.1,3.34,3.17,112.436668396,-1.09,-2.83,105.81,158.9,0.0,0.02
1526668484.85345507,54773915,1.42,2.83,2.6,150.502212524,-0.77,-2.47,105.81,155.04,0.0,0.02
1526668484.95341492,54873875,0.63,2.25,1.96,209.266647339,-0.53,-2.11,105.81,151.17,0.0,0.02
1526668485.05337501,54973835,-0.3,1.65,1.24,320.480743408,-0.39,-1.8,105.81,147.22,0.0,0.02
1526668485.15333509,55073795,-1.4,0.91,0.42,491.649780273,-0.36,-1.61,105.81,143.26,0.0,0.02
1526668485.25329494,55173755,-2.72,0.0,-0.51,674.217346191,-0.42,-1.55,105.81,139.27,0.0,0.02
1526668485.35325503,55273715,-4.15,-1.14,-1.6,821.117614746,-0.56,-1.56,105.81,135.26,0.0,0.01
1526668485.45321512,55373675,-4.7,-2.29,-2.75,911.543334961,-1.04,-1.57,105.81,131.28,0.0,0.01
1526668485.55317497,55473635,-4.69,-3.21,-3.75,1025.46105957,-1.69,-1.74,105.81,127.27,0.0,0.01
1526668485.65313506,55573595,-4.31,-3.9,-4.43,1151.9654541,-2.41,-1.89,105.81,123.22,0.0,0.02
1526668485.75309491,55673555,-3.68,-4.23,-4.73,1245.84973145,-3.11,-1.98,105.81,119.17,0.0,0.02
1526668485.85305500,55773515,-2.83,-4.14,-4.61,1312.57751465,-3.76,-2.04,105.81,115.16,0.0,0.03
1526668485.95301509,55873475,-1.88,-3.63,-4.11,1360.64160156,-4.35,-2.24,105.81,111.21,0.0,0.03
1526668486.05297494,55973435,-0.95,-2.83,-3.3,1414.14501953,-4.88,-2.61,105.81,107.39,0.0,0.03
1526668486.15293503,56073395,-0.09,-1.84,-2.29,1448.41235352,-5.33,-3.07,105.81,104.2,0.0,0.02
1526668486.25289512,56173355,0.53,-0.86,-1.2,1456.28686523,-5.72,-3.6,105.81,101.83,0.0,0.01
1526668486.35285497,56273315,0.95,-0.02,-0.17,1420.47485352,-6.11,-4.14,105.81,100.34,0.0,0.0
1526668486.45281506,56373275,1.08,0.62,0.68,1360.77758789,-6.49,-4.68,105.81,99.65,0.0,0.01
1526668486.55277491,56473235,1.04,1.06,1.29,1315.72973633,-6.85,-5.23,105.81,99.68,0.0,0.0
1526668486.65273499,56573195,0.88,1.3,1.63,1295.72546387,-6.91,-5.79,105.81,100.32,0.0,0.0
1526668486.75352812,56673988,0.59,1.32,1.69,1414.89550781,-6.82,-6.26,105.81,101.44,0.0,0.01
1526668486.85348797,56773948,0.3,1.16,1.52,1416.86657715,-6.73,-6.59,105.81,102.78,0.0,0.02
1526668486.95344806,56873908,0.0,0.88,1.18,1303.15234375,-6.64,-6.82,105.81,104.1,0.0,0.02
1526668487.05340791,56973868,-0.33,0.52,0.74,1102.70532227,-6.57,-6.96,105.81,105.28,0.0,0.02
1526668487.15336800,57073828,-0.61,0.1,0.25,916.377502441,-6.52,-6.98,105.81,106.24,0.0,0.02
1526668487.25332808,57173788,-0.83,-0.3,-0.22,758.742980957,-6.49,-6.94,105.81,106.95,0.0,0.01
1526668487.35328794,57273748,-0.98,-0.68,-0.64,638.372070312,-6.49,-6.88,105.81,107.46,0.0,0.01
1526668487.45324802,57373708,-1.04,-1.01,-0.97,548.708984375,-6.53,-6.8,105.81,107.7,0.0,0.0
1526668487.55320811,57473668,-1.06,-1.26,-1.19,482.314361572,-6.62,-6.69,105.81,107.75,0.0,0.0
1526668487.65316796,57573628,-0.98,-1.42,-1.31,437.595916748,-6.77,-6.58,105.81,107.57,0.0,0.0
1526668487.75312805,57673588,-0.83,-1.36,-1.31,401.446350098,-7.22,-6.5,105.81,107.22,0.0,0.0
1526668487.85308790,57773548,-0.68,-1.14,-1.21,366.230773926,-7.84,-6.61,105.81,106.83,0.0,0.0
1526668487.95304799,57873508,-0.52,-0.84,-1.05,356.390258789,-8.55,-6.91,105.81,106.5,0.0,0.0
1526668488.05300808,57973468,-0.36,-0.56,-0.83,379.353179932,-9.28,-7.41,105.81,106.19,0.0,0.01
1526668488.15296793,58073428,-0.26,-0.27,-0.61,422.717773438,-9.97,-8.05,105.81,105.85,0.0,0.01
1526668488.25292802,58173388,-0.21,-0.03,-0.4,484.165283203,-10.58,-8.78,105.81,105.63,0.0,0.01
1526668488.35288811,58273348,-0.21,0.07,-0.24,529.101135254,-11.12,-9.5,105.81,105.45,0.0,0.01
1526668488.45284796,58373308,-0.23,0.13,-0.13,545.135742188,-11.61,-10.14,105.81,105.29,0.0,0.02
1526668488.55280805,58473268,-0.28,0.13,-0.08,545.51159668,-12.02,-10.69,105.81,105.15,0.0,0.0
1526668488.65276790,58573228,-0.35,0.09,-0.09,536.732727051,-12.39,-11.17,105.81,105.08,0.0,0.0
1526668488.75272799,58673188,-0.43,0.03,-0.14,525.418518066,-12.72,-11.65,105.81,105.11,0.0,0.0
1526668488.85352111,58773981,-0.52,-0.01,-0.23,520.195922852,-13.02,-12.1,105.81,105.12,0.0,0.0
1526668488.95348096,58873941,-0.56,-0.06,-0.34,526.562133789,-13.37,-12.55,105.81,105.05,0.0,0.01
1526668489.05344105,58973901,-0.59,-0.14,-0.45,544.01348877,-13.67,-12.97,105.81,105.03,0.0,0.01
1526668489.15340090,59073861,-0.59,-0.23,-0.54,562.884033203,-13.94,-13.31,105.81,105.03,0.0,0.01
1526668489.25336099,59173821,-0.62,-0.4,-0.61,568.308288574,-14.03,-13.64,105.81,105.02,0.0,0.01
1526668489.35332108,59273781,-0.66,-0.49,-0.66,305.037017822,-14.01,-13.92,105.81,105.0,0.0,0.01
1526668489.45328093,59373741,-0.7,-0.61,-0.7,203.360107422,-13.93,-14.09,105.81,105.06,0.0,0.01
1526668489.55324101,59473701,-0.72,-0.71,-0.73,114.487884521,-13.85,-14.13,105.81,105.13,0.0,0.01
1526668489.65320110,59573661,-0.74,-0.71,-0.74,79.7332687378,-13.79,-14.1,105.81,105.23,0.0,0.0
1526668489.75316095,59673621,-0.77,-0.73,-0.76,63.2051620483,-13.74,-14.05,105.81,105.39,0.0,0.0
1526668489.85312104,59773581,-0.82,-0.76,-0.77,51.9354171753,-13.73,-13.95,105.81,105.56,0.0,0.0
1526668489.95308113,59873541,-0.86,-0.78,-0.79,43.4494285583,-13.76,-13.88,105.81,105.65,0.0,0.0
1526668490.05304098,59973501,-0.88,-0.84,-0.81,37.4771232605,-13.83,-13.82,105.81,105.7,0.0,0.0
1526668490.15300107,60073461,-0.88,-0.88,-0.84,34.7357063293,-13.9,-13.83,105.81,105.69,0.0,0.0
1526668490.25296092,60173421,-0.86,-0.84,-0.86,31.2418842316,-13.99,-13.87,105.81,105.72,0.0,0.0
1526668490.35292101,60273381,-0.88,-0.82,-0.87,29.5163383484,-14.1,-13.97,105.81,105.83,0.0,0.0
1526668490.45288110,60373341,-0.92,-0.82,-0.88,30.613111496,-14.22,-14.14,105.81,105.96,0.0,0.01
1526668490.55284095,60473301,-0.94,-0.87,-0.9,30.0206890106,-14.36,-14.27,105.81,106.03,0.0,0.01
1526668490.65280104,60573261,-0.94,-0.91,-0.91,27.8519134521,-14.49,-14.36,105.81,106.0,0.0,0.01
1526668490.75276113,60673221,-0.92,-0.96,-0.92,26.0050315857,-14.63,-14.43,105.81,105.91,0.0,0.01
1526668490.85272098,60773181,-0.86,-1.05,-0.92,28.741394043,-14.78,-14.49,105.81,105.76,0.0,0.01
1526668490.95351410,60873974,-0.8,-1.09,-0.91,41.9011573792,-14.91,-14.54,105.81,105.66,0.0,0.01
1526668491.05347395,60973934,-0.7,-1.06,-0.87,60.2644424438,-15.08,-14.61,105.81,105.56,0.0,0.0
1526668491.15343404,61073894,-0.6,-0.96,-0.8,74.4612960815,-15.24,-14.67,105.81,105.47,0.0,0.0
1526668491.25339413,61173854,-0.52,-0.76,-0.73,75.4473342896,-15.4,-14.76,105.81,105.39,0.0,0.0
1526668491.35335398,61273814,-0.46,-0.57,-0.64,72.4571685791,-15.58,-14.91,105.81,105.34,0.0,0.0
1526668491.45331407,61373774,-0.43,-0.42,-0.55,75.2091751099,-15.74,-15.09,105.81,105.27,0.0,0.0
1526668491.55327392,61473734,-0.41,-0.29,-0.48,85.3074569702,-15.89,-15.29,105.81,105.14,0.0,0.0
1526668491.65323400,61573694,-0.39,-0.15,-0.43,108.000259399,-16.02,-15.51,105.81,105.01,0.0,0.0
1526668491.75319409,61673654,-0.39,-0.07,-0.39,143.929992676,-16.14,-15.74,105.81,104.92,0.0,0.01
1526668491.85315394,61773614,-0.38,-0.03,-0.37,184.341903687,-16.26,-15.95,105.81,104.85,0.0,0.01
1526668491.95311403,61873574,-0.43,-0.07,-0.37,922.723571777,-16.35,-16.11,105.81,104.89,0.0,0.01
1526668492.05307412,61973534,-0.46,-0.11,-0.39,865.745422363,-16.42,-16.26,105.81,104.91,0.0,0.01
1526668492.15303397,62073494,-0.51,-0.17,-0.42,804.503295898,-16.5,-16.42,105.81,105.01,0.0,0.01
1526668492.25299406,62173454,-0.56,-0.25,-0.47,712.03503418,-16.55,-16.58,105.81,105.17,0.0,0.01
1526668492.35295391,62273414,-0.6,-0.34,-0.52,631.16607666,-16.58,-16.69,105.81,105.31,0.0,0.01
1526668492.45291400,62373374,-0.63,-0.44,-0.57,559.19543457,-16.63,-16.74,105.81,105.46,0.0,0.0
1526668492.55287409,62473334,-0.69,-0.57,-0.63,480.346984863,-16.66,-16.77,105.81,105.71,0.0,0.0
1526668492.65283394,62573294,-0.71,-0.68,-0.68,414.156829834,-16.72,-16.85,105.81,105.89,0.0,0.01
1526668492.75279403,62673254,-0.75,-0.75,-0.72,362.98260498,-16.77,-16.89,105.81,106.01,0.0,0.02
1526668492.85275412,62773214,-0.76,-0.76,-0.76,323.417236328,-16.79,-16.89,105.81,106.12,0.0,0.02
1526668492.95271397,62873174,-0.74,-0.76,-0.78,291.477142334,-16.83,-16.97,105.81,106.14,0.0,0.02
1526668493.05350709,62973967,-0.72,-0.8,-0.79,265.273132324,-16.84,-17.06,105.81,106.11,0.0,0.01
1526668493.15346694,63073927,-0.66,-0.91,-0.78,247.768493652,-16.88,-17.08,105.81,105.99,0.0,0.0
1526668493.25342703,63173887,-0.58,-0.96,-0.75,251.134124756,-16.92,-17.0,105.81,105.93,0.0,0.0
1526668493.35338712,63273847,-0.46,-0.93,-0.69,267.623168945,-16.97,-16.97,105.81,105.81,0.0,0.0
1526668493.45334697,63373807,-0.34,-0.85,-0.61,288.114074707,-17.03,-17.0,105.81,105.7,0.0,0.0
1526668493.55330706,63473767,-0.2,-0.75,-0.5,305.838531494,-17.08,-17.01,105.81,105.56,0.0,0.0
1526668493.65326691,63573727,-0.07,-0.59,-0.37,319.692199707,-17.13,-16.99,105.81,105.46,0.0,0.0
1526668493.75322700,63673687,0.04,-0.42,-0.24,322.334381104,-17.19,-16.97,105.81,105.3,0.0,0.0
1526668493.85318708,63773647,0.11,-0.25,-0.11,318.127410889,-17.27,-16.99,105.81,105.14,0.0,0.0
1526668493.95314693,63873607,0.17,-0.09,0.0,309.395385742,-17.36,-17.05,105.81,105.02,0.0,0.0
1526668494.05310702,63973567,0.19,0.06,0.1,297.162719727,-17.45,-17.09,105.81,104.96,0.0,0.0
1526668494.15306711,64073527,0.18,0.2,0.16,283.999389648,-17.53,-17.12,105.81,104.99,0.0,0.0
1526668494.25302696,64173487,0.14,0.14,0.19,272.918945312,-17.24,-17.29,15.03,104.99,0.0,0.0
1526668494.35298705,64273447,-0.24,-0.62,0.16,344.648773193,-13.67,-17.45,15.03,104.46,0.0,0.0
1526668494.45294690,64373407,-0.48,-1.66,0.03,1003.35827637,-11.88,-16.7,15.03,103.08,0.0,0.01
1526668494.55290699,64473367,-0.53,-2.4,-0.14,50809.5585938,-10.91,-15.36,15.03,100.96,0.0,0.03
1526668494.65286708,64573327,-0.42,-2.65,-0.31,54055.4648438,-10.28,-13.81,15.03,98.3,0.0,0.06
1526668494.75282693,64673287,-0.23,-2.53,-0.41,52217.3828125,-9.89,-12.41,15.03,95.35,0.0,0.1
1526668494.85278702,64773247,0.02,-2.11,-0.43,47028.328125,-9.67,-11.32,15.03,92.23,0.0,0.1
1526668494.95274711,64873207,0.45,-1.58,-0.33,40588.9257812,-9.53,-10.53,15.03,88.93,0.0,0.1
1526668495.05270696,64973167,0.95,-0.94,-0.09,34663.5976562,-9.43,-9.95,15.03,85.48,0.0,0.1
1526668495.15350008,65073960,1.45,-0.31,0.26,29706.4570312,-9.35,-9.53,15.03,81.9,0.0,0.08
1526668495.25345993,65173920,1.95,0.35,0.72,25798.5507812,-9.32,-9.27,15.03,78.29,0.0,0.04
1526668495.35342002,65273880,2.4,1.04,1.24,22688.828125,-9.26,-9.09,15.03,74.64,0.0,0.03
1526668495.45338011,65373840,2.81,1.75,1.78,20194.625,-9.19,-8.96,15.03,70.98,0.0,0.03
1526668495.55333996,65473800,3.16,2.37,2.31,18181.3710938,-9.1,-8.92,15.03,67.24,0.0,0.03
1526668495.65330005,65573760,3.44,2.91,2.79,16539.4238281,-8.98,-8.93,15.03,63.44,0.0,0.03
1526668495.75325990,65673720,3.66,3.29,3.19,15174.5097656,-8.82,-8.98,15.03,59.59,0.0,0.03
1526668495.85321999,65773680,3.78,3.57,3.52,14013.6513672,-8.64,-9.05,15.03,55.72,0.0,0.03
1526668495.95318007,65873640,3.86,3.8,3.74,13016.3857422,-8.45,-9.01,15.03,51.78,0.0,0.03
1526668496.05313993,65973600,3.92,3.97,3.88,12152.8994141,-8.23,-8.99,15.03,47.78,0.0,0.04
1526668496.15310001,66073560,3.93,4.04,3.96,11399.1201172,-8.03,-8.94,15.03,43.79,0.0,0.04
1526668496.25306010,66173520,3.87,4.0,3.96,10731.3544922,-7.87,-8.84,15.03,39.83,0.0,0.04
1526668496.35301995,66273480,3.77,3.96,3.92,10136.4804688,-7.74,-8.66,15.03,35.84,0.0,0.04
1526668496.45298004,66373440,3.67,3.9,3.83,9604.99511719,-7.65,-8.44,15.03,31.85,0.0,0.04
1526668496.55294013,66473400,3.58,3.9,3.71,9132.97167969,-7.6,-8.26,15.03,27.86,0.0,0.04
1526668496.65289998,66573360,3.46,3.89,3.58,8729.33984375,-7.61,-8.18,15.03,23.85,0.0,0.04
1526668496.75286007,66673320,3.28,3.85,3.45,8387.78417969,-7.92,-8.11,15.03,19.93,0.0,0.05
1526668496.85281992,66773280,3.06,3.84,3.29,8120.10205078,-8.42,-7.93,15.03,16.32,0.0,0.14
1526668496.95278001,66873240,2.81,3.88,3.12,7956.33398438,-9.05,-7.85,15.03,13.33,0.0,0.14
1526668497.05274010,66973200,2.49,3.94,2.92,7960.22851562,-9.73,-7.99,15.03,11.17,0.0,0.12
1526668497.15353298,67073993,1.99,3.92,2.67,15544.6210938,-10.42,-8.42,15.03,9.86,0.0,0.09
1526668497.25349307,67173953,1.49,3.7,2.35,17187.2792969,-11.11,-9.03,15.03,9.34,0.0,0.01
1526668497.35345292,67273913,0.92,3.27,1.95,17534.6464844,-11.66,-9.71,15.03,9.57,0.0,0.0
1526668497.45341301,67373873,0.38,2.7,1.48,17086.8984375,-12.07,-10.45,15.03,10.39,0.0,0.0
1526668497.55337310,67473833,-0.11,1.98,0.97,15952.0683594,-12.35,-11.13,15.03,11.5,0.0,0.0
1526668497.65333295,67573793,-0.49,1.17,0.45,14255.0966797,-12.55,-11.69,15.03,12.69,0.0,0.0
1526668497.75329304,67673753,-0.73,0.42,-0.03,12437.2226562,-12.69,-12.12,15.03,13.85,0.0,0.0
1526668497.85325313,67773713,-0.82,-0.24,-0.43,10821.5585938,-12.81,-12.45,15.03,14.82,0.0,0.0
1526668497.95321298,67873673,-0.78,-0.79,-0.71,9484.62109375,-12.94,-12.67,15.03,15.68,0.0,0.0
1526668498.05317307,67973633,-0.59,-1.19,-0.85,8490.74707031,-13.08,-12.8,15.03,16.2,0.0,0.0
1526668498.15313292,68073593,-0.32,-1.36,-0.84,7833.12597656,-13.25,-12.81,15.03,16.47,0.0,0.0
1526668498.25309300,68173553,0.02,-1.31,-0.68,7420.92578125,-13.3,-12.77,15.03,16.53,0.0,0.0
1526668498.35305309,68273513,0.36,-1.08,-0.4,7168.66601562,-13.31,-12.74,15.03,16.49,0.0,0.0
1526668498.45301294,68373473,0.7,-0.73,-0.04,6979.66113281,-13.34,-12.75,15.03,16.29,0.0,0.0
1526668498.55297303,68473433,0.97,-0.33,0.35,6805.65869141,-13.41,-12.84,15.03,16.04,0.0,0.0
1526668498.65293312,68573393,1.14,0.01,0.74,6685.62451172,-13.49,-12.88,15.03,15.77,0.0,0.0
1526668498.75289297,68673353,1.26,0.42,1.08,6582.17333984,-13.57,-12.96,15.03,15.41,0.0,0.0
1526668498.85285306,68773313,1.35,0.76,1.35,6431.47412109,-13.65,-13.08,15.03,14.96,0.0,0.0
1526668498.95281291,68873273,1.37,1.06,1.54,6241.15527344,-13.76,-13.16,15.03,14.56,0.0,0.08
1526668499.05277300,68973233,1.32,1.35,1.64,5993.64453125,-13.91,-13.3,15.03,14.24,0.0,0.08
1526668499.15273309,69073193,1.19,1.55,1.64,5714.5859375,-14.06,-13.49,15.03,14.02,0.0,0.08
1526668499.25352597,69173986,0.99,1.6,1.56,5443.78613281,-14.19,-13.7,15.03,13.93,0.0,0.07
1526668499.35348606,69273946,0.75,1.54,1.4,5200.41357422,-14.34,-13.96,15.03,14.03,0.0,0.01
1526668499.45344591,69373906,0.44,1.4,1.17,4990.25292969,-14.45,-14.25,15.03,14.23,0.0,0.0
1526668499.55340600,69473866,0.14,1.11,0.88,4807.01464844,-14.53,-14.5,15.03,14.41,0.0,0.0
1526668499.65336609,69573826,-0.1,0.73,0.56,4630.23876953,-14.6,-14.7,15.03,14.6,0.0,0.0
1526668499.75332594,69673786,-0.33,0.35,0.24,120.552429199,-14.66,-14.86,15.03,14.76,0.0,0.0
1526668499.85328603,69773746,-0.54,-0.01,-0.06,56.3791427612,-14.72,-14.94,15.03,14.88,0.0,0.0
1526668499.95324612,69873706,-0.69,-0.3,-0.33,37.1780738831,-14.78,-14.96,15.03,14.92,0.0,0.0
1526668500.05320597,69973666,-0.79,-0.52,-0.56,30.8976612091,-14.88,-14.95,15.03,14.95,0.0,0.0
1526668500.15316606,70073626,-0.86,-0.72,-0.73,25.7124595642,-14.99,-14.94,15.03,14.94,0.0,0.0
1526668500.25312591,70173586,-0.9,-0.88,-0.84,21.2338542938,-15.12,-14.94,15.03,14.97,0.0,0.0
1526668500.35308599,70273546,-0.93,-1.05,-0.91,30.256275177,-15.25,-15.0,15.03,15.07,0.0,0.0
1526668500.45304608,70373506,-0.95,-1.13,-0.93,69.2614212036,-15.38,-15.0,15.03,15.18,0.0,0.0
1526668500.55300593,70473466,-0.95,-1.14,-0.94,105.676879883,-15.5,-15.02,15.03,15.19,0.0,0.0
1526668500.65296602,70573426,-0.94,-1.07,-0.92,131.052978516,-15.65,-15.07,15.03,15.16,0.0,0.0
1526668500.75292611,70673386,-0.95,-0.98,-0.89,132.416687012,-15.79,-15.21,15.03,15.17,0.0,0.0
1526668500.85288596,70773346,-1.0,-0.88,-0.87,122.24256134,-15.92,-15.41,15.03,15.26,0.0,0.0
1526668500.95284605,70873306,-1.05,-0.85,-0.86,112.162391663,-16.05,-15.66,15.03,15.33,0.0,0.0
1526668501.05280590,70973266,-1.1,-0.9,-0.88,103.690788269,-16.17,-15.89,15.03,15.35,0.0,0.07
1526668501.15276599,71073226,-1.13,-0.89,-0.91,96.4653091431,-16.28,-16.06,15.03,15.23,0.0,0.08
1526668501.25272608,71173186,-1.13,-0.95,-0.95,90.3561401367,-16.4,-16.17,15.03,15.09,0.0,0.09
1526668501.35351896,71273979,-1.08,-1.02,-0.99,85.1228027344,-16.48,-16.23,15.03,14.77,0.0,0.07
1526668501.45347905,71373939,-0.99,-1.0,-1.0,80.233505249,-16.56,-16.32,15.03,14.39,0.0,0.0
1526668501.55343890,71473899,-0.96,-1.02,-0.99,75.8924636841,-16.64,-16.41,15.03,14.2,0.0,0.0
1526668501.65339899,71573859,-0.92,-0.98,-0.96,72.3392868042,-16.7,-16.5,15.03,14.04,0.0,0.0
1526668501.75335908,71673819,-0.89,-0.93,-0.92,68.740234375,-16.76,-16.64,15.03,13.91,0.0,0.0
1526668501.85331893,71773779,-0.88,-0.93,-0.89,65.7213897705,-16.84,-16.75,15.03,13.92,0.0,0.0
1526668501.95327902,71873739,-0.91,-0.95,-0.86,64.6749267578,-16.91,-16.82,15.03,13.99,0.0,0.0
1526668502.05323911,71973699,-0.98,-0.95,-0.85,66.343460083,-16.99,-16.81,15.03,14.24,0.0,0.0
1526668502.15319896,72073659,-1.08,-0.94,-0.86,66.5912628174,-17.06,-16.82,15.03,14.55,0.0,0.01
1526668502.25315905,72173619,-1.19,-1.05,-0.92,67.9521865845,-17.12,-16.87,15.03,14.94,0.0,0.0
1526668502.35311890,72273579,-1.35,-1.18,-1.0,296.093475342,-16.78,-16.94,15.03,15.32,0.0,0.0
1526668502.45307899,72373539,-1.45,-1.29,-1.12,260.096618652,-16.53,-16.94,15.03,15.54,0.0,0.0
1526668502.55303907,72473499,-1.52,-1.42,-1.25,267.211547852,-16.48,-16.95,15.03,15.67,0.0,0.0
1526668502.65299892,72573459,-1.51,-1.58,-1.37,295.281616211,-16.5,-16.9,15.03,15.63,0.0,0.0
1526668502.75295901,72673419,-1.46,-1.71,-1.45,353.343658447,-16.54,-16.81,15.03,15.5,0.0,0.0
1526668502.85291910,72773379,-1.37,-1.74,-1.49,409.795928955,-16.6,-16.63,15.03,15.36,0.0,0.0
1526668502.95287895,72873339,-1.25,-1.68,-1.48,420.208404541,-16.68,-16.52,15.03,15.19,0.0,0.0
1526668503.05283904,72973299,-1.16,-1.56,-1.42,402.262756348,-16.77,-16.46,15.03,15.08,0.0,0.0
1526668503.15279913,73073259,-1.11,-1.38,-1.33,363.691833496,-16.87,-16.47,15.03,15.04,0.0,0.07
1526668503.25275898,73173219,-1.07,-1.15,-1.24,325.482940674,-16.97,-16.57,15.03,15.01,0.0,0.07
1526668503.35271907,73273179,-1.05,-0.96,-1.14,314.690124512,-17.05,-16.72,15.03,14.99,0.0,0.07
1526668503.45351195,73373972,-0.99,-0.82,-1.07,331.247802734,-17.15,-16.86,15.03,14.87,0.0,0.06
1526668503.55347204,73473932,-0.92,-0.68,-0.99,373.559661865,-17.24,-17.0,15.03,14.63,0.0,0.01
1526668503.65343213,73573892,-0.88,-0.55,-0.93,441.387268066,-17.31,-17.16,15.03,14.41,0.0,0.01
1526668503.75339198,73673852,-0.84,-0.52,-0.88,513.513427734,-17.37,-17.31,15.03,14.21,0.0,0.01
1526668503.85335207,73773812,-0.82,-0.52,-0.84,560.026733398,-17.43,-17.39,15.03,14.13,0.0,0.01
1526668503.95331192,73873772,-0.85,-0.6,-0.82,573.57019043,-17.47,-17.41,15.03,14.17,0.0,0.0
1526668504.05327201,73973732,-0.89,-0.69,-0.82,557.903198242,-17.5,-17.47,15.03,14.25,0.0,0.01
1526668504.15323210,74073692,-0.95,-0.92,-0.84,532.94708252,-17.15,-17.62,208.45,14.35,0.0,0.0
1526668504.25319195,74173652,-1.14,-1.84,-0.9,658.464233398,-13.62,-17.56,208.45,13.9,0.0,0.01
1526668504.35315204,74273612,-0.92,-2.85,-0.96,1692.9362793,-11.83,-16.59,208.45,12.57,0.0,0.03
1526668504.45311213,74373572,-0.35,-3.4,-0.94,3955.6315918,-10.81,-15.02,208.45,10.58,0.0,0.03
1526668504.55307198,74473532,0.44,-3.28,-0.75,6642.70849609,-10.11,-13.31,208.45,8.16,0.0,0.02
1526668504.65303206,74573492,1.37,-2.62,-0.35,8855.81054688,-9.57,-11.79,208.45,5.36,0.0,0.01
1526668504.75299191,74673452,2.34,-1.68,0.27,10338.5595703,-9.13,-10.48,208.45,2.38,0.0,0.0
1526668504.85295200,74773412,3.3,-0.47,1.07,11150.1630859,-8.77,-9.45,208.45,359.19,0.0,0.0
1526668504.95291209,74873372,4.2,0.85,2.01,13612.6826172,-8.44,-8.7,208.45,355.85,0.0,0.0
1526668505.05287194,74973332,5.02,2.15,3.01,10339.2832031,-8.11,-8.2,208.45,352.39,0.0,0.0
1526668505.15283203,75073292,5.74,3.32,4.0,8157.82958984,-7.75,-7.78,208.45,348.78,0.0,0.0
1526668505.25279212,75173252,6.33,4.42,4.93,6640.4609375,-7.35,-7.49,208.45,345.07,0.0,0.07
1526668505.35275197,75273212,6.76,5.39,5.75,5476.4375,-6.89,-7.29,208.45,341.25,0.0,0.08
1526668505.45271206,75373172,7.07,6.17,6.41,4568.16894531,-6.37,-7.1,208.45,337.43,0.0,0.09
1526668505.55350494,75473965,7.25,6.75,6.9,3868.61645508,-5.77,-6.9,208.45,333.61,0.0,0.07
1526668505.65346503,75573925,7.35,7.16,7.23,3336.22241211,-5.13,-6.58,208.45,329.78,0.0,0.02
1526668505.75342512,75673885,7.34,7.38,7.4,2923.35571289,-4.45,-6.21,208.45,325.88,0.0,0.02
1526668505.85338497,75773845,7.25,7.44,7.44,2599.66650391,-3.7,-5.75,208.45,321.94,0.0,0.02
1526668505.95334506,75873805,7.09,7.39,7.36,2340.63305664,-2.92,-5.27,208.45,317.96,0.0,0.02
1526668506.05330491,75973765,6.85,7.26,7.2,2129.97314453,-2.13,-4.67,208.45,313.94,0.0,0.02
1526668506.15326500,76073725,6.53,6.99,6.96,1954.55297852,-1.32,-3.96,208.45,309.9,0.0,0.02
1526668506.25322509,76173685,6.14,6.67,6.65,1804.74450684,-0.55,-3.16,208.45,305.93,0.0,0.02
1526668506.35318494,76273645,5.68,6.28,6.29,1676.13330078,0.16,-2.34,208.45,302.05,0.0,0.02
1526668506.45314503,76373605,5.15,5.86,5.88,1564.70812988,0.79,-1.51,208.45,298.17,0.0,0.01
1526668506.55310512,76473565,4.53,5.4,5.41,1467.6237793,1.32,-0.74,208.45,294.29,0.0,0.01
1526668506.65306497,76573525,3.87,4.94,4.89,1381.70837402,1.75,-0.06,208.45,290.38,0.0,0.02
1526668506.75302505,76673485,3.12,4.5,4.31,1313.05529785,2.06,0.56,208.45,286.46,0.0,0.01
1526668506.85298491,76773445,2.29,4.0,3.66,1282.52868652,2.29,1.07,208.45,282.52,0.0,0.02
1526668506.95294499,76873405,1.37,3.42,2.95,1301.8067627,2.36,1.42,208.45,278.48,0.0,0.02
1526668507.05290508,76973365,0.34,2.74,2.15,1375.19274902,2.28,1.65,208.45,274.37,0.0,0.02
1526668507.15286493,77073325,-0.78,1.94,1.26,1494.94067383,1.98,1.69,208.45,270.28,0.0,0.03
1526668507.25282502,77173285,-1.98,1.04,0.28,1651.26538086,1.39,1.57,208.45,266.12,0.0,0.02
1526668507.35278511,77273245,-3.33,0.1,-0.78,1862.93481445,0.48,1.22,208.45,262.01,0.0,0.01
1526668507.45274496,77373205,-4.22,-0.91,-1.94,2169.04077148,-0.44,0.59,208.45,257.95,0.0,0.02
1526668507.55353808,77473998,-4.31,-1.93,-2.99,11332.3652344,-1.02,-0.06,208.45,253.95,0.0,0.01
1526668507.65349793,77573958,-4.07,-2.79,-3.76,10556.3662109,-1.43,-0.59,208.45,250.02,0.0,0.01
1526668507.75345802,77673918,-3.54,-3.41,-4.17,9152.6171875,-1.62,-0.98,208.45,246.13,0.0,0.02
1526668507.85341811,77773878,-2.93,-3.76,-4.18,7347.98486328,-1.64,-1.14,208.45,242.22,0.0,0.02
1526668507.95337796,77873838,-2.22,-3.79,-3.85,5683.84521484,-1.55,-1.08,208.45,238.24,0.0,0.02
1526668508.05333805,77973798,-1.47,-3.5,-3.24,4589.38330078,-1.43,-0.91,208.45,234.14,0.0,0.02
1526668508.15329790,78073758,-0.84,-2.98,-2.44,4118.18115234,-1.48,-0.7,208.45,230.09,0.0,0.02
1526668508.25325799,78173718,-0.37,-2.29,-1.58,4091.49072266,-1.78,-0.57,208.45,226.08,0.0,0.03
1526668508.35321808,78273678,0.01,-1.54,-0.75,4286.32763672,-2.19,-0.63,208.45,222.07,0.0,0.03
1526668508.45317793,78373638,0.34,-0.81,-0.03,4480.12304688,-2.63,-0.87,208.45,218.06,0.0,0.03
1526668508.55313802,78473598,0.58,-0.12,0.53,4552.10888672,-3.08,-1.22,208.45,214.1,0.0,0.03
1526668508.65309811,78573558,0.75,0.44,0.95,4462.08203125,-3.57,-1.68,208.45,210.34,0.0,0.03
1526668508.75305796,78673518,0.85,0.9,1.22,4249.27441406,-4.05,-2.23,208.45,207.12,0.0,0.03
1526668508.85301805,78773478,0.84,1.24,1.35,3963.20996094,-4.53,-2.83,208.45,204.6,0.0,0.02
1526668508.95297790,78873438,0.72,1.43,1.35,3682.99389648,-5.02,-3.46,208.45,202.98,0.0,0.01
1526668509.05293798,78973398,0.49,1.47,1.23,3454.734375,-5.53,-4.06,208.45,202.26,0.0,0.01
1526668509.15289807,79073358,0.24,1.39,1.02,3299.01318359,-5.74,-4.61,208.45,202.31,0.0,0.02
1526668509.25285792,79173318,-0.01,1.18,0.73,3203.76611328,-5.79,-5.08,208.45,203.01,0.0,0.03
1526668509.35281801,79273278,-0.31,0.87,0.4,3140.46313477,-5.79,-5.47,208.45,204.06,0.0,0.12
1526668509.45277810,79373238,-0.57,0.49,0.06,3082.60546875,-5.76,-5.76,208.45,205.26,0.0,0.13
1526668509.55273795,79473198,-0.82,0.04,-0.28,3000.59008789,-5.75,-5.99,208.45,206.52,0.0,0.13
1526668509.65353107,79573991,-1.02,-0.48,-0.59,2882.98583984,-5.75,-6.07,208.45,207.72,0.0,0.11
1526668509.75349092,79673951,-1.14,-0.91,-0.87,2753.63330078,-5.79,-6.1,208.45,208.65,0.0,0.04
1526668509.85345101,79773911,-1.15,-1.25,-1.08,2639.79833984,-5.86,-5.99,208.45,209.35,0.0,0.03
1526668509.95341110,79873871,-1.1,-1.42,-1.2,2545.73510742,-5.97,-5.85,208.45,209.85,0.0,0.02
1526668510.05337095,79973831,-0.97,-1.47,-1.24,2464.63720703,-6.13,-5.75,208.45,210.04,0.0,0.02
1526668510.15333104,80073791,-0.79,-1.4,-1.18,450.975799561,-6.31,-5.77,208.45,209.93,0.0,0.01
1526668510.25329113,80173751,-0.56,-1.23,-1.05,388.978881836,-6.52,-5.84,208.45,209.72,0.0,0.01
1526668510.35325098,80273711,-0.38,-0.94,-0.85,285.826477051,-6.75,-5.97,208.45,209.44,0.0,0.0
1526668510.45321107,80373671,-0.24,-0.66,-0.62,200.789642334,-6.98,-6.16,208.45,209.12,0.0,0.0
1526668510.55317092,80473631,-0.14,-0.42,-0.4,151.687423706,-7.21,-6.41,208.45,208.76,0.0,0.0
1526668510.65313101,80573591,-0.07,-0.21,-0.2,121.898841858,-7.46,-6.71,208.45,208.43,0.0,0.0
1526668510.75309110,80673551,-0.05,-0.04,-0.04,101.933654785,-7.69,-7.07,208.45,208.17,0.0,0.0
1526668510.85305095,80773511,-0.07,0.0,0.05,88.4351119995,-8.02,-7.44,208.45,208.01,0.0,0.0
1526668510.95301104,80873471,-0.09,0.0,0.09,85.8504867554,-8.51,-7.74,208.45,207.9,0.0,0.0
1526668511.05297112,80973431,-0.08,-0.02,0.1,93.7331390381,-9.04,-8.05,208.45,207.84,0.0,0.0
1526668511.15293097,81073391,-0.09,0.0,0.07,94.0025100708,-9.58,-8.37,208.45,207.85,0.0,0.0
1526668511.25289106,81173351,-0.13,0.06,0.03,86.6159591675,-10.14,-8.73,208.45,207.9,0.0,0.0
1526668511.35285091,81273311,-0.19,0.06,-0.03,83.3464279175,-10.69,-9.19,208.45,207.95,0.0,0.0
1526668511.45281100,81373271,-0.25,0.06,-0.1,90.3995513916,-11.23,-9.7,208.45,207.99,0.0,0.08
1526668511.55277109,81473231,-0.3,0.07,-0.17,114.746620178,-11.73,-10.24,208.45,208.0,0.0,0.09
1526668511.65273094,81573191,-0.3,0.08,-0.24,163.589004517,-12.19,-10.79,208.45,207.94,0.0,0.09
1526668511.75352407,81673984,-0.33,0.04,-0.29,226.08253479,-12.6,-11.32,208.45,207.88,0.0,0.07
1526668511.85348392,81773944,-0.37,-0.04,-0.34,273.696411133,-13.0,-11.81,208.45,207.91,0.0,0.0
1526668511.95344400,81873904,-0.42,-0.11,-0.37,302.513305664,-13.37,-12.28,208.45,207.97,0.0,0.0
1526668512.05340409,81973864,-0.43,-0.14,-0.4,322.564697266,-13.73,-12.72,208.45,208.08,0.0,0.0
1526668512.15336394,82073824,-0.46,-0.2,-0.43,338.751495361,-14.08,-13.16,208.45,208.25,0.0,0.0
1526668512.25332403,82173784,-0.49,-0.36,-0.45,335.608642578,-14.4,-13.54,208.45,208.4,0.0,0.0
1526668512.35328412,82273744,-0.51,-0.47,-0.47,321.51864624,-14.58,-13.84,208.45,208.46,0.0,0.0
1526668512.45324397,82373704,-0.53,-0.56,-0.49,308.017852783,-14.59,-14.1,208.45,208.47,0.0,0.0
1526668512.55320406,82473664,-0.5,-0.61,-0.5,298.20401001,-14.55,-14.35,208.45,208.35,0.0,0.0
1526668512.65316391,82573624,-0.41,-0.62,-0.5,291.373596191,-14.51,-14.52,208.45,208.19,0.0,0.0
1526668512.75312400,82673584,-0.33,-0.59,-0.47,129.764419556,-14.48,-14.63,208.45,208.05,0.0,0.0
1526668512.85308409,82773544,-0.25,-0.6,-0.42,192.96182251,-14.44,-14.64,208.45,207.99,0.0,0.0
1526668512.95304394,82873504,-0.21,-0.57,-0.35,285.922912598,-14.42,-14.6,208.45,207.99,0.0,0.0
1526668513.05300403,82973464,-0.2,-0.51,-0.29,349.330413818,-14.41,-14.56,208.45,208.06,0.0,0.0
1526668513.15296412,83073424,-0.19,-0.43,-0.23,377.538146973,-14.43,-14.49,208.45,208.12,0.0,0.0
1526668513.25292397,83173384,-0.17,-0.35,-0.19,360.718902588,-14.48,-14.45,208.45,208.25,0.0,0.0
1526668513.35288405,83273344,-0.17,-0.29,-0.16,333.378265381,-14.56,-14.46,208.45,208.36,0.0,0.0
1526668513.45284390,83373304,-0.18,-0.29,-0.14,312.615905762,-14.66,-14.48,208.45,208.48,0.0,0.0
1526668513.55280399,83473264,-0.18,-0.3,-0.14,304.681304932,-14.76,-14.53,208.45,208.6,0.0,0.08
1526668513.65276408,83573224,-0.16,-0.21,-0.14,287.235961914,-14.88,-14.64,208.45,208.65,0.0,0.09
1526668513.75272393,83673184,-0.17,-0.11,-0.15,259.353546143,-14.99,-14.77,208.45,208.68,0.0,0.08
1526668513.85351706,83773977,-0.16,-0.01,-0.16,244.506225586,-15.07,-14.92,208.45,208.67,0.0,0.07
1526668513.95347691,83873937,-0.16,0.03,-0.16,248.646957397,-15.2,-15.06,208.45,208.61,0.0,0.01
1526668514.05343699,83973897,-0.18,-0.01,-0.17,256.059661865,-15.34,-15.13,208.45,208.59,0.0,0.01
1526668514.15339708,84073857,-0.21,-0.03,-0.18,255.820159912,-15.47,-15.24,208.45,208.56,0.0,0.0
1526668514.25335693,84173817,-0.22,-0.03,-0.2,256.804656982,-15.54,-15.43,208.45,208.62,0.0,0.01
1526668514.35331702,84273777,-0.23,-0.07,-0.21,256.869598389,-15.47,-15.68,208.45,208.71,0.0,0.01
1526668514.45327711,84373737,-0.25,-0.21,-0.23,247.013519287,-15.3,-15.81,208.45,208.8,0.0,0.0
1526668514.55323696,84473697,-0.23,-0.32,-0.24,234.238235474,-15.09,-15.8,208.45,208.79,0.0,0.0
1526668514.65319705,84573657,-0.17,-0.41,-0.24,229.961425781,-14.84,-15.74,208.45,208.65,0.0,0.0
1526668514.75315690,84673617,-0.07,-0.5,-0.22,242.361953735,-14.57,-15.56,208.45,208.48,0.0,0.0
1526668514.85311699,84773577,0.05,-0.52,-0.17,277.9034729,-14.29,-15.24,208.45,208.27,0.0,0.0
1526668514.95307708,84873537,0.17,-0.5,-0.09,330.101104736,-14.01,-14.87,208.45,208.12,0.0,0.0
1526668515.05303693,84973497,0.3,-0.39,0.0,386.104278564,-13.77,-14.49,208.45,207.97,0.0,0.0
1526668515.15299702,85073457,0.4,-0.2,0.12,424.190307617,-13.54,-14.19,208.45,207.91,0.0,0.0
1526668515.25295711,85173417,0.45,-0.03,0.24,444.625305176,-13.32,-13.94,208.45,207.93,0.0,0.0
1526668515.35291696,85273377,0.51,0.09,0.35,711.098571777,-13.11,-13.73,208.45,207.97,0.0,0.0
1526668515.45287704,85373337,0.55,0.15,0.45,779.988952637,-12.89,-13.52,208.45,208.02,0.0,0.0
1526668515.55283713,85473297,0.56,0.16,0.52,943.406799316,-12.65,-13.26,208.45,208.16,0.0,0.0
1526668515.65279698,85573257,0.56,0.2,0.56,1084.00585938,-12.4,-13.01,208.45,208.26,0.0,0.08
1526668515.75275707,85673217,0.56,0.3,0.58,1090.93896484,-12.15,-12.8,208.45,208.29,0.0,0.08
1526668515.85271692,85773177,0.56,0.41,0.59,981.18182373,-11.87,-12.6,208.45,208.3,0.0,0.08
1526668515.95351005,85873970,0.51,0.48,0.57,848.760192871,-11.54,-12.4,208.45,208.32,0.0,0.07
1526668516.05346990,85973930,0.45,0.45,0.54,740.116577148,-11.22,-12.14,208.45,208.33,0.0,0.01
1526668516.15342999,86073890,0.39,0.42,0.5,658.774719238,-10.86,-11.86,208.45,208.3,0.0,0.01
1526668516.25339007,86173850,0.39,0.38,0.44,592.44342041,-10.48,-11.54,208.45,208.25,0.0,0.01
1526668516.35334992,86273810,0.39,0.32,0.4,540.038269043,-10.06,-11.13,208.45,208.23,0.0,0.0
1526668516.45331001,86373770,0.34,0.36,0.36,493.38470459,-9.63,-10.74,208.45,208.24,0.0,0.0
1526668516.55327010,86473730,0.32,0.38,0.32,453.243408203,-9.14,-10.37,208.45,208.23,0.0,0.0
1526668516.65322995,86573690,0.33,0.3,0.3,419.623535156,-8.48,-9.93,208.45,208.24,0.0,0.0
1526668516.75319004,86673650,0.36,0.19,0.28,392.157501221,-8.08,-9.39,208.45,208.26,0.0,0.0
1526668516.85315013,86773610,0.4,0.15,0.29,376.476867676,-7.77,-8.9,208.45,208.2,0.0,0.0
1526668516.95310998,86873570,0.44,0.13,0.32,371.099365234,-7.5,-8.44,208.45,208.16,0.0,0.0
1526668517.05307007,86973530,0.46,0.21,0.35,367.822937012,-7.25,-8.02,208.45,208.16,0.0,0.0
1526668517.15302992,87073490,0.5,0.29,0.39,355.513061523,-6.99,-7.66,208.45,208.15,0.0,0.0
1526668517.25299001,87173450,0.53,0.4,0.44,339.710021973,-6.75,-7.38,208.45,208.15,0.0,0.0
1526668517.35295010,87273410,0.52,0.51,0.48,323.001739502,-6.52,-7.14,208.45,208.18,0.0,0.0
1526668517.45290995,87373370,0.49,0.57,0.51,308.604278564,-6.23,-6.89,208.45,208.2,0.0,0.0
1526668517.55287004,87473330,0.44,0.59,0.51,296.406829834,-5.92,-6.65,208.45,208.26,0.0,0.0
1526668517.65283012,87573290,0.43,0.56,0.5,284.841339111,-5.56,-6.4,208.45,208.31,0.0,0.07
1526668517.75278997,87673250,0.44,0.54,0.49,273.990142822,-5.17,-6.07,208.45,208.35,0.0,0.08
1526668517.85275006,87773210,0.42,0.52,0.47,264.218475342,-4.76,-5.73,208.45,208.37,0.0,0.08
1526668517.95270991,87873170,0.39,0.48,0.44,11.9225702286,-4.3,-5.35,208.45,208.35,0.0,0.08
1526668518.05350304,87973963,0.39,0.45,0.42,10.8886194229,-3.78,-4.97,208.45,208.26,0.0,0.06
1526668518.15346313,88073923,0.38,0.46,0.39,18.3549671173,-3.24,-4.54,208.45,208.24,0.0,0.01
1526668518.25342298,88173883,0.41,0.38,0.38,16.3097076416,-2.67,-4.0,208.45,208.29,0.0,0.0
1526668518.35338306,88273843,0.51,0.32,0.38,16.9993801117,-1.23,-3.45,208.45,208.4,0.0,0.0
1526668518.45334291,88373803,0.48,0.11,0.4,71.1334609985,3.36,-2.54,208.45,208.52,0.0,0.0
1526668518.55330300,88473763,0.49,-0.46,0.42,655.014953613,8.55,-0.39,208.45,208.57,0.0,0.02
1526668518.65326309,88573723,0.59,-0.84,0.46,2403.0144043,10.17,2.69,208.45,208.55,0.0,0.03
1526668518.75322294,88673683,0.77,-0.72,0.52,4239.30859375,10.28,5.63,208.45,208.55,0.0,0.02
1526668518.85318303,88773643,0.98,-0.13,0.62,4945.62939453,9.56,7.78,208.45,208.57,0.0,0.01
1526668518.95314312,88873603,1.14,0.64,0.76,4679.14648438,8.3,8.9,208.45,208.59,0.0,0.0
1526668519.05310297,88973563,1.2,1.38,0.92,4310.87109375,6.73,9.02,208.45,208.62,0.0,0.01
1526668519.15306306,89073523,1.1,1.88,1.05,4330.00341797,5.02,8.39,208.45,208.63,0.0,0.02
1526668519.25302291,89173483,0.88,2.17,1.11,4692.60400391,3.35,7.27,208.45,208.54,0.0,0.02
1526668519.35298300,89273443,0.62,2.19,1.08,5218.61376953,1.86,5.88,208.45,208.42,0.0,0.02
1526668519.45294309,89373403,0.28,2.01,0.95,5647.94433594,0.61,4.41,208.45,208.31,0.0,0.02
1526668519.55290294,89473363,-0.03,1.69,0.73,5936.56884766,-0.39,2.93,208.45,208.28,0.0,0.02
1526668519.65286303,89573323,-0.28,1.29,0.44,6065.55126953,-1.15,1.62,208.45,208.32,0.0,0.02
1526668519.75282311,89673283,-0.49,0.87,0.12,6073.46875,-1.64,0.53,208.45,208.38,0.0,0.06
1526668519.85278296,89773243,-0.63,0.48,-0.17,6003.82666016,-1.92,-0.27,208.45,208.43,0.0,0.07
1526668519.95274305,89873203,-0.7,0.17,-0.44,5904.28710938,-2.05,-0.89,208.45,208.46,0.0,0.07
1526668520.05353594,89973996,-0.72,-0.12,-0.64,5780.52392578,-2.0,-1.38,208.45,208.47,0.0,0.06
1526668520.15349603,90073956,-0.67,-0.36,-0.77,5618.87060547,-1.9,-1.69,208.45,208.47,0.0,0.01
1526668520.25345612,90173916,-0.59,-0.54,-0.81,5425.27099609,-1.65,-1.86,208.45,208.47,0.0,0.01
1526668520.35341597,90273876,-0.47,-0.67,-0.78,5216.37890625,-1.37,-1.87,208.45,208.51,0.0,0.01
1526668520.45337605,90373836,-0.33,-0.74,-0.69,5009.10498047,-1.06,-1.77,208.45,208.56,0.0,0.01
1526668520.55333591,90473796,-0.16,-0.78,-0.54,533.254333496,-0.71,-1.53,208.45,208.6,0.0,0.01
1526668520.65329599,90573756,0.06,-0.72,-0.36,876.742919922,-0.34,-1.21,208.45,208.66,0.0,0.01
1526668520.75325608,90673716,0.26,-0.65,-0.14,1367.18945312,-0.03,-0.88,208.45,208.72,0.0,0.01
1526668520.85321593,90773676,0.44,-0.49,0.07,1889.02185059,0.24,-0.51,208.45,208.73,0.0,0.01
1526668520.95317602,90873636,0.59,-0.28,0.3,2237.57055664,0.44,-0.2,208.45,208.72,0.0,0.01
1526668521.05313611,90973596,0.7,-0.05,0.5,2442.96508789,0.47,0.13,208.45,208.68,0.0,0.01
1526668521.15309596,91073556,0.78,0.16,0.67,2521.20776367,0.48,0.38,208.45,208.65,0.0,0.01
1526668521.25305605,91173516,0.82,0.36,0.8,2492.77880859,0.43,0.53,208.45,208.54,0.0,0.01
1526668521.35301590,91273476,0.81,0.54,0.88,2381.44482422,0.35,0.62,208.45,208.44,0.0,0.01
1526668521.45297599,91373436,0.76,0.7,0.91,2200.94384766,0.27,0.6,208.45,208.42,0.0,0.01
1526668521.55293608,91473396,0.68,0.83,0.89,2003.13891602,0.19,0.58,208.45,208.45,0.0,0.01
1526668521.65289593,91573356,0.62,0.92,0.84,1823.28967285,0.11,0.53,208.45,208.47,0.0,0.01
1526668521.75285602,91673316,0.55,0.92,0.76,1684.046875,0.04,0.46,208.45,208.48,0.0,0.01
1526668521.85281610,91773276,0.44,0.92,0.66,1588.03942871,0.02,0.33,208.45,208.56,0.0,0.06
1526668521.95277596,91873236,0.32,0.85,0.55,1533.82946777,0.0,0.2,208.45,208.65,0.0,0.07
1526668522.05273604,91973196,0.21,0.75,0.42,1494.29455566,0.03,0.08,208.45,208.74,0.0,0.07
1526668522.15352893,92073989,0.12,0.65,0.3,1474.25585938,0.1,-0.01,208.45,208.77,0.0,0.05
1526668522.25348902,92173949,0.05,0.48,0.18,1447.97241211,0.16,-0.08,208.45,208.77,0.0,0.01
1526668522.35344911,92273909,0.02,0.3,0.09,1402.43054199,0.24,-0.13,208.45,208.8,0.0,0.01
1526668522.45340896,92373869,0.04,0.14,0.02,1341.99804688,0.33,-0.11,208.45,208.73,0.0,0.01
1526668522.55336905,92473829,0.05,0.05,-0.01,1278.73010254,0.43,0.0,208.45,208.61,0.0,0.01
1526668522.65332890,92573789,0.05,0.07,-0.02,1220.83178711,0.54,0.12,208.45,208.49,0.0,0.01
1526668522.75328898,92673749,0.05,0.06,-0.01,1168.94836426,0.63,0.22,208.45,208.35,0.0,0.01
1526668522.85324907,92773709,0.07,0.02,0.0,1119.26489258,0.69,0.38,208.45,208.27,0.0,0.01
1526668522.95320892,92873669,0.1,-0.05,0.03,1073.38208008,0.74,0.57,208.45,208.28,0.0,0.01
1526668523.05316901,92973629,0.17,-0.09,0.07,1037.76916504,0.7,0.77,208.45,208.26,0.0,0.01
1526668523.15312910,93073589,0.26,-0.07,0.13,409.58996582,0.64,0.85,208.45,208.29,0.0,0.01
1526668523.25308895,93173549,0.32,-0.01,0.19,426.484436035,0.54,0.86,208.45,208.31,0.0,0.01
1526668523.35304904,93273509,0.39,0.08,0.26,417.436187744,0.46,0.86,208.45,208.31,0.0,0.01
1526668523.45300913,93373469,0.47,0.2,0.34,371.040985107,0.42,0.84,208.45,208.31,0.0,0.01
1526668523.55296898,93473429,0.52,0.32,0.42,310.892211914,0.38,0.79,208.45,208.25,0.0,0.01
1526668523.65292907,93573389,0.51,0.38,0.48,267.470214844,0.34,0.71,208.45,208.11,0.0,0.01
1526668523.75288892,93673349,0.51,0.43,0.52,240.972229004,0.31,0.61,208.45,207.99,0.0,0.01
1526668523.85284901,93773309,0.53,0.46,0.55,218.644104004,0.3,0.53,208.45,207.86,0.0,0.01
