timestamp,TimeUS,DesR,R,IR,IRErr,DesP,P,DesY,Y,ErrRP,ErrYaw
1526668579.36897588,29371580,0.0,1.05,0.0,9648.41699219,0.0,0.43,353.23,353.23,0.0,0.0
1526668579.46893597,29471540,0.0,1.08,0.0,9768.70507812,0.0,0.43,353.17,353.17,0.0,0.0
1526668579.56889606,29571500,0.0,1.11,0.0,9913.59375,0.0,0.42,353.12,353.12,0.0,0.0
1526668579.66885591,29671460,0.0,1.14,0.0,10086.8330078,0.0,0.41,353.07,353.07,0.0,0.0
1526668579.76881599,29771420,0.0,1.17,0.0,10285.7480469,0.0,0.41,353.0,353.0,0.0,0.0
1526668579.86877608,29871380,0.0,1.2,0.0,10494.8115234,0.0,0.42,352.91,352.91,0.0,0.0
1526668579.96873593,29971340,0.0,1.22,0.0,10711.4697266,0.0,0.43,352.83,352.83,0.0,0.0
1526668580.06869602,30071300,0.0,1.23,0.0,10926.5273438,0.0,0.44,352.74,352.74,0.0,0.0
1526668580.16865611,30171260,0.0,1.26,0.0,11140.8144531,0.0,0.44,352.65,352.65,0.0,0.0
1526668580.26861596,30271220,0.0,1.28,0.0,11366.703125,0.0,0.43,352.57,352.57,0.0,0.0
1526668580.36857605,30371180,0.0,1.29,0.0,11594.0654297,0.0,0.42,352.51,352.51,0.0,0.0
1526668580.46853590,30471140,0.0,1.28,0.0,11798.4648438,0.0,0.4,352.44,352.44,0.0,0.0
1526668580.56849599,30571100,0.0,1.29,0.0,11982.9140625,0.0,0.38,352.38,352.38,0.0,0.0
1526668580.66845608,30671060,0.0,1.3,0.0,12169.0439453,0.0,0.37,352.32,352.32,0.0,0.0
1526668580.76841593,30771020,0.0,1.31,0.0,17141.4257812,0.0,0.37,352.28,352.28,0.0,0.0
1526668580.86837602,30870980,0.0,1.32,0.0,17226.8242188,0.0,0.37,352.25,352.25,0.0,0.0
1526668580.96833611,30970940,0.0,1.32,0.0,17292.5507812,0.0,0.38,352.25,352.25,0.0,0.0
1526668581.06829596,31070900,0.0,1.33,0.0,17353.5683594,0.0,0.41,352.25,352.25,0.0,0.0
1526668581.16825604,31170860,0.0,1.33,0.0,17420.6542969,0.0,0.42,352.25,352.25,0.0,0.0
1526668581.26821589,31270820,0.0,1.35,0.0,17515.5175781,0.0,0.41,352.26,352.26,0.0,0.0
1526668581.36817598,31370780,0.0,1.35,0.0,17616.8710938,0.0,0.42,352.28,352.28,0.0,0.07
1526668581.46896911,31471573,0.0,1.35,0.0,17692.8867188,0.0,0.41,352.35,352.35,0.0,0.08
1526668581.56892896,31571533,0.0,1.34,0.0,17747.5273438,0.0,0.38,352.43,352.43,0.0,0.0
1526668581.66888905,31671493,0.0,1.33,0.0,17751.6875,0.0,0.35,352.51,352.51,0.0,0.0
1526668581.76884890,31771453,0.0,1.32,0.0,17723.7050781,0.0,0.32,352.59,352.59,0.0,0.0
1526668581.86880898,31871413,0.0,1.28,0.0,17660.5664062,0.0,0.32,352.67,352.67,0.0,0.0
1526668581.96876907,31971373,0.0,1.23,0.0,17520.078125,0.0,0.33,352.77,352.77,0.0,0.0
1526668582.06872892,32071333,0.0,1.19,0.0,17309.3945312,0.0,0.33,352.86,352.86,0.0,0.0
1526668582.16868901,32171293,0.0,1.18,0.0,17084.4921875,0.0,0.34,352.95,352.95,0.0,0.0
1526668582.26864910,32271253,0.0,1.17,0.0,16882.921875,0.0,0.33,353.07,353.07,0.0,0.0
1526668582.36860895,32371213,0.0,1.15,0.0,16685.8007812,0.0,0.34,353.2,353.2,0.0,0.0
1526668582.46856904,32471173,0.0,1.13,0.0,16482.4257812,0.0,0.31,353.33,353.33,0.0,0.0
1526668582.56852889,32571133,0.0,1.13,0.0,16286.9814453,0.0,0.3,353.46,353.46,0.0,0.0
1526668582.66848898,32671093,0.0,1.13,0.0,16111.0820312,0.0,0.28,353.56,353.56,0.0,0.0
1526668582.76844907,32771053,0.0,1.14,0.0,15954.3681641,0.0,0.27,353.67,353.67,0.0,0.0
1526668582.86840892,32871013,0.0,1.16,0.0,15827.984375,0.0,0.27,353.79,353.79,0.0,0.0
1526668582.96836901,32970973,0.0,1.2,0.0,15747.0644531,0.0,0.25,353.9,353.9,0.0,0.0
1526668583.06832910,33070933,0.0,1.22,0.0,15700.7480469,0.0,0.24,354.02,354.02,0.0,0.0
1526668583.16828895,33170893,0.0,1.23,0.0,15672.7333984,0.0,0.22,354.11,354.11,0.0,0.0
1526668583.26824903,33270853,0.0,1.23,0.0,15651.8203125,0.0,0.2,354.19,354.19,0.0,0.0
1526668583.36820889,33370813,0.0,1.23,0.0,15320.4248047,0.0,0.21,354.29,354.29,0.0,0.0
1526668583.46816897,33470773,0.0,1.23,0.0,15224.7128906,0.0,0.2,354.42,354.42,0.0,0.07
1526668583.56896210,33571566,0.0,1.21,0.0,15119.4746094,0.0,0.19,354.56,354.56,0.0,0.08
1526668583.66892195,33671526,0.0,1.18,0.0,14902.4501953,0.0,0.16,354.7,354.7,0.0,0.0
1526668583.76888204,33771486,0.0,1.16,0.0,14644.625,0.0,0.13,354.85,354.85,0.0,0.0
1526668583.86884189,33871446,0.0,1.15,0.0,14416.6835938,0.0,0.11,354.99,354.99,0.0,0.0
1526668583.96880198,33971406,0.0,1.15,0.0,14246.4423828,0.0,0.07,355.14,355.14,0.0,0.0
1526668584.06876206,34071366,0.0,1.13,0.0,14092.3466797,0.0,0.02,355.28,355.28,0.0,0.0
1526668584.16872191,34171326,0.0,1.09,0.0,13898.203125,0.0,-0.03,355.4,355.4,0.0,0.0
1526668584.26868200,34271286,-0.11,0.85,0.0,13494.6591797,-0.06,-0.14,355.42,355.53,0.0,0.0
1526668584.36864209,34371246,-0.25,0.52,-0.03,12711.0810547,-0.04,-0.23,355.42,355.61,0.0,0.0
1526668584.46860194,34471206,-0.31,0.25,-0.1,11822.3847656,-0.02,-0.25,355.42,355.64,0.0,0.0
1526668584.56856203,34571166,-0.36,0.05,-0.18,10977.8554688,0.0,-0.26,355.42,355.62,0.0,0.0
1526668584.66852188,34671126,-0.36,-0.08,-0.25,10223.5292969,0.01,-0.24,355.42,355.57,0.0,0.0
1526668584.76848197,34771086,-0.36,-0.2,-0.31,9557.24121094,0.02,-0.22,355.42,355.5,0.0,0.0
1526668584.86844206,34871046,-0.32,-0.29,-0.35,8964.859375,0.05,-0.2,355.42,355.4,0.0,0.0
1526668584.96840191,34971006,-0.29,-0.33,-0.37,8439.18066406,0.07,-0.17,355.42,355.28,0.0,0.0
1526668585.06836200,35070966,-0.25,-0.36,-0.36,7970.85205078,0.11,-0.12,355.42,355.16,0.0,0.0
1526668585.16832209,35170926,-0.23,-0.41,-0.33,7552.25537109,0.14,-0.06,355.42,355.07,0.0,0.0
1526668585.26828194,35270886,-0.15,-0.39,-0.29,7178.27978516,0.16,0.0,355.42,354.95,0.0,0.0
1526668585.36824203,35370846,-0.09,-0.39,-0.23,6844.88134766,0.13,0.1,355.42,354.89,0.0,0.0
1526668585.46820188,35470806,0.0,-0.38,-0.16,6549.67919922,0.12,0.2,355.42,354.95,0.0,0.0
1526668585.56899500,35571599,0.04,-0.31,-0.09,6286.6171875,0.1,0.3,355.42,355.08,0.0,0.07
1526668585.66895509,35671559,0.14,-0.19,-0.01,6040.31445312,0.05,0.39,355.42,355.29,0.0,0.01
1526668585.76891494,35771519,0.21,-0.01,0.06,5805.57861328,-0.06,0.46,355.42,355.5,0.0,0.0
1526668585.86887503,35871479,0.27,0.13,0.14,5583.16259766,-0.19,0.44,355.42,355.68,0.0,0.0
1526668585.96883488,35971439,0.27,0.26,0.21,7.62520742416,-0.31,0.36,355.42,355.81,0.0,0.0
1526668586.06879497,36071399,0.27,0.42,0.26,59.5858764648,-0.42,0.19,355.42,355.92,0.0,0.0
1526668586.16875505,36171359,0.17,0.5,0.28,157.483001709,-0.46,-0.01,355.42,355.98,0.0,0.0
1526668586.26871490,36271319,0.05,0.52,0.26,268.44909668,-0.46,-0.25,355.42,355.98,0.0,0.0
1526668586.36867499,36371279,-0.06,0.45,0.2,352.451965332,-0.41,-0.49,355.42,355.92,0.0,0.0
1526668586.46863508,36471239,-0.17,0.26,0.1,365.418548584,-0.35,-0.62,355.42,355.82,0.0,0.0
1526668586.56859493,36571199,-0.24,0.05,0.0,325.757324219,-0.22,-0.6,355.42,355.67,0.0,0.0
1526668586.66855502,36671159,-0.27,-0.1,-0.11,287.35357666,-0.08,-0.59,355.42,355.52,0.0,0.0
1526668586.76851511,36771119,-0.29,-0.3,-0.21,258.051239014,0.05,-0.56,355.42,355.36,0.0,0.0
1526668586.86847496,36871079,-0.2,-0.47,-0.28,253.03527832,0.18,-0.43,355.42,355.21,0.0,0.0
1526668586.96843505,36971039,-0.09,-0.55,-0.29,274.152526855,0.29,-0.25,356.78,356.48,0.0,0.0
1526668587.06839490,37070999,0.02,-0.55,-0.26,317.182739258,0.37,0.0,356.78,356.42,0.0,0.0
1526668587.16835499,37170959,0.15,-0.45,-0.17,349.897460938,0.45,0.2,356.78,356.33,0.0,0.0
1526668587.26831508,37270919,0.26,-0.36,-0.05,382.537811279,0.48,0.39,356.78,356.32,0.0,0.0
1526668587.36827493,37370879,0.35,-0.24,0.07,425.485595703,0.44,0.54,356.78,356.35,0.0,0.0
1526668587.46823502,37470839,0.4,-0.01,0.21,445.365722656,0.35,0.69,356.78,356.35,0.0,0.0
1526668587.56819510,37570799,0.45,0.14,0.33,446.206512451,0.22,0.72,356.78,356.42,0.0,0.0
1526668587.66898799,37671592,0.46,0.28,0.42,436.388275146,0.08,0.63,356.78,356.5,0.0,0.07
1526668587.76894808,37771552,0.41,0.39,0.48,421.628875732,0.0,0.54,356.78,356.61,0.0,0.0
1526668587.86890793,37871512,0.33,0.49,0.49,402.309875488,-0.07,0.39,356.78,356.72,0.0,0.0
1526668587.96886802,37971472,0.21,0.59,0.45,385.746551514,-0.12,0.18,356.78,356.77,0.0,0.0
1526668588.06882811,38071432,0.09,0.59,0.37,380.898925781,-0.15,-0.02,356.78,356.77,0.0,0.0
1526668588.16878796,38171392,-0.02,0.54,0.26,392.527709961,-0.14,-0.21,356.78,356.72,0.0,0.0
1526668588.26874804,38271352,-0.14,0.41,0.13,408.290710449,-0.09,-0.38,356.78,356.79,0.0,0.0
1526668588.36870790,38371312,-0.25,0.25,0.0,421.170501709,-0.02,-0.47,356.78,356.85,0.0,0.0
1526668588.46866798,38471272,-0.33,-0.04,-0.14,419.01171875,0.13,-0.43,356.78,356.91,0.0,0.0
1526668588.56862807,38571232,-0.36,-0.29,-0.26,20.8173408508,0.28,-0.26,356.78,357.03,0.0,0.0
1526668588.66858792,38671192,-0.34,-0.42,-0.35,21.446680069,0.38,-0.11,356.77,357.11,0.0,0.0
1526668588.76854801,38771152,-0.28,-0.5,-0.39,40.5390167236,0.41,0.02,356.77,357.25,0.0,0.0
1526668588.86850810,38871112,-0.15,-0.49,-0.38,54.2641296387,0.45,0.12,356.77,357.29,0.0,0.0
1526668588.96846795,38971072,-0.06,-0.51,-0.33,83.5042572021,0.48,0.22,356.77,357.33,0.0,0.0
1526668589.06842804,39071032,0.02,-0.49,-0.23,150.388641357,0.5,0.35,356.77,357.34,0.0,0.0
1526668589.16838789,39170992,0.12,-0.41,-0.12,237.275924683,0.45,0.51,356.77,357.4,0.0,0.0
1526668589.26834798,39270952,0.23,-0.24,0.0,295.097900391,0.37,0.6,356.77,357.4,0.0,0.0
1526668589.36830807,39370912,0.32,-0.03,0.12,309.43560791,0.29,0.68,356.77,357.34,0.0,0.0
1526668589.46826792,39470872,0.38,0.22,0.24,289.910064697,0.19,0.71,356.77,357.24,0.0,0.0
1526668589.56822801,39570832,0.34,0.44,0.33,266.273834229,0.06,0.61,356.77,357.13,0.0,0.0
1526668589.66818810,39670792,0.23,0.61,0.38,268.343536377,-0.08,0.42,356.77,356.98,0.0,0.07
1526668589.76898098,39771585,0.09,0.67,0.36,305.277557373,-0.2,0.2,356.77,356.88,0.0,0.08
1526668589.86894107,39871545,-0.05,0.63,0.29,356.915649414,-0.31,0.01,356.77,356.77,0.0,0.0
1526668589.96890092,39971505,-0.23,0.54,0.17,414.988769531,-0.36,-0.17,356.77,356.7,0.0,0.0
1526668590.06886101,40071465,-0.39,0.34,0.01,466.906890869,-0.34,-0.4,356.77,356.58,0.0,0.0
1526668590.16882110,40171425,-0.5,0.08,-0.16,485.527160645,-0.28,-0.52,356.77,356.51,0.0,0.0
1526668590.26878095,40271385,-0.58,-0.16,-0.33,481.284454346,-0.19,-0.52,356.77,356.55,0.0,0.0
1526668590.36874104,40371345,-0.63,-0.35,-0.49,468.492095947,-0.1,-0.5,356.77,356.61,0.0,0.0
1526668590.46870089,40471305,-0.59,-0.5,-0.6,451.290313721,0.0,-0.48,356.77,356.62,0.0,0.0
1526668590.56866097,40571265,-0.48,-0.6,-0.65,432.943481445,0.12,-0.4,356.77,356.61,0.0,0.0
1526668590.66862106,40671225,-0.38,-0.68,-0.64,413.70425415,0.25,-0.26,356.77,356.6,0.0,0.0
1526668590.76858091,40771185,-0.26,-0.7,-0.58,398.768707275,0.34,-0.05,356.77,356.6,0.0,0.0
1526668590.86854100,40871145,-0.12,-0.68,-0.47,393.758575439,0.38,0.14,356.77,356.6,0.0,0.0
1526668590.96850109,40971105,0.05,-0.63,-0.32,405.454101562,0.38,0.34,356.77,356.6,0.0,0.0
1526668591.06846094,41071065,0.22,-0.45,-0.14,428.508117676,0.34,0.52,356.77,356.55,0.0,0.0
1526668591.16842103,41171025,0.38,-0.22,0.03,782.461181641,0.27,0.62,356.77,356.53,0.0,0.0
1526668591.26838088,41270985,0.49,0.05,0.22,616.572387695,0.17,0.68,356.77,356.53,0.0,0.0
1526668591.36834097,41370945,0.52,0.34,0.38,459.548492432,0.06,0.69,356.77,356.53,0.0,0.0
1526668591.46830106,41470905,0.49,0.59,0.5,348.497253418,-0.04,0.55,356.77,356.48,0.0,0.0
1526668591.56826091,41570865,0.33,0.77,0.55,329.535308838,-0.17,0.34,356.77,356.44,0.0,0.0
1526668591.66822100,41670825,0.13,0.77,0.52,364.719604492,-0.28,0.07,356.77,356.41,0.0,0.0
1526668591.76818109,41770785,-0.06,0.68,0.42,404.647949219,-0.32,-0.17,356.77,356.33,0.0,0.07
1526668591.86897397,41871578,-0.24,0.55,0.25,452.361083984,-0.29,-0.4,356.77,356.24,0.0,0.08
1526668591.96893406,41971538,-0.35,0.33,0.05,496.186676025,-0.18,-0.58,356.77,356.22,0.0,0.01
1526668592.06889391,42071498,-0.43,0.03,-0.14,499.291900635,-0.06,-0.63,356.77,356.25,0.0,0.0
1526668592.16885400,42171458,-0.46,-0.25,-0.31,468.76751709,0.08,-0.56,356.77,356.34,0.0,0.0
1526668592.26881409,42271418,-0.45,-0.45,-0.45,431.348632812,0.21,-0.37,356.77,356.44,0.0,0.0
1526668592.36877394,42371378,-0.38,-0.64,-0.52,401.675262451,0.31,-0.17,356.77,356.51,0.0,0.0
1526668592.46873403,42471338,-0.27,-0.69,-0.53,386.132232666,0.38,0.05,356.77,356.58,0.0,0.0
1526668592.56869388,42571298,-0.14,-0.65,-0.48,377.348419189,0.41,0.29,356.77,356.58,0.0,0.0
1526668592.66865396,42671258,0.01,-0.53,-0.38,369.19329834,0.41,0.49,356.77,356.59,0.0,0.0
1526668592.76861405,42771218,0.16,-0.38,-0.23,358.794158936,0.39,0.61,356.77,356.59,0.0,0.0
1526668592.86857390,42871178,0.32,-0.21,-0.06,349.579589844,0.31,0.67,356.77,356.62,0.0,0.0
1526668592.96853399,42971138,0.43,-0.06,0.11,344.390594482,0.19,0.59,356.77,356.72,0.0,0.0
1526668593.06849408,43071098,0.48,0.06,0.28,348.171325684,0.09,0.52,356.77,356.81,0.0,0.0
1526668593.16845393,43171058,0.52,0.19,0.42,358.885925293,0.0,0.48,356.77,356.81,0.0,0.0
1526668593.26841402,43271018,0.52,0.28,0.53,369.612579346,-0.1,0.41,356.77,356.72,0.0,0.0
1526668593.36837411,43370978,0.46,0.42,0.58,373.382751465,-0.19,0.34,356.77,356.6,0.0,0.0
1526668593.46833396,43470938,0.42,0.57,0.58,361.686004639,-0.24,0.19,356.77,356.51,0.0,0.0
1526668593.56829405,43570898,0.35,0.63,0.55,347.845581055,-0.31,0.01,356.77,356.5,0.0,0.0
1526668593.66825390,43670858,0.3,0.65,0.49,339.729797363,-0.34,-0.17,356.77,356.53,0.0,0.0
1526668593.76821399,43770818,0.22,0.61,0.41,341.597473145,-0.31,-0.35,356.77,356.63,0.0,0.0
1526668593.86817408,43870778,0.09,0.5,0.31,362.429504395,-0.27,-0.5,356.77,356.84,0.0,0.07
1526668593.96896696,43971571,-0.33,0.28,0.18,307.640319824,-0.01,-0.53,238.78,356.89,0.0,0.08
1526668594.06892705,44071531,-1.01,-0.01,-0.05,241.52897644,0.42,-0.5,238.78,356.14,0.0,0.02
1526668594.16888690,44171491,-1.51,-0.49,-0.42,196.009506226,0.71,-0.39,238.78,354.55,0.0,0.02
1526668594.26884699,44271451,-1.95,-0.98,-0.86,178.752593994,0.95,-0.17,238.78,352.34,0.0,0.03
1526668594.36880708,44371411,-2.38,-1.48,-1.34,176.955047607,1.19,0.07,238.78,349.73,0.0,0.04
1526668594.46876693,44471371,-2.84,-2.01,-1.85,182.015029907,1.33,0.33,238.78,346.75,0.0,0.04
1526668594.56872702,44571331,-3.31,-2.53,-2.35,192.746490479,1.37,0.61,238.78,343.49,0.0,0.05
1526668594.66868711,44671291,-3.8,-2.96,-2.85,193.217422485,1.3,0.83,238.78,339.99,0.0,0.05
1526668594.76864696,44771251,-4.31,-3.38,-3.35,179.91293335,1.12,0.91,238.78,336.32,0.0,0.05
1526668594.86860704,44871211,-4.8,-3.76,-3.85,166.924987793,0.82,0.87,238.78,332.57,0.0,0.05
1526668594.96856689,44971171,-5.25,-4.14,-4.33,170.704940796,0.41,0.75,238.78,328.77,0.0,0.05
1526668595.06852698,45071131,-5.65,-4.49,-4.79,204.547927856,-0.08,0.58,238.78,324.84,0.0,0.05
1526668595.16848707,45171091,-6.01,-4.84,-5.22,275.497131348,-0.62,0.29,238.78,320.88,0.0,0.05
1526668595.26844692,45271051,-6.37,-5.16,-5.62,372.570983887,-1.26,-0.13,238.78,316.89,0.0,0.06
1526668595.36840701,45371011,-6.67,-5.45,-5.99,501.728851318,-1.96,-0.66,238.78,312.89,0.0,0.06
1526668595.46836710,45470971,-6.84,-5.77,-6.31,642.188171387,-2.56,-1.26,238.78,308.85,0.0,0.06
1526668595.56832695,45570931,-6.97,-6.07,-6.58,760.40032959,-3.29,-1.87,238.78,304.89,0.0,0.06
1526668595.66828704,45670891,-6.97,-6.32,-6.77,842.074401855,-4.06,-2.49,238.78,300.87,0.0,0.06
1526668595.76824689,45770851,-6.66,-6.44,-6.86,894.324462891,-4.75,-3.12,238.78,296.83,0.0,0.06
1526668595.86820698,45870811,-6.19,-6.44,-6.78,924.564208984,-5.32,-3.76,238.78,292.84,0.0,0.05
1526668595.96900010,45971604,-5.67,-6.29,-6.54,923.221984863,-5.81,-4.32,238.78,288.85,0.0,0.05
1526668596.06895995,46071564,-5.13,-6.01,-6.15,900.607116699,-6.24,-4.79,238.78,284.97,0.0,0.04
1526668596.16892004,46171524,-4.63,-5.65,-5.66,867.752075195,-6.6,-5.26,238.78,281.13,0.0,0.04
1526668596.26887989,46271484,-4.07,-5.26,-5.11,836.734436035,-6.94,-5.65,238.78,277.23,0.0,0.04
1526668596.36883998,46371444,-3.54,-4.82,-4.52,538.456970215,-7.28,-6.0,238.78,273.36,0.0,0.04
1526668596.46880007,46471404,-3.09,-4.33,-3.93,877.64666748,-7.75,-6.31,238.78,269.47,0.0,0.04
1526668596.56875992,46571364,-2.72,-3.8,-3.38,1137.89807129,-8.41,-6.75,238.78,265.58,0.0,0.04
1526668596.66872001,46671324,-2.31,-3.19,-2.9,1166.26586914,-9.06,-7.31,238.78,261.69,0.0,0.04
1526668596.76868010,46771284,-1.71,-2.58,-2.44,1016.17889404,-9.36,-7.97,238.78,257.72,0.0,0.05
1526668596.86863995,46871244,-1.05,-2.01,-1.97,859.387390137,-9.49,-8.54,238.78,253.71,0.0,0.05
1526668596.96860003,46971204,-0.39,-1.48,-1.47,736.81237793,-9.54,-9.03,238.78,249.67,0.0,0.05
1526668597.06855989,47071164,0.24,-1.01,-0.94,646.860534668,-9.53,-9.32,238.78,245.68,0.0,0.04
1526668597.16851997,47171124,0.99,-0.53,-0.36,588.890808105,-7.6,-9.27,238.78,241.86,0.0,0.03
1526668597.26848006,47271084,1.43,-0.09,0.23,592.734008789,-6.44,-8.6,238.78,238.58,0.0,0.01
1526668597.36843991,47371044,1.69,0.41,0.77,652.350769043,-5.87,-7.67,238.78,236.14,0.0,0.0
1526668597.46840000,47471004,1.83,0.89,1.23,711.173461914,-5.6,-6.76,238.78,234.56,0.0,0.01
1526668597.56836009,47570964,1.89,1.32,1.56,720.974853516,-5.52,-6.11,238.78,233.82,0.0,0.02
1526668597.66831994,47670924,1.84,1.65,1.76,693.818725586,-5.57,-5.7,238.78,233.83,0.0,0.02
1526668597.76828003,47770884,1.66,1.87,1.82,649.544006348,-5.7,-5.49,238.78,234.37,0.0,0.02
1526668597.86823988,47870844,1.38,1.98,1.75,622.760253906,-5.88,-5.49,238.78,235.21,0.0,0.02
1526668597.96819997,47970804,1.03,1.97,1.55,648.552490234,-6.13,-5.57,238.78,236.22,0.0,0.03
1526668598.06899309,48071597,0.65,1.83,1.24,757.078063965,-6.4,-5.84,238.78,237.24,0.0,0.1
1526668598.16895294,48171557,0.28,1.53,0.87,926.076660156,-6.56,-6.19,238.78,238.18,0.0,0.02
1526668598.26891303,48271517,-0.07,1.11,0.45,1094.57666016,-6.67,-6.52,238.78,239.01,0.0,0.02
1526668598.36887288,48371477,-0.36,0.63,0.03,1231.84130859,-6.8,-6.81,238.78,239.61,0.0,0.02
1526668598.46883297,48471437,-0.59,0.16,-0.35,1310.70922852,-6.88,-6.97,238.78,239.98,0.0,0.01
1526668598.56879306,48571397,-0.74,-0.24,-0.68,1356.28735352,-6.96,-7.03,238.78,240.11,0.0,0.01
1526668598.66875291,48671357,-0.79,-0.62,-0.92,1359.31567383,-7.03,-7.02,238.78,240.08,0.0,0.01
1526668598.76871300,48771317,-0.79,-0.88,-1.08,1328.98144531,-7.1,-6.98,238.78,239.95,0.0,0.01
1526668598.86867309,48871277,-0.72,-0.95,-1.14,1291.19641113,-7.15,-6.92,238.78,239.71,0.0,0.01
1526668598.96863294,48971237,-0.6,-0.91,-1.11,409.484039307,-7.18,-6.89,238.78,239.44,0.0,0.0
1526668599.06859303,49071197,-0.48,-0.81,-1.01,424.71697998,-7.29,-6.86,238.78,239.18,0.0,0.0
1526668599.16855288,49171157,-0.36,-0.68,-0.85,411.139129639,-7.34,-6.88,238.78,238.9,0.0,0.0
1526668599.26851296,49271117,-0.26,-0.57,-0.68,366.859619141,-7.45,-6.94,238.78,238.57,0.0,0.0
1526668599.36847305,49371077,-0.16,-0.44,-0.5,307.810668945,-7.53,-7.02,238.78,238.27,0.0,0.0
1526668599.46843290,49471037,-0.09,-0.29,-0.33,260.359008789,-7.58,-7.12,238.78,238.06,0.0,0.0
1526668599.56839299,49570997,-0.01,-0.15,-0.18,225.362045288,-7.63,-7.22,238.78,237.92,0.0,0.0
1526668599.66835308,49670957,0.02,-0.09,-0.07,197.517959595,-7.69,-7.33,238.78,237.81,0.0,0.0
1526668599.76831293,49770917,0.08,-0.07,0.01,178.621627808,-7.71,-7.42,238.78,237.75,0.0,0.0
1526668599.86827302,49870877,0.08,-0.01,0.07,168.544235229,-7.73,-7.48,238.78,237.78,0.0,0.0
1526668599.96823311,49970837,0.07,0.06,0.09,157.23059082,-7.76,-7.52,238.78,237.84,0.0,0.0
1526668600.06819296,50070797,0.02,0.09,0.09,144.332473755,-7.79,-7.56,238.78,238.01,0.0,0.0
1526668600.16898608,50171590,-0.02,0.1,0.06,133.81401062,-7.79,-7.58,238.78,238.21,0.0,0.08
1526668600.26894593,50271550,-0.1,0.07,0.01,125.678878784,-7.77,-7.6,238.78,238.45,0.0,0.01
1526668600.36890602,50371510,-0.18,0.04,-0.05,121.152137756,-7.79,-7.62,238.78,238.67,0.0,0.01
1526668600.46886611,50471470,-0.26,0.04,-0.14,126.115310669,-7.86,-7.69,238.78,238.84,0.0,0.0
1526668600.56882596,50571430,-0.29,0.05,-0.22,150.906173706,-7.92,-7.82,238.78,238.87,0.0,0.0
1526668600.66878605,50671390,-0.34,0.01,-0.3,190.149658203,-7.91,-7.95,238.78,238.9,0.0,0.0
1526668600.76874590,50771350,-0.43,-0.08,-0.37,228.887374878,-7.9,-8.05,238.78,238.97,0.0,0.0
1526668600.86870599,50871310,-0.48,-0.24,-0.44,246.530822754,-7.85,-8.1,238.78,239.06,0.0,0.0
1526668600.96866608,50971270,-0.49,-0.35,-0.49,247.631011963,-7.83,-8.1,238.78,239.08,0.0,0.0
1526668601.06862593,51071230,-0.49,-0.45,-0.53,243.467330933,-7.86,-8.06,238.78,239.02,0.0,0.0
1526668601.16858602,51171190,-0.41,-0.6,-0.54,233.646438599,-7.93,-8.07,238.78,238.95,0.0,0.0
1526668601.26854610,51271150,-0.34,-0.67,-0.52,228.257263184,-7.9,-8.02,238.78,238.92,0.0,0.0
1526668601.36850595,51371110,-0.23,-0.71,-0.47,234.122299194,-7.94,-7.91,238.78,238.96,0.0,0.0
1526668601.46846604,51471070,-0.13,-0.62,-0.39,246.778762817,-7.93,-7.81,238.78,239.02,0.0,0.0
1526668601.56842589,51571030,-0.04,-0.49,-0.3,382.919219971,-7.71,-7.8,238.78,239.09,0.0,0.0
1526668601.66838598,51670990,0.02,-0.4,-0.19,377.34954834,-7.16,-7.8,238.78,239.1,0.0,0.0
1526668601.76834607,51770950,0.09,-0.38,-0.09,454.219909668,-6.51,-7.66,238.78,239.07,0.0,0.0
1526668601.86830592,51870910,0.13,-0.37,0.0,616.955810547,-5.76,-7.36,238.78,239.11,0.0,0.01
1526668601.96826601,51970870,0.17,-0.37,0.07,833.600158691,-4.91,-6.87,238.78,239.14,0.0,0.01
1526668602.06822610,52070830,0.21,-0.39,0.14,1099.85131836,-3.99,-6.23,238.78,239.15,0.0,0.01
1526668602.16818595,52170790,0.26,-0.39,0.19,1397.78039551,-3.0,-5.47,238.78,239.13,0.0,0.09
1526668602.26897907,52271583,0.31,-0.38,0.23,1675.15893555,-2.03,-4.59,238.78,239.09,0.0,0.09
1526668602.36893892,52371543,0.7,-0.31,0.27,1908.95361328,-1.93,-3.61,250.08,239.07,0.0,0.03
1526668602.46889901,52471503,1.95,0.26,0.5,1925.36169434,-5.59,-2.94,250.08,239.75,0.0,0.02
1526668602.56885910,52571463,2.41,1.29,0.95,1778.53161621,-7.83,-3.37,250.08,241.17,0.0,0.0
1526668602.66881895,52671423,2.31,2.23,1.44,1929.30993652,-9.48,-4.69,250.08,243.08,0.0,0.01
1526668602.76877904,52771383,1.85,2.72,1.82,2363.13891602,-10.76,-6.45,250.08,245.24,0.0,0.02
1526668602.86873889,52871343,1.12,2.65,1.97,2655.5144043,-11.76,-8.23,250.08,247.46,0.0,0.02
1526668602.96869898,52971303,0.34,2.13,1.83,2642.92382812,-12.5,-9.77,250.08,249.42,0.0,0.02
1526668603.06865907,53071263,-0.4,1.37,1.41,2494.11645508,-13.01,-11.06,250.08,250.98,0.0,0.02
1526668603.16861892,53171223,-1.03,0.5,0.79,2371.93408203,-13.37,-12.02,250.08,252.1,0.0,0.01
1526668603.26857901,53271183,-1.45,-0.28,0.06,2302.98535156,-13.64,-12.69,250.08,252.74,0.0,0.01
1526668603.36853909,53371143,-1.65,-0.95,-0.65,2238.37329102,-13.85,-13.21,250.08,252.98,0.0,0.01
1526668603.46849895,53471103,-1.66,-1.41,-1.26,2153.65795898,-14.04,-13.59,250.08,252.81,0.0,0.02
1526668603.56845903,53571063,-1.5,-1.67,-1.68,2054.38671875,-14.21,-13.85,250.08,252.34,0.0,0.02
1526668603.66841888,53671023,-1.25,-1.77,-1.89,1964.51013184,-14.39,-14.04,250.08,251.72,0.0,0.02
1526668603.76837897,53770983,-0.99,-1.7,-1.88,1889.52258301,-14.54,-14.17,250.08,251.0,0.0,0.02
1526668603.86833906,53870943,-0.65,-1.45,-1.68,1830.07641602,-14.78,-14.21,250.08,250.32,0.0,0.02
1526668603.96829891,53970903,-0.27,-1.06,-1.33,1784.69055176,-14.97,-14.31,250.08,249.74,0.0,0.02
1526668604.06825900,54070863,0.0,-0.68,-0.9,1742.14697266,-14.97,-14.45,250.08,249.37,0.0,0.01
1526668604.16821909,54170823,0.18,-0.38,-0.45,281.298522949,-14.96,-14.58,250.08,249.18,0.0,0.01
1526668604.26817894,54270783,0.27,-0.2,-0.05,166.821456909,-14.93,-14.72,250.08,249.19,0.0,0.06
1526668604.36897206,54371576,0.3,-0.09,0.25,329.523956299,-14.92,-14.81,250.08,249.33,0.0,0.06
1526668604.46893191,54471536,0.3,0.02,0.46,643.453674316,-14.92,-14.84,250.08,249.51,0.0,0.01
1526668604.56889200,54571496,0.29,0.09,0.56,945.86541748,-14.57,-14.9,250.08,249.73,0.0,0.01
1526668604.66885209,54671456,0.27,-0.06,0.59,1289.19909668,-10.87,-14.53,250.08,249.98,0.0,0.0
1526668604.76881194,54771416,0.29,-0.36,0.55,2015.50183105,-9.36,-13.41,250.08,250.22,0.0,0.02
1526668604.86877203,54871376,0.34,-0.49,0.49,2936.47631836,-8.7,-12.02,250.08,250.42,0.0,0.03
1526668604.96873188,54971336,0.43,-0.37,0.43,3525.23779297,-8.4,-10.78,250.08,250.5,0.0,0.02
1526668605.06869197,55071296,0.51,-0.17,0.4,3644.75878906,-8.28,-9.84,250.08,250.53,0.0,0.01
1526668605.16865206,55171256,0.54,0.04,0.4,3508.18798828,-8.48,-9.23,250.08,250.52,0.0,0.0
1526668605.26861191,55271216,0.56,0.2,0.41,3281.20556641,-8.81,-8.86,250.08,250.45,0.0,0.0
1526668605.36857200,55371176,0.57,0.46,0.43,3041.51318359,-9.12,-8.68,250.08,250.39,0.0,0.0
1526668605.46853209,55471136,0.58,0.75,0.47,2847.33764648,-9.4,-8.84,250.08,250.29,0.0,0.01
1526668605.56849194,55571096,0.55,0.9,0.49,2741.82348633,-9.85,-9.1,250.08,250.15,0.0,0.01
1526668605.66845202,55671056,0.5,0.99,0.51,2694.8815918,-10.17,-9.37,250.08,250.02,0.0,0.01
1526668605.76841187,55771016,0.43,1.0,0.5,2677.89672852,-10.42,-9.63,250.08,249.95,0.0,0.01
1526668605.86837196,55870976,0.34,0.96,0.47,2663.62255859,-10.66,-9.93,250.08,249.92,0.0,0.01
1526668605.96833205,55970936,0.31,0.9,0.42,2649.29248047,-11.02,-10.23,250.08,249.77,0.0,0.01
1526668606.06829190,56070896,0.28,0.85,0.36,2627.5859375,-11.21,-10.51,250.08,249.68,0.0,0.01
1526668606.16825199,56170856,0.22,0.79,0.31,2611.10205078,-11.34,-10.79,250.08,249.64,0.0,0.01
1526668606.26821208,56270816,0.16,0.69,0.25,2587.88647461,-11.54,-11.01,250.08,249.63,0.0,0.01
1526668606.36817193,56370776,0.08,0.59,0.18,2550.30541992,-11.67,-11.2,250.08,249.6,0.0,0.05
1526668606.46896505,56471569,0.04,0.48,0.12,2501.35375977,-11.83,-11.36,250.08,249.56,0.0,0.06
1526668606.56892490,56571529,0.02,0.39,0.07,2448.15698242,-11.69,-11.51,250.08,249.56,0.0,0.01
1526668606.66888499,56671489,-0.01,0.28,0.02,2384.49658203,-11.71,-11.63,250.08,249.67,0.0,0.01
1526668606.76884508,56771449,-0.04,0.22,-0.01,592.956115723,-11.74,-11.68,250.08,249.82,0.0,0.01
1526668606.86880493,56871409,-0.05,0.18,-0.03,544.950500488,-11.64,-11.72,250.08,249.95,0.0,0.0
1526668606.96876502,56971369,-0.05,0.15,-0.05,523.86932373,-11.63,-11.77,250.08,250.03,0.0,0.01
1526668607.06872511,57071329,-0.06,0.11,-0.06,485.140472412,-11.8,-11.79,250.08,250.11,0.0,0.01
1526668607.16868496,57171289,-0.04,0.04,-0.06,430.258605957,-11.77,-11.8,250.08,250.17,0.0,0.0
1526668607.26864505,57271249,-0.04,-0.06,-0.05,364.404022217,-11.83,-11.83,250.08,250.3,0.0,0.0
1526668607.36860490,57371209,-0.03,-0.19,-0.04,321.27734375,-11.84,-11.84,250.08,250.4,0.0,0.0
1526668607.46856499,57471169,-0.02,-0.33,-0.03,342.144348145,-11.88,-11.81,250.08,250.51,0.0,0.0
1526668607.56852508,57571129,0.02,-0.43,-0.01,453.470001221,-11.72,-11.76,250.08,250.57,0.0,0.0
1526668607.66848493,57671089,0.1,-0.4,0.01,591.483337402,-11.71,-11.66,250.08,250.55,0.0,0.0
1526668607.76844501,57771049,0.29,-0.57,0.06,753.400085449,-9.7,-11.7,96.41,250.4,0.0,0.01
1526668607.86840510,57871009,0.65,-1.12,0.17,1478.18688965,-6.7,-11.12,96.41,249.52,0.0,0.0
1526668607.96836495,57970969,1.08,-1.54,0.37,3439.49414062,-5.1,-9.78,96.41,247.88,0.0,0.01
1526668608.06832504,58070929,1.57,-1.54,0.66,6323.45751953,-4.04,-8.09,96.41,245.6,0.0,0.01
1526668608.16828489,58170889,2.12,-1.1,1.04,9113.24804688,-3.16,-6.41,96.41,243.01,0.0,0.0
1526668608.26824498,58270849,2.65,-0.43,1.51,11165.0644531,-2.4,-4.9,96.41,240.1,0.0,0.0
1526668608.36820507,58370809,3.11,0.34,2.02,12454.9707031,-1.73,-3.61,96.41,236.96,0.0,0.01
1526668608.46899796,58471602,3.46,1.15,2.55,13088.2167969,-1.14,-2.49,96.41,233.57,0.0,0.04
1526668608.56895804,58571562,3.65,1.91,3.03,13250.7617188,-0.64,-1.58,96.41,230.08,0.0,0.03
1526668608.66891789,58671522,3.66,2.58,3.42,13078.4521484,-0.21,-0.88,96.41,226.52,0.0,0.03
1526668608.76887798,58771482,3.48,3.13,3.66,12685.0292969,0.18,-0.37,96.41,222.83,0.0,0.04
1526668608.86883807,58871442,3.14,3.5,3.73,12180.7412109,0.48,-0.05,96.41,218.95,0.0,0.04
1526668608.96879792,58971402,2.65,3.62,3.61,11658.6640625,0.77,0.09,96.41,215.04,0.0,0.04
1526668609.06875801,59071362,2.03,3.49,3.29,11179.0693359,1.07,0.21,96.41,211.08,0.0,0.04
1526668609.16871810,59171322,1.27,3.05,2.8,10751.0859375,1.34,0.27,96.41,207.07,0.0,0.03
1526668609.26867795,59271282,0.32,2.45,2.14,10367.4921875,1.6,0.34,96.41,203.0,0.0,0.02
1526668609.36863804,59371242,-0.84,1.66,1.3,1108.17602539,1.84,0.47,96.41,198.98,0.0,0.02
1526668609.46859789,59471202,-1.9,0.73,0.3,1298.05175781,1.91,0.64,96.41,194.96,0.0,0.01
1526668609.56855798,59571162,-2.38,-0.18,-0.73,1659.30871582,1.76,0.79,96.41,190.94,0.0,0.01
1526668609.66851807,59671122,-2.58,-1.02,-1.64,2135.91748047,1.51,0.92,96.41,186.97,0.0,0.01
1526668609.76847792,59771082,-2.82,-1.67,-2.36,2597.02612305,1.21,1.05,96.41,183.01,0.0,0.01
1526668609.86843801,59871042,-3.05,-2.16,-2.89,3017.92675781,0.83,1.08,96.41,178.99,0.0,0.02
1526668609.96839809,59971002,-3.28,-2.56,-3.24,3316.81396484,0.38,1.04,96.41,174.96,0.0,0.02
1526668610.06835794,60070962,-3.45,-2.86,-3.46,3417.09960938,-0.09,0.88,96.41,170.89,0.0,0.02
1526668610.16831803,60170922,-3.53,-2.98,-3.58,3447.9375,-0.55,0.63,96.41,166.9,0.0,0.03
1526668610.26827788,60270882,-3.6,-3.04,-3.61,3440.54101562,-1.05,0.28,96.41,162.98,0.0,0.03
1526668610.36823797,60370842,-3.67,-3.05,-3.59,3419.85595703,-1.62,-0.2,96.41,159.11,0.0,0.03
1526668610.46819806,60470802,-3.72,-3.09,-3.56,3358.08618164,-2.19,-0.74,96.41,155.19,0.0,0.03
1526668610.56899095,60571595,-3.74,-3.14,-3.53,3244.43115234,-2.68,-1.29,96.41,151.18,0.0,0.02
1526668610.66895103,60671555,-3.75,-3.22,-3.5,3098.85595703,-3.17,-1.84,96.41,147.16,0.0,0.02
1526668610.76891088,60771515,-3.74,-3.32,-3.49,2929.78344727,-3.72,-2.37,96.41,143.1,0.0,0.02
1526668610.86887097,60871475,-3.69,-3.36,-3.48,2760.91235352,-4.26,-2.89,96.41,139.1,0.0,0.02
1526668610.96883106,60971435,-3.57,-3.34,-3.46,2608.90161133,-4.78,-3.46,96.41,135.09,0.0,0.02
1526668611.06879091,61071395,-3.38,-3.3,-3.43,2473.18310547,-5.24,-3.98,96.41,131.05,0.0,0.02
1526668611.16875100,61171355,-2.97,-3.18,-3.33,2354.65722656,-5.44,-4.45,96.41,127.02,0.0,0.03
1526668611.26871109,61271315,-2.48,-3.03,-3.14,2246.74316406,-5.58,-4.86,96.41,122.97,0.0,0.03
1526668611.36867094,61371275,-2.01,-2.83,-2.85,2143.26123047,-5.69,-5.19,96.41,118.89,0.0,0.03
1526668611.46863103,61471235,-1.53,-2.59,-2.47,2047.36108398,-5.77,-5.46,96.41,114.73,0.0,0.03
1526668611.56859088,61571195,-0.98,-2.24,-2.03,1969.26171875,-5.85,-5.65,96.41,110.53,0.0,0.03
1526668611.66855097,61671155,-0.44,-1.88,-1.52,1920.7520752,-5.92,-5.79,96.41,106.34,0.0,0.04
1526668611.76851106,61771115,0.1,-1.44,-0.98,1910.77636719,-6.01,-5.82,96.41,102.16,0.0,0.04
1526668611.86847091,61871075,0.59,-0.91,-0.43,1922.54833984,-6.08,-5.74,96.41,98.25,0.0,0.04
1526668611.96843100,61971035,1.03,-0.24,0.11,1758.85217285,-6.16,-5.63,96.41,94.86,0.0,0.03
1526668612.06839108,62070995,1.29,0.42,0.61,1258.89929199,-6.25,-5.58,96.41,92.28,0.0,0.02
1526668612.16835093,62170955,1.49,1.03,1.04,886.355712891,-6.38,-5.59,96.41,90.64,0.0,0.01
1526668612.26831102,62270915,1.53,1.52,1.36,681.199523926,-6.58,-5.68,96.41,89.83,0.0,0.0
1526668612.36827087,62370875,1.37,1.85,1.54,656.411315918,-6.81,-5.86,96.41,89.81,0.0,0.01
1526668612.46823096,62470835,1.1,1.99,1.56,765.025817871,-7.21,-6.15,96.41,90.51,0.0,0.02
1526668612.56819105,62570795,0.73,1.92,1.42,968.756225586,-7.82,-6.62,96.41,91.59,0.0,0.03
1526668612.66898394,62671588,0.25,1.69,1.14,1191.03820801,-8.46,-7.14,96.41,92.91,0.0,0.01
1526668612.76894403,62771548,-0.22,1.36,0.73,1443.22839355,-9.05,-7.73,96.41,94.3,0.0,0.04
1526668612.86890388,62871508,-0.7,0.89,0.23,1718.76831055,-9.57,-8.42,96.41,95.57,0.0,0.04
1526668612.96886396,62971468,-1.13,0.29,-0.29,1917.15942383,-10.0,-9.09,96.41,96.68,0.0,0.04
1526668613.06882405,63071428,-1.45,-0.37,-0.82,1986.86706543,-10.37,-9.61,96.41,97.48,0.0,0.03
1526668613.16878390,63171388,-1.65,-0.91,-1.29,1965.52722168,-10.69,-9.94,96.41,98.07,0.0,0.02
1526668613.26874399,63271348,-1.69,-1.31,-1.66,1921.90466309,-10.99,-10.29,96.41,98.35,0.0,0.02
1526668613.36870408,63371308,-1.6,-1.55,-1.89,1872.44372559,-11.27,-10.61,96.41,98.38,0.0,0.02
1526668613.46866393,63471268,-1.41,-1.7,-1.96,1816.93530273,-11.53,-10.88,96.41,98.17,0.0,0.01
1526668613.56862402,63571228,-1.17,-1.72,-1.9,1739.07556152,-11.59,-11.07,96.41,97.84,0.0,0.01
1526668613.66858411,63671188,-0.9,-1.66,-1.7,1651.48901367,-11.51,-11.21,96.41,97.33,0.0,0.0
1526668613.76854396,63771148,-0.62,-1.53,-1.42,1566.17346191,-11.39,-11.28,96.41,96.73,0.0,0.0
1526668613.86850405,63871108,-0.34,-1.32,-1.08,1503.87072754,-11.27,-11.3,96.41,96.13,0.0,0.0
1526668613.96846390,63971068,-0.06,-1.01,-0.71,1466.42956543,-11.15,-11.24,96.41,95.61,0.0,0.0
1526668614.06842399,64071028,0.06,-0.7,-0.35,1446.71533203,-9.75,-11.08,96.41,95.24,0.0,0.0
1526668614.16838408,64170988,0.09,-0.61,-0.07,1465.80249023,-7.9,-10.59,96.41,94.94,0.0,0.0
1526668614.26834393,64270948,0.14,-0.58,0.13,1577.28845215,-7.17,-9.8,96.41,94.79,0.0,0.01
1526668614.36830401,64370908,0.21,-0.5,0.26,1743.16223145,-6.89,-8.92,96.41,94.78,0.0,0.01
1526668614.46826410,64470868,0.27,-0.33,0.34,1882.08703613,-6.83,-8.17,96.41,94.82,0.0,0.01
1526668614.56822395,64570828,0.3,-0.12,0.37,3399.14990234,-6.86,-7.56,96.41,94.9,0.0,0.01
1526668614.66818404,64670788,0.27,0.07,0.36,2504.95532227,-6.98,-7.17,96.41,95.11,0.0,0.03
1526668614.76897693,64771581,0.21,0.29,0.33,1795.45446777,-7.23,-6.98,96.41,95.42,0.0,0.02
1526668614.86893702,64871541,0.11,0.47,0.26,1381.69030762,-7.51,-7.01,96.41,95.77,0.0,0.01
1526668614.96889710,64971501,-0.02,0.57,0.16,1307.40771484,-7.82,-7.17,96.41,96.08,0.0,0.01
1526668615.06885695,65071461,-0.21,0.52,0.04,1426.07751465,-8.13,-7.46,96.41,96.38,0.0,0.01
1526668615.16881704,65171421,-0.4,0.39,-0.1,1564.03295898,-8.41,-7.81,96.41,96.65,0.0,0.01
1526668615.26877689,65271381,-0.59,0.21,-0.28,1676.34204102,-8.69,-8.16,96.41,96.9,0.0,0.01
1526668615.36873698,65371341,-0.74,0.0,-0.46,1737.71887207,-8.95,-8.42,96.41,97.12,0.0,0.01
1526668615.46869707,65471301,-0.86,-0.22,-0.64,1764.10791016,-9.15,-8.61,96.41,97.23,0.0,0.01
1526668615.56865692,65571261,-0.92,-0.42,-0.8,1747.43945312,-9.36,-8.8,96.41,97.24,0.0,0.01
1526668615.66861701,65671221,-0.92,-0.62,-0.92,1699.80407715,-9.58,-8.99,96.41,97.17,0.0,0.0
1526668615.76857710,65771181,-0.9,-0.78,-0.99,1620.51965332,-9.75,-9.22,96.41,97.05,0.0,0.0
1526668615.86853695,65871141,-0.84,-0.85,-1.02,1530.5411377,-9.89,-9.33,96.41,96.84,0.0,0.0
1526668615.96849704,65971101,-0.71,-0.83,-0.99,1446.8828125,-10.0,-9.49,96.41,96.58,0.0,0.0
1526668616.06845689,66071061,-0.57,-0.77,-0.91,1373.11047363,-10.07,-9.65,96.41,96.34,0.0,0.0
1526668616.16841698,66171021,-0.43,-0.76,-0.79,1297.55517578,-10.2,-9.8,96.41,96.18,0.0,0.0
1526668616.26837707,66270981,-0.33,-0.71,-0.64,1226.1394043,-10.3,-9.89,96.41,96.04,0.0,0.0
1526668616.36833692,66370941,-0.2,-0.65,-0.49,1168.81176758,-10.32,-9.93,96.41,95.94,0.0,0.0
1526668616.46829700,66470901,-0.08,-0.49,-0.33,1125.0020752,-10.4,-9.95,96.41,95.89,0.0,0.0
1526668616.56825709,66570861,-0.01,-0.28,-0.19,1078.15942383,-10.44,-10.04,96.41,95.86,0.0,0.0
1526668616.66821694,66670821,0.03,-0.15,-0.06,1032.44726562,-10.45,-10.16,96.41,95.93,0.0,0.0
1526668616.76817703,66770781,0.04,-0.08,0.02,991.232971191,-10.47,-10.18,96.41,95.98,0.0,0.02
1526668616.86896992,66871574,0.04,-0.05,0.07,955.971679688,-10.49,-10.23,96.41,96.06,0.0,0.02
1526668616.96893001,66971534,0.05,0.0,0.09,922.704345703,-10.49,-10.29,96.41,96.16,0.0,0.0
1526668617.06889009,67071494,0.01,0.02,0.09,890.531616211,-10.53,-10.38,96.41,96.28,0.0,0.0
1526668617.16884995,67171454,-0.04,-0.09,0.06,87.077583313,-8.5,-10.52,90.84,96.29,0.0,0.0
1526668617.26881003,67271414,-0.08,-0.64,0.02,942.857055664,-5.66,-10.08,90.84,95.94,0.0,0.01
1526668617.36876988,67371374,0.01,-1.17,-0.02,3553.2734375,-4.21,-8.89,90.84,95.22,0.0,0.03
1526668617.46872997,67471334,0.2,-1.4,-0.03,6756.26464844,-3.3,-7.32,90.84,94.22,0.0,0.05
1526668617.56869006,67571294,0.19,-1.23,0.0,9045.16601562,-5.73,-5.86,90.84,93.05,0.0,0.05
1526668617.66864991,67671254,0.32,-0.44,0.05,8952.50390625,-8.31,-5.44,90.84,91.91,0.0,0.03
1526668617.76861000,67771214,0.54,0.45,0.14,7755.03027344,-9.89,-6.1,90.84,90.82,0.0,0.0
1526668617.86857009,67871174,0.69,1.12,0.27,7281.07666016,-11.13,-7.34,90.84,90.01,0.0,0.02
1526668617.96852994,67971134,0.77,1.5,0.42,7549.64599609,-12.17,-8.75,90.84,89.36,0.0,0.03
1526668618.06849003,68071094,0.73,1.66,0.56,7991.17675781,-13.06,-10.06,90.84,88.99,0.0,0.03
1526668618.16844988,68171054,0.59,1.65,0.65,8275.82324219,-13.82,-11.21,90.84,88.88,0.0,0.03
1526668618.26840997,68271014,0.38,1.54,0.67,8299.20019531,-14.47,-12.22,90.84,89.07,0.0,0.03
1526668618.36837006,68370974,0.16,1.31,0.6,8129.23193359,-15.0,-13.14,90.84,89.38,0.0,0.03
1526668618.46832991,68470934,-0.07,1.01,0.46,7837.8515625,-15.44,-13.97,90.84,89.81,0.0,0.03
1526668618.56829000,68570894,-0.32,0.61,0.25,7452.55517578,-15.78,-14.61,90.84,90.29,0.0,0.02
1526668618.66825008,68670854,-0.52,0.27,0.01,7043.07666016,-16.03,-15.13,90.84,90.66,0.0,0.02
1526668618.76820993,68770814,-0.63,-0.04,-0.24,6658.72851562,-16.07,-15.57,90.84,90.88,0.0,0.02
1526668618.86817002,68870774,-0.68,-0.28,-0.47,6309.34570312,-15.96,-15.82,90.84,91.01,0.0,0.03
1526668618.96896291,68971567,-0.65,-0.46,-0.64,5995.36767578,-15.8,-15.99,90.84,91.07,0.0,0.03
1526668619.06892300,69071527,-0.58,-0.61,-0.74,5709.25048828,-15.62,-16.07,90.84,91.06,0.0,0.01
1526668619.16888309,69171487,-0.5,-0.79,-0.77,5440.37597656,-15.39,-16.03,90.84,91.05,0.0,0.0
1526668619.26884294,69271447,-0.42,-0.93,-0.73,5200.19921875,-15.19,-15.92,90.84,91.1,0.0,0.0
1526668619.36880302,69371407,-0.32,-0.97,-0.65,5005.56445312,-14.97,-15.74,90.84,91.16,0.0,0.0
1526668619.46876287,69471367,-0.18,-0.96,-0.52,4856.77099609,-14.79,-15.52,90.84,91.14,0.0,0.0
1526668619.56872296,69571327,-0.02,-0.9,-0.37,4758.49365234,-14.64,-15.28,90.84,91.08,0.0,0.0
1526668619.66868305,69671287,0.11,-0.76,-0.2,4688.18212891,-14.55,-15.07,90.84,91.0,0.0,0.0
1526668619.76864290,69771247,0.24,-0.59,-0.03,3126.48779297,-14.5,-14.87,90.84,90.88,0.0,0.0
1526668619.86860299,69871207,0.36,-0.37,0.12,2983.77978516,-14.5,-14.67,90.84,90.71,0.0,0.0
1526668619.96856308,69971167,0.48,-0.13,0.27,2672.79003906,-14.56,-14.5,90.84,90.55,0.0,0.0
1526668620.06852293,70071127,0.55,0.11,0.41,2320.29248047,-14.65,-14.4,90.84,90.41,0.0,0.0
1526668620.16848302,70171087,0.59,0.33,0.52,1983.84887695,-14.78,-14.38,90.84,90.34,0.0,0.0
1526668620.26844311,70271047,0.57,0.46,0.59,1696.18310547,-14.92,-14.46,90.84,90.39,0.0,0.0
1526668620.36840296,70371007,0.5,0.58,0.62,1468.3848877,-15.05,-14.52,90.84,90.5,0.0,0.0
1526668620.46836305,70470967,0.44,0.68,0.61,1286.34729004,-15.14,-14.64,90.84,90.54,0.0,0.0
1526668620.56832290,70570927,0.35,0.76,0.55,1163.57763672,-15.27,-14.81,90.84,90.56,0.0,0.0
1526668620.66828299,70670887,0.23,0.77,0.47,1110.91748047,-15.4,-15.05,90.84,90.64,0.0,0.01
1526668620.76824307,70770847,0.08,0.71,0.35,1112.08117676,-15.51,-15.32,90.84,90.81,0.0,0.01
1526668620.86820292,70870807,-0.05,0.54,0.21,1116.01696777,-15.59,-15.6,90.84,90.98,0.0,0.01
1526668620.96899605,70971600,-0.2,0.31,0.06,1093.84191895,-15.66,-15.79,90.84,91.09,0.0,0.03
1526668621.06895590,71071560,-0.28,0.14,-0.08,1056.23974609,-15.74,-15.88,90.84,91.05,0.0,0.0
1526668621.16891599,71171520,-0.31,-0.06,-0.21,1011.86553955,-15.79,-15.93,90.84,90.98,0.0,0.0
1526668621.26887608,71271480,-0.25,-0.22,-0.3,956.959594727,-15.82,-15.91,90.84,90.71,0.0,0.0
1526668621.36883593,71371440,-0.17,-0.26,-0.34,904.963623047,-15.87,-15.91,90.84,90.37,0.0,0.0
1526668621.46879601,71471400,-0.11,-0.29,-0.32,856.917602539,-15.91,-15.89,90.84,90.2,0.0,0.0
1526668621.56875610,71571360,-0.02,-0.24,-0.27,812.161437988,-15.96,-15.89,90.84,90.06,0.0,0.0
1526668621.66871595,71671320,0.05,-0.17,-0.18,771.921813965,-16.01,-15.94,90.84,89.93,0.0,0.0
1526668621.76867604,71771280,0.11,-0.11,-0.08,735.22857666,-16.07,-16.0,90.84,89.93,0.0,0.0
1526668621.86863589,71871240,0.13,-0.06,0.01,702.920471191,-16.15,-16.03,90.84,89.98,0.0,0.0
1526668621.96859598,71971200,0.1,0.0,0.09,675.559326172,-16.24,-16.0,90.84,90.2,0.0,0.0
1526668622.06855607,72071160,0.03,0.07,0.13,649.594787598,-16.34,-16.0,90.84,90.48,0.0,0.0
1526668622.16851592,72171120,-0.07,0.03,0.13,626.117004395,-16.43,-16.07,90.84,90.85,0.0,0.0
1526668622.26847601,72271080,-0.17,-0.04,0.08,607.526184082,-16.51,-16.18,90.84,91.19,0.0,0.01
1526668622.36843610,72371040,-0.24,-0.06,0.0,89.3755340576,-16.6,-16.27,90.84,91.38,0.0,0.0
1526668622.46839595,72471000,-0.31,-0.1,-0.08,54.7152290344,-16.69,-16.44,90.84,91.47,0.0,0.0
1526668622.56835604,72570960,-0.32,-0.21,-0.18,36.768825531,-16.75,-16.61,294.11,91.42,0.0,0.0
1526668622.66831589,72670920,-0.18,-0.94,-0.25,371.335479736,-13.17,-16.72,294.11,90.9,0.0,0.0
1526668622.76827598,72770880,0.12,-1.89,-0.24,3263.71020508,-10.76,-15.79,294.11,89.59,0.0,0.03
1526668622.86823606,72870840,0.65,-2.42,-0.12,9504.02636719,-9.48,-14.16,294.11,87.59,0.0,0.06
1526668622.96819592,72970800,1.35,-2.35,0.16,16772.5878906,-8.62,-12.31,294.11,85.14,0.0,0.08
1526668623.06898904,73071593,2.14,-1.69,0.62,22118.75,-8.0,-10.57,294.11,82.38,0.0,0.12
1526668623.16894889,73171553,2.99,-0.67,1.24,24687.4082031,-7.52,-9.19,294.11,79.38,0.0,0.08
1526668623.26890898,73271513,3.81,0.5,2.0,25127.8476562,-7.14,-8.12,294.11,76.2,0.0,0.07
1526668623.36886907,73371473,4.57,1.7,2.84,24447.8457031,-6.78,-7.31,294.11,72.76,0.0,0.06
1526668623.46882892,73471433,5.23,2.86,3.7,23237.4824219,-6.46,-6.71,294.11,69.06,0.0,0.05
1526668623.56878901,73571393,5.78,3.92,4.52,21855.3886719,-6.09,-6.32,294.11,65.25,0.0,0.05
1526668623.66874909,73671353,6.22,4.79,5.27,20501.2519531,-5.68,-5.98,294.11,61.34,0.0,0.05
1526668623.76870894,73771313,6.53,5.53,5.89,19256.7558594,-5.27,-5.67,294.11,57.43,0.0,0.05
1526668623.86866903,73871273,6.71,6.11,6.37,18115.265625,-4.81,-5.35,294.11,53.53,0.0,0.05
1526668623.96862888,73971233,6.82,6.57,6.7,17075.1074219,-4.29,-5.1,294.11,49.59,0.0,0.05
1526668624.06858897,74071193,6.83,6.89,6.89,16129.7275391,-3.72,-4.85,294.11,45.64,0.0,0.05
1526668624.16854906,74171153,6.71,7.04,6.95,15282.1357422,-3.11,-4.52,294.11,41.69,0.0,0.05
1526668624.26850891,74271113,6.48,7.05,6.88,14526.7236328,-2.47,-4.11,294.11,37.74,0.0,0.06
1526668624.36846900,74371073,6.21,6.9,6.71,13849.7666016,-1.81,-3.68,294.11,33.8,0.0,0.06
1526668624.46842909,74471033,5.87,6.68,6.44,13241.6621094,-1.15,-3.2,294.11,29.9,0.0,0.06
1526668624.56838894,74570993,5.4,6.33,6.1,12690.6074219,-0.44,-2.69,294.11,25.97,0.0,0.07
1526668624.66834903,74670953,4.91,5.83,5.69,12174.6533203,0.19,-2.08,294.11,22.09,0.0,0.07
1526668624.76830888,74770913,4.35,5.31,5.23,11691.2890625,0.81,-1.42,294.11,18.18,0.0,0.07
1526668624.86826897,74870873,3.72,4.82,4.71,11244.6279297,1.35,-0.75,294.11,14.26,0.0,0.07
1526668624.96822906,74970833,3.03,4.3,4.14,166.143508911,1.78,-0.15,294.11,10.34,0.0,0.07
1526668625.06818891,75070793,2.29,3.72,3.52,232.412017822,2.09,0.43,294.11,6.36,0.0,0.07
1526668625.16898203,75171586,1.47,3.12,2.85,339.103729248,2.28,0.87,294.11,2.33,0.0,0.15
1526668625.26894188,75271546,0.56,2.49,2.12,493.393249512,2.31,1.19,294.11,358.29,0.0,0.08
1526668625.36890197,75371506,-0.47,1.77,1.32,721.114929199,2.19,1.37,294.11,354.29,0.0,0.07
1526668625.46886206,75471466,-1.66,0.98,0.43,1009.51525879,1.8,1.43,294.11,350.35,0.0,0.07
1526668625.56882191,75571426,-2.92,0.13,-0.54,1401.39904785,1.08,1.32,294.11,346.4,0.0,0.07
1526668625.66878200,75671386,-3.89,-0.81,-1.63,1941.32836914,0.17,0.97,294.11,342.4,0.0,0.08
1526668625.76874208,75771346,-4.04,-1.73,-2.64,2583.33496094,-0.39,0.45,294.11,338.39,0.0,0.08
1526668625.86870193,75871306,-3.82,-2.49,-3.4,3166.86499023,-0.78,-0.07,294.11,334.35,0.0,0.08
1526668625.96866202,75971266,-3.41,-3.01,-3.83,3585.29541016,-1.07,-0.5,294.11,330.27,0.0,0.07
1526668626.06862187,76071226,-2.89,-3.36,-3.91,3691.42651367,-1.2,-0.74,294.11,326.16,0.0,0.07
1526668626.16858196,76171186,-2.28,-3.45,-3.67,3531.24462891,-1.22,-0.8,294.11,322.12,0.0,0.06
1526668626.26854205,76271146,-1.65,-3.31,-3.17,3287.8527832,-1.21,-0.69,294.11,318.16,0.0,0.05
1526668626.36850190,76371106,-1.13,-2.94,-2.49,3131.4699707,-1.47,-0.52,294.11,314.22,0.0,0.04
1526668626.46846199,76471066,-0.68,-2.41,-1.75,3143.77880859,-1.89,-0.46,294.11,310.28,0.0,0.03
1526668626.56842208,76571026,-0.28,-1.74,-1.02,3240.6887207,-2.35,-0.58,294.11,306.35,0.0,0.03
1526668626.66838193,76670986,0.07,-1.01,-0.36,3328.44165039,-2.86,-0.83,294.11,302.4,0.0,0.03
1526668626.76834202,76770946,0.37,-0.3,0.18,3319.33325195,-3.35,-1.27,294.11,298.53,0.0,0.04
1526668626.86830211,76870906,0.57,0.3,0.61,3236.81713867,-3.84,-1.83,294.11,294.92,0.0,0.04
1526668626.96826196,76970866,0.67,0.79,0.92,3106.14160156,-4.28,-2.43,294.11,291.91,0.0,0.04
1526668627.06822205,77070826,0.67,1.11,1.09,2966.92211914,-4.75,-3.06,294.11,289.74,0.0,0.03
1526668627.16818190,77170786,0.59,1.29,1.13,2841.57739258,-5.24,-3.65,294.11,288.39,0.0,0.03
1526668627.26897502,77271579,0.42,1.37,1.07,2745.87939453,-5.7,-4.23,294.11,287.92,0.0,0.01
1526668627.36893511,77371539,0.15,1.31,0.9,2688.92358398,-5.97,-4.86,294.11,288.21,0.0,0.01
1526668627.46889496,77471499,-0.12,1.08,0.65,2653.59204102,-6.02,-5.35,294.11,289.1,0.0,0.0
1526668627.56885505,77571459,-0.43,0.7,0.34,1519.25354004,-6.0,-5.69,294.11,290.35,0.0,0.0
1526668627.66881490,77671419,-0.71,0.25,0.0,1217.44006348,-5.96,-5.92,294.11,291.75,0.0,0.0
1526668627.76877499,77771379,-0.92,-0.22,-0.34,932.404052734,-5.91,-6.06,294.11,293.13,0.0,0.0
1526668627.86873507,77871339,-1.06,-0.64,-0.66,710.991882324,-5.87,-6.07,294.11,294.25,0.0,0.0
1526668627.96869493,77971299,-1.09,-0.93,-0.92,568.956542969,-5.9,-6.05,294.11,295.03,0.0,0.0
1526668628.06865501,78071259,-1.07,-1.15,-1.09,475.854003906,-5.96,-5.99,294.11,295.55,0.0,0.0
1526668628.16861510,78171219,-1.03,-1.27,-1.19,413.151031494,-6.06,-5.94,294.11,295.85,0.0,0.0
1526668628.26857495,78271179,-0.95,-1.34,-1.2,375.026550293,-6.18,-5.93,294.11,295.88,0.0,0.0
1526668628.36853504,78371139,-0.8,-1.35,-1.15,363.384063721,-6.31,-5.95,294.11,295.72,0.0,0.0
1526668628.46849489,78471099,-0.67,-1.27,-1.03,376.105163574,-6.48,-5.94,294.11,295.42,0.0,0.0
1526668628.56845498,78571059,-0.53,-1.12,-0.87,397.361785889,-6.69,-5.98,294.11,295.01,0.0,0.0
1526668628.66841507,78671019,-0.38,-0.92,-0.69,412.928924561,-6.92,-6.12,294.11,294.52,0.0,0.0
1526668628.76837492,78770979,-0.28,-0.67,-0.51,410.161376953,-7.09,-6.32,294.11,293.98,0.0,0.0
1526668628.86833501,78870939,-0.19,-0.43,-0.33,391.107269287,-7.32,-6.55,294.11,293.51,0.0,0.0
1526668628.96829510,78970899,-0.17,-0.26,-0.19,369.81463623,-7.55,-6.8,294.11,293.15,0.0,0.0
1526668629.06825495,79070859,-0.14,-0.09,-0.09,347.521270752,-7.96,-7.05,294.11,292.94,0.0,0.0
1526668629.16821504,79170819,-0.15,0.05,-0.03,328.412536621,-8.52,-7.36,294.11,292.89,0.0,0.0
1526668629.26817489,79270779,-0.19,0.19,-0.01,322.051605225,-9.12,-7.82,294.11,292.92,0.0,0.0
1526668629.36896801,79371572,-0.23,0.27,-0.03,341.60760498,-9.7,-8.39,294.11,292.99,0.0,0.0
1526668629.46892810,79471532,-0.32,0.25,-0.08,377.698120117,-10.27,-9.03,294.11,293.13,0.0,0.01
1526668629.56888795,79571492,-0.42,0.11,-0.17,405.273101807,-10.77,-9.62,294.11,293.35,0.0,0.01
1526668629.66884804,79671452,-0.54,-0.03,-0.27,417.80670166,-11.24,-10.18,294.11,293.52,0.0,0.01
1526668629.76880789,79771412,-0.65,-0.18,-0.4,423.247314453,-11.67,-10.62,294.11,293.68,0.0,0.01
1526668629.86876798,79871372,-0.74,-0.3,-0.52,426.70791626,-12.07,-11.04,294.11,293.91,0.0,0.01
1526668629.96872807,79971332,-0.78,-0.44,-0.64,429.056549072,-12.45,-11.47,294.11,294.06,0.0,0.01
1526668630.06868792,80071292,-0.78,-0.53,-0.74,429.374786377,-12.81,-11.91,294.11,294.09,0.0,0.01
1526668630.16864800,80171252,-0.77,-0.6,-0.8,430.882659912,-13.14,-12.31,294.11,294.15,0.0,0.01
1526668630.26860809,80271212,-0.75,-0.61,-0.83,440.517150879,-13.46,-12.69,294.11,294.22,0.0,0.01
1526668630.36856794,80371172,-0.73,-0.62,-0.83,459.985900879,-13.78,-13.05,294.11,294.28,0.0,0.01
1526668630.46852803,80471132,-0.7,-0.64,-0.81,437.542663574,-14.09,-13.4,294.11,294.28,0.0,0.01
1526668630.56848788,80571092,-0.67,-0.65,-0.77,392.31149292,-14.25,-13.76,294.11,294.26,0.0,0.01
1526668630.66844797,80671052,-0.65,-0.68,-0.73,343.352111816,-14.28,-14.13,294.11,294.26,0.0,0.01
1526668630.76840806,80771012,-0.63,-0.85,-0.68,303.707183838,-14.26,-14.42,294.11,294.27,0.0,0.01
1526668630.86836791,80870972,-0.6,-1.01,-0.64,360.898010254,-14.2,-14.55,294.11,294.26,0.0,0.01
1526668630.96832800,80970932,-0.52,-1.13,-0.59,559.533874512,-14.13,-14.58,294.11,294.23,0.0,0.0
1526668631.06828809,81070892,-0.43,-1.15,-0.54,832.039245605,-14.09,-14.48,294.11,294.21,0.0,0.0
1526668631.16824794,81170852,-0.32,-1.09,-0.48,1093.84484863,-14.09,-14.31,294.11,294.18,0.0,0.0
1526668631.26820803,81270812,-0.22,-1.0,-0.4,1310.24645996,-14.14,-14.18,294.11,294.12,0.0,0.0
1526668631.36900091,81371605,-0.12,-0.84,-0.31,1457.58642578,-14.22,-14.07,294.11,294.05,0.0,0.01
1526668631.46896100,81471565,-0.02,-0.59,-0.21,1500.0357666,-14.34,-14.02,294.11,293.93,0.0,0.0
1526668631.56892109,81571525,0.05,-0.33,-0.12,1457.03015137,-14.48,-14.04,294.11,293.75,0.0,0.0
1526668631.66888094,81671485,0.09,-0.11,-0.03,1377.04907227,-14.63,-14.11,294.11,293.58,0.0,0.0
1526668631.76884103,81771445,0.1,0.02,0.03,1297.23022461,-14.79,-14.23,294.11,293.51,0.0,0.0
1526668631.86880088,81871405,0.07,0.11,0.08,1225.30444336,-14.95,-14.39,294.11,293.5,0.0,0.0
1526668631.96876097,81971365,0.0,0.22,0.09,1163.72363281,-15.12,-14.57,294.11,293.57,0.0,0.0
1526668632.06872106,82071325,-0.09,0.26,0.07,1118.16552734,-15.29,-14.79,294.11,293.72,0.0,0.0
1526668632.16868091,82171285,-0.19,0.16,0.01,1077.9621582,-15.45,-14.99,294.11,293.88,0.0,0.0
1526668632.26864100,82271245,-0.28,0.04,-0.06,1035.76745605,-15.58,-15.14,294.11,293.96,0.0,0.0
1526668632.36860108,82371205,-0.38,-0.09,-0.17,995.100708008,-15.69,-15.29,294.11,294.01,0.0,0.0
1526668632.46856093,82471165,-0.43,-0.19,-0.28,956.618164062,-15.79,-15.47,294.11,293.95,0.0,0.01
1526668632.56852102,82571125,-0.42,-0.24,-0.38,923.401367188,-15.9,-15.59,294.11,293.84,0.0,0.01
1526668632.66848087,82671085,-0.4,-0.22,-0.44,901.932434082,-16.02,-15.69,294.11,293.73,0.0,0.0
1526668632.76844096,82771045,-0.39,-0.22,-0.48,642.604919434,-16.13,-15.76,294.11,293.72,0.0,0.0
1526668632.86840105,82871005,-0.42,-0.18,-0.49,746.52935791,-16.23,-15.87,294.11,293.75,0.0,0.0
1526668632.96836090,82970965,-0.48,-0.17,-0.49,840.328491211,-16.32,-16.02,294.11,293.85,0.0,0.0
1526668633.06832099,83070925,-0.54,-0.18,-0.5,894.92364502,-16.41,-16.18,294.11,293.94,0.0,0.0
1526668633.16828108,83170885,-0.59,-0.24,-0.52,915.022338867,-16.5,-16.36,294.11,294.08,0.0,0.0
1526668633.26824093,83270845,-0.63,-0.33,-0.55,872.936767578,-16.58,-16.54,294.11,294.19,0.0,0.01
1526668633.36820102,83370805,-0.66,-0.46,-0.58,792.811828613,-16.65,-16.67,294.11,294.3,0.0,0.01
1526668633.46899390,83471598,-0.66,-0.61,-0.61,699.46496582,-16.72,-16.74,294.11,294.39,0.0,0.0
1526668633.56895399,83571558,-0.61,-0.62,-0.63,621.812438965,-16.77,-16.83,294.11,294.41,0.0,0.0
1526668633.66891408,83671518,-0.55,-0.6,-0.63,560.432434082,-16.81,-16.89,294.11,294.41,0.0,0.0
1526668633.76887393,83771478,-0.5,-0.53,-0.61,512.750732422,-16.84,-16.9,294.11,294.36,0.0,0.0
1526668633.86883402,83871438,-0.43,-0.46,-0.57,479.015655518,-16.88,-16.91,294.11,294.27,0.0,0.0
1526668633.96879411,83971398,-0.38,-0.48,-0.52,448.60333252,-16.95,-16.87,294.11,294.23,0.0,0.0
1526668634.06875396,84071358,-0.33,-0.46,-0.46,417.024383545,-17.03,-16.87,294.11,294.17,0.0,0.0
1526668634.16871405,84171318,-0.3,-0.4,-0.4,389.229644775,-17.12,-16.96,294.11,294.22,0.0,0.0
1526668634.26867390,84271278,-0.28,-0.34,-0.34,364.913879395,-17.2,-17.15,294.11,294.3,0.0,0.0
1526668634.36863399,84371238,-0.25,-0.34,-0.3,343.616119385,-17.26,-17.3,294.11,294.4,0.0,0.0
1526668634.46859407,84471198,-0.21,-0.31,-0.26,325.621002197,-17.31,-17.4,294.11,294.39,0.0,0.0
1526668634.56855392,84571158,-0.15,-0.27,-0.22,309.652954102,-17.35,-17.5,294.11,294.27,0.0,0.0
1526668634.66851401,84671118,-0.06,-0.28,-0.18,296.176208496,-17.37,-17.6,294.11,294.11,0.0,0.0
1526668634.76847410,84771078,0.01,-0.29,-0.13,290.038238525,-17.37,-17.59,294.11,293.93,0.0,0.0
1526668634.86843395,84871038,0.09,-0.33,-0.07,297.460296631,-17.38,-17.5,294.11,293.8,0.0,0.0
1526668634.96839404,84970998,0.15,-0.28,-0.01,316.317260742,-17.42,-17.38,294.11,293.68,0.0,0.0
1526668635.06835389,85070958,0.2,-0.16,0.05,328.004547119,-17.46,-17.34,294.11,293.64,0.0,0.0
1526668635.16831398,85170918,0.23,-0.05,0.11,330.485321045,-17.46,-17.32,294.11,293.69,0.0,0.0
1526668635.26827407,85270878,0.26,0.04,0.17,326.10458374,-17.36,-17.33,294.11,293.74,0.0,0.0
1526668635.36823392,85370838,0.27,0.05,0.21,200.200057983,-17.23,-17.37,294.11,293.8,0.0,0.0
1526668635.46819401,85470798,0.24,-0.02,0.23,330.625061035,-17.04,-17.34,294.11,293.93,0.0,0.0
1526668635.56898689,85571591,0.24,-0.06,0.24,511.700317383,-16.83,-17.26,294.11,294.02,0.0,0.01
1526668635.66894698,85671551,0.28,-0.03,0.25,611.718078613,-16.61,-17.17,294.11,294.03,0.0,0.0
1526668635.76890707,85771511,0.31,0.04,0.25,609.271728516,-16.37,-17.04,294.11,294.02,0.0,0.0
1526668635.86886692,85871471,0.31,0.1,0.26,563.624023438,-16.09,-16.88,294.11,294.01,0.0,0.0
1526668635.96882701,85971431,0.31,0.1,0.26,518.676940918,-15.81,-16.65,294.11,293.99,0.0,0.0
1526668636.06878710,86071391,0.3,0.1,0.27,491.807952881,-15.53,-16.4,294.11,293.94,0.0,0.0
1526668636.16874695,86171351,0.32,0.13,0.27,464.893005371,-15.25,-16.13,294.11,293.87,0.0,0.0
1526668636.26870704,86271311,0.34,0.13,0.28,441.554779053,-14.97,-15.79,294.11,293.84,0.0,0.0
1526668636.36866689,86371271,0.31,0.22,0.28,413.132507324,-14.68,-15.49,294.11,293.86,0.0,0.0
1526668636.46862698,86471231,0.28,0.31,0.28,379.494598389,-14.38,-15.24,294.11,293.87,0.0,0.0
1526668636.56858706,86571191,0.26,0.3,0.27,351.139801025,-14.07,-14.98,294.11,293.88,0.0,0.0
1526668636.66854692,86671151,0.26,0.23,0.26,326.342010498,-13.73,-14.69,294.11,293.91,0.0,0.0
1526668636.76850700,86771111,0.28,0.16,0.25,307.960876465,-13.38,-14.42,294.11,293.87,0.0,0.0
1526668636.86846709,86871071,0.29,0.07,0.25,300.079071045,-13.0,-14.1,294.11,293.83,0.0,0.0
1526668636.96842694,86971031,0.31,0.06,0.25,305.681671143,-12.61,-13.7,294.11,293.85,0.0,0.0
1526668637.06838703,87070991,0.33,0.09,0.26,307.731842041,-12.23,-13.27,294.11,293.85,0.0,0.01
1526668637.16834688,87170951,0.35,0.15,0.28,303.717041016,-11.81,-12.85,294.11,293.86,0.0,0.01
1526668637.26830697,87270911,0.34,0.23,0.29,293.624938965,-11.38,-12.45,294.11,293.9,0.0,0.01
1526668637.36826706,87370871,0.32,0.26,0.31,281.361206055,-10.92,-12.02,294.11,293.93,0.0,0.01
1526668637.46822691,87470831,0.29,0.27,0.31,269.594451904,-10.43,-11.59,294.11,294.0,0.0,0.01
1526668637.56818700,87570791,0.28,0.24,0.3,259.525604248,-9.75,-11.14,294.11,294.06,0.0,0.02
1526668637.66897988,87671584,0.31,0.22,0.3,251.674911499,-9.33,-10.59,294.11,294.1,0.0,0.02
1526668637.76893997,87771544,0.33,0.23,0.3,243.987442017,-8.98,-10.08,294.11,294.12,0.0,0.01
1526668637.86890006,87871504,0.35,0.25,0.3,236.809936523,-8.66,-9.58,294.11,294.1,0.0,0.01
1526668637.96885991,87971464,0.38,0.33,0.32,14.725730896,-8.34,-9.2,294.11,294.01,0.0,0.01
1526668638.06882000,88071424,0.37,0.45,0.33,32.7409629822,-8.03,-8.86,294.11,293.98,0.0,0.01
1526668638.16878009,88171384,0.35,0.46,0.34,69.9156646729,-7.73,-8.5,294.11,294.03,0.0,0.01
1526668638.26873994,88271344,0.31,0.42,0.34,76.4557571411,-7.41,-8.18,294.11,294.13,0.0,0.01
1526668638.36870003,88371304,0.27,0.33,0.33,63.9348831177,-7.1,-7.88,294.11,294.24,0.0,0.01
1526668638.46865988,88471264,0.24,0.23,0.31,57.9466209412,-6.76,-7.57,294.11,294.29,0.0,0.01
1526668638.56861997,88571224,0.24,0.2,0.28,59.8981437683,-6.36,-7.24,294.11,294.29,0.0,0.01
1526668638.66858006,88671184,0.25,0.15,0.26,66.1190948486,-5.93,-6.88,294.11,294.31,0.0,0.01
1526668638.76853991,88771144,0.27,0.14,0.25,74.0270004272,-5.48,-6.47,294.11,294.32,0.0,0.01
1526668638.86849999,88871104,0.32,0.16,0.25,77.1381530762,-4.99,-6.04,294.11,294.31,0.0,0.01
1526668638.96846008,88971064,0.37,0.18,0.27,77.7352294922,-4.44,-5.62,294.11,294.32,0.0,0.01
1526668639.06841993,89071024,0.4,0.15,0.3,83.1386184692,-3.89,-5.17,294.11,294.32,0.0,0.01
1526668639.16838002,89170984,0.5,0.16,0.34,99.8674316406,-3.23,-4.63,294.11,294.25,0.0,0.01
1526668639.26834011,89270944,0.61,0.2,0.41,119.631378174,-2.58,-4.0,294.11,294.15,0.0,0.02
1526668639.36829996,89370904,0.57,0.24,0.48,150.25982666,0.3,-3.32,294.11,294.05,0.0,0.02
1526668639.46826005,89470864,0.55,-0.01,0.54,238.832977295,4.89,-2.03,294.11,294.02,0.0,0.03
1526668639.56821990,89570824,0.59,-0.59,0.57,677.987609863,10.89,0.67,294.11,294.05,0.0,0.06
1526668639.66817999,89670784,0.7,-0.95,0.61,1767.00793457,12.79,4.37,294.11,294.06,0.0,0.09
1526668639.76897287,89771577,0.88,-0.69,0.67,2883.66064453,12.8,7.81,294.11,294.06,0.0,0.09
1526668639.86893296,89871537,1.08,0.05,0.76,3313.82055664,11.8,10.17,294.11,294.08,0.0,0.08
1526668639.96889305,89971497,1.2,0.93,0.89,3230.13476562,10.18,11.24,294.11,294.12,0.0,0.06
1526668640.06885290,90071457,1.17,1.69,1.01,3162.62353516,8.17,11.2,294.11,294.14,0.0,0.03
1526668640.16881299,90171417,0.99,2.23,1.09,3405.45727539,6.06,10.28,294.11,294.12,0.0,0.0
1526668640.26877308,90271377,0.7,2.45,1.08,3941.09790039,4.03,8.77,294.11,294.12,0.0,0.01
1526668640.36873293,90371337,0.4,2.38,0.98,4561.59960938,2.22,6.96,294.11,294.13,0.0,0.02
1526668640.46869302,90471297,0.06,2.09,0.78,5090.43066406,0.72,5.15,294.11,294.16,0.0,0.03
1526668640.56865311,90571257,-0.22,1.7,0.51,15662.2636719,-0.38,3.44,294.11,294.23,0.0,0.03
1526668640.66861296,90671217,-0.47,1.2,0.19,13833.4013672,-1.2,1.91,294.11,294.32,0.0,0.03
1526668640.76857305,90771177,-0.68,0.71,-0.12,12005.1611328,-1.74,0.68,294.11,294.37,0.0,0.02
1526668640.86853290,90871137,-0.8,0.29,-0.42,10507.0175781,-2.05,-0.3,294.11,294.4,0.0,0.02
1526668640.96849298,90971097,-0.9,-0.05,-0.68,9287.60546875,-2.2,-0.98,294.11,294.39,0.0,0.01
1526668641.06845307,91071057,-0.92,-0.34,-0.87,8297.36425781,-2.2,-1.47,294.11,294.37,0.0,0.01
1526668641.16841292,91171017,-0.86,-0.59,-0.98,7419.09033203,-2.1,-1.83,294.11,294.28,0.0,0.0
1526668641.26837301,91270977,-0.76,-0.79,-1.0,6608.40087891,-1.91,-2.0,294.11,294.18,0.0,0.0
1526668641.36833310,91370937,-0.66,-0.93,-0.96,5895.96435547,-1.65,-2.03,294.11,294.16,0.0,0.0
1526668641.46829295,91470897,-0.51,-0.99,-0.86,5311.46289062,-1.37,-1.88,294.11,294.17,0.0,0.0
1526668641.56825304,91570857,-0.27,-0.96,-0.7,4864.22802734,-1.07,-1.6,294.11,294.17,0.0,0.01
1526668641.66821289,91670817,-0.02,-0.87,-0.49,4544.44677734,-0.81,-1.28,294.11,294.16,0.0,0.01
1526668641.76817298,91770777,0.18,-0.67,-0.26,4315.296875,-0.55,-0.99,294.11,294.23,0.0,0.0
1526668641.86896610,91871570,0.35,-0.47,-0.01,4139.33691406,-0.34,-0.73,294.11,294.33,0.0,0.0
1526668641.96892595,91971530,0.5,-0.26,0.21,4015.94799805,-0.18,-0.47,294.11,294.41,0.0,0.01
1526668642.06888604,92071490,0.62,-0.02,0.42,3897.4765625,-0.04,-0.25,294.11,294.44,0.0,0.01
1526668642.16884589,92171450,0.7,0.14,0.59,3791.22827148,0.03,-0.1,294.11,294.44,0.0,0.01
1526668642.26880598,92271410,0.76,0.29,0.73,3696.04541016,0.08,-0.03,294.11,294.46,0.0,0.01
1526668642.36876607,92371370,0.74,0.44,0.81,3591.53051758,0.15,0.0,294.11,294.4,0.0,0.0
1526668642.46872592,92471330,0.7,0.59,0.84,3464.40087891,0.2,0.07,294.11,294.28,0.0,0.0
1526668642.56868601,92571290,0.61,0.77,0.83,3313.66577148,0.25,0.14,294.11,294.17,0.0,0.0
1526668642.66864610,92671250,0.5,0.84,0.77,3163.82763672,0.3,0.16,294.11,294.04,0.0,0.0
1526668642.76860595,92771210,0.38,0.84,0.67,3033.06323242,0.33,0.23,294.11,293.97,0.0,0.0
1526668642.86856604,92871170,0.27,0.76,0.54,2923.69140625,0.37,0.31,294.11,293.98,0.0,0.0
1526668642.96852589,92971130,0.19,0.64,0.41,2826.22631836,0.35,0.4,294.11,293.97,0.0,0.0
1526668643.06848598,93071090,0.13,0.53,0.28,2738.88598633,0.33,0.41,294.11,294.01,0.0,0.0
1526668643.16844606,93171050,0.09,0.45,0.17,683.045043945,0.31,0.37,294.11,294.04,0.0,0.0
1526668643.26840591,93271010,0.07,0.39,0.08,779.636535645,0.33,0.33,294.11,294.04,0.0,0.0
1526668643.36836600,93370970,0.0,0.35,0.02,854.315185547,0.37,0.31,294.11,294.05,0.0,0.0
1526668643.46832609,93470930,-0.03,0.28,-0.02,901.604492188,0.43,0.27,294.11,294.01,0.0,0.0
1526668643.56828594,93570890,-0.05,0.16,-0.05,858.919189453,0.5,0.24,294.11,293.89,0.0,0.0
1526668643.66824603,93670850,-0.04,0.03,-0.07,757.561279297,0.58,0.22,294.11,293.77,0.0,0.0
1526668643.76820588,93770810,0.0,-0.08,-0.06,654.518920898,0.65,0.27,294.11,293.66,0.0,0.0
1526668643.86899900,93871603,0.06,-0.17,-0.04,580.184936523,0.69,0.37,294.11,293.6,0.0,0.0
