timestamp,TimeUS,DesR,R,IR,IRErr,DesP,P,DesY,Y,ErrRP,ErrYaw
1526668702.17367387,28273686,0.0,0.92,0.0,8219.37011719,0.0,0.3,355.92,355.92,0.0,0.0
1526668702.27446699,28374479,0.0,0.94,0.0,8393.86816406,0.0,0.33,353.89,353.89,0.0,0.0
1526668702.37442684,28474439,0.0,0.97,0.0,8583.97558594,0.0,0.35,353.81,353.81,0.0,0.0
1526668702.47438693,28574399,0.0,0.98,0.0,8763.68164062,0.0,0.39,353.72,353.72,0.0,0.0
1526668702.57434702,28674359,0.0,0.99,0.0,8906.42285156,0.0,0.4,353.61,353.61,0.0,0.0
1526668702.67430687,28774319,0.0,1.0,0.0,9038.72265625,0.0,0.4,353.51,353.51,0.0,0.0
1526668702.77426696,28874279,0.0,1.01,0.0,9164.76953125,0.0,0.4,353.41,353.41,0.0,0.0
1526668702.87422705,28974239,0.0,1.02,0.0,9298.70605469,0.0,0.4,353.32,353.32,0.0,0.0
1526668702.97418690,29074199,0.0,1.03,0.0,9413.04980469,0.0,0.39,353.23,353.23,0.0,0.0
1526668703.07414699,29174159,0.0,1.04,0.0,9533.26074219,0.0,0.41,353.12,353.12,0.0,0.0
1526668703.17410684,29274119,0.0,1.04,0.0,9639.93359375,0.0,0.43,353.0,353.0,0.0,0.0
1526668703.27406693,29374079,0.0,1.06,0.0,9746.71582031,0.0,0.44,352.87,352.87,0.0,0.0
1526668703.37402701,29474039,0.0,1.09,0.0,9883.85742188,0.0,0.45,352.77,352.77,0.0,0.0
1526668703.47398686,29573999,0.0,1.13,0.0,10046.4941406,0.0,0.44,352.68,352.68,0.0,0.0
1526668703.57394695,29673959,0.0,1.16,0.0,10235.9628906,0.0,0.43,352.6,352.6,0.0,0.0
1526668703.67390704,29773919,0.0,1.19,0.0,10446.4023438,0.0,0.44,352.49,352.49,0.0,0.0
1526668703.77386689,29873879,0.0,1.21,0.0,10663.4433594,0.0,0.44,352.38,352.38,0.0,0.0
1526668703.87382698,29973839,0.0,1.23,0.0,10883.3886719,0.0,0.45,352.27,352.27,0.0,0.0
1526668703.97378683,30073799,0.0,1.23,0.0,11095.4042969,0.0,0.46,352.14,352.14,0.0,0.0
1526668704.07374692,30173759,0.0,1.26,0.0,11306.7216797,0.0,0.46,352.02,352.02,0.0,0.0
1526668704.17370701,30273719,0.0,1.28,0.0,11525.9707031,0.0,0.45,351.92,351.92,0.0,0.0
1526668704.27449989,30374512,0.0,1.29,0.0,11743.0986328,0.0,0.45,351.83,351.83,0.0,0.0
1526668704.37445998,30474472,0.0,1.28,0.0,11937.0703125,0.0,0.42,351.73,351.73,0.0,0.0
1526668704.47441983,30574432,0.0,1.28,0.0,12109.4208984,0.0,0.4,351.65,351.65,0.0,0.0
1526668704.57437992,30674392,0.0,1.29,0.0,16641.0,0.0,0.4,351.56,351.56,0.0,0.0
1526668704.67434001,30774352,0.0,1.3,0.0,16881.0488281,0.0,0.39,351.49,351.49,0.0,0.0
1526668704.77429986,30874312,0.0,1.3,0.0,16890.4082031,0.0,0.4,351.44,351.44,0.0,0.0
1526668704.87425995,30974272,0.0,1.31,0.0,16977.703125,0.0,0.41,351.41,351.41,0.0,0.0
1526668704.97422004,31074232,0.0,1.32,0.0,17024.875,0.0,0.43,351.39,351.39,0.0,0.0
1526668705.07417989,31174192,0.0,1.32,0.0,17104.3027344,0.0,0.44,351.36,351.36,0.0,0.0
1526668705.17413998,31274152,0.0,1.33,0.0,17174.9589844,0.0,0.44,351.35,351.35,0.0,0.0
1526668705.27409983,31374112,0.0,1.33,0.0,17248.1308594,0.0,0.44,351.35,351.35,0.0,0.0
1526668705.37405992,31474072,0.0,1.33,0.0,17303.0683594,0.0,0.43,351.39,351.39,0.0,0.0
1526668705.47402000,31574032,0.0,1.32,0.0,17340.6933594,0.0,0.4,351.46,351.46,0.0,0.0
1526668705.57397985,31673992,0.0,1.31,0.0,17331.9492188,0.0,0.37,351.51,351.51,0.0,0.0
1526668705.67393994,31773952,0.0,1.3,0.0,17293.9550781,0.0,0.35,351.57,351.57,0.0,0.0
1526668705.77390003,31873912,0.0,1.26,0.0,17222.6269531,0.0,0.35,351.64,351.64,0.0,0.0
1526668705.87385988,31973872,0.0,1.21,0.0,17077.2167969,0.0,0.36,351.71,351.71,0.0,0.0
1526668705.97381997,32073832,0.0,1.17,0.0,16865.1875,0.0,0.36,351.78,351.78,0.0,0.0
1526668706.07377982,32173792,0.0,1.16,0.0,16641.0,0.0,0.36,351.86,351.86,0.0,0.0
1526668706.17373991,32273752,0.0,1.15,0.0,16441.5273438,0.0,0.36,351.96,351.96,0.0,0.0
1526668706.27370000,32373712,0.0,1.14,0.0,16248.5625,0.0,0.36,352.07,352.07,0.0,0.0
1526668706.37449288,32474505,0.0,1.12,0.0,16051.1640625,0.0,0.34,352.19,352.19,0.0,0.0
1526668706.47445297,32574465,0.0,1.12,0.0,15866.8183594,0.0,0.33,352.29,352.29,0.0,0.0
1526668706.57441282,32674425,0.0,1.12,0.0,15700.8847656,0.0,0.31,352.38,352.38,0.0,0.0
1526668706.67437291,32774385,0.0,1.13,0.0,15554.7490234,0.0,0.3,352.47,352.47,0.0,0.0
1526668706.77433300,32874345,0.0,1.16,0.0,15439.3925781,0.0,0.3,352.57,352.57,0.0,0.0
1526668706.87429285,32974305,0.0,1.2,0.0,15370.5654297,0.0,0.28,352.67,352.67,0.0,0.0
1526668706.97425294,33074265,0.0,1.22,0.0,15337.4550781,0.0,0.27,352.77,352.77,0.0,0.0
1526668707.07421303,33174225,0.0,1.23,0.0,15322.5166016,0.0,0.25,352.85,352.85,0.0,0.0
1526668707.17417288,33274185,0.13,1.12,0.01,12157.5371094,-0.05,0.15,352.88,352.92,0.0,0.0
1526668707.27413297,33374145,-0.04,0.82,0.02,9058.45410156,-0.07,0.0,352.88,352.99,0.0,0.0
1526668707.37409282,33474105,-0.15,0.53,0.0,6666.32421875,-0.07,-0.11,352.88,353.06,0.0,0.0
1526668707.47405291,33574065,-0.28,0.27,-0.04,5028.16552734,-0.08,-0.19,352.88,353.08,0.0,0.0
1526668707.57401299,33674025,-0.35,0.04,-0.12,3926.59521484,-0.07,-0.25,352.88,353.07,0.0,0.0
1526668707.67397285,33773985,-0.42,-0.12,-0.21,3181.6809082,-0.07,-0.28,352.88,353.05,0.0,0.0
1526668707.77393293,33873945,-0.45,-0.25,-0.31,2663.14770508,-0.03,-0.29,352.88,353.0,0.0,0.0
1526668707.87389302,33973905,-0.44,-0.38,-0.38,2286.14648438,0.0,-0.28,352.88,352.98,0.0,0.0
1526668707.97385287,34073865,-0.4,-0.53,-0.43,2004.74768066,0.02,-0.23,352.88,352.95,0.0,0.0
1526668708.07381296,34173825,-0.34,-0.64,-0.45,1805.4276123,0.06,-0.12,352.88,352.9,0.0,0.0
1526668708.17377305,34273785,-0.24,-0.64,-0.43,1664.45141602,0.13,0.01,352.88,352.89,0.0,0.0
1526668708.27373290,34373745,-0.15,-0.59,-0.37,1555.55334473,0.14,0.12,352.88,352.92,0.0,0.0
1526668708.37369299,34473705,-0.03,-0.49,-0.29,1461.99707031,0.15,0.26,352.88,353.03,0.0,0.0
1526668708.47448587,34574498,0.06,-0.35,-0.18,1375.25817871,0.13,0.35,352.88,353.08,0.0,0.0
1526668708.57444596,34674458,0.11,-0.17,-0.07,1290.36657715,0.09,0.42,352.88,353.08,0.0,0.0
1526668708.67440605,34774418,0.08,-0.05,0.02,1208.9486084,0.0,0.44,352.88,353.02,0.0,0.0
1526668708.77436590,34874378,0.04,0.08,0.09,1135.3338623,-0.13,0.39,352.88,352.87,0.0,0.0
1526668708.87432599,34974338,-0.02,0.23,0.11,1070.75793457,-0.23,0.26,352.88,352.68,0.0,0.0
1526668708.97428584,35074298,-0.12,0.29,0.09,1026.25305176,-0.3,0.12,352.88,352.44,0.0,0.0
1526668709.07424593,35174258,-0.24,0.28,0.03,996.873413086,-0.34,-0.06,352.88,352.24,0.0,0.0
1526668709.17420602,35274218,-0.38,0.24,-0.05,984.933654785,-0.37,-0.25,352.88,352.0,0.0,0.0
1526668709.27416587,35374178,-0.47,0.13,-0.18,983.267089844,-0.31,-0.36,352.88,351.88,0.0,0.0
1526668709.37412596,35474138,-0.55,-0.04,-0.31,978.842102051,-0.25,-0.43,352.88,351.93,0.0,0.0
1526668709.47408605,35574098,-0.6,-0.2,-0.44,965.039001465,-0.15,-0.46,352.88,352.09,0.0,0.0
1526668709.57404590,35674058,-0.6,-0.35,-0.54,945.641601562,-0.03,-0.41,352.88,352.37,0.0,0.0
1526668709.67400599,35774018,-0.57,-0.45,-0.61,920.705505371,0.01,-0.28,352.88,352.66,0.0,0.0
1526668709.77396584,35873978,-0.48,-0.56,-0.64,65.671661377,0.05,-0.15,352.88,352.93,0.0,0.0
1526668709.87392592,35973938,-0.37,-0.66,-0.61,14.614610672,0.07,-0.01,352.88,353.16,0.0,0.0
1526668709.97388601,36073898,-0.22,-0.63,-0.55,28.144865036,0.07,0.09,354.09,354.56,0.0,0.0
1526668710.07384586,36173858,-0.13,-0.58,-0.44,61.4147453308,0.06,0.16,354.09,354.68,0.0,0.0
1526668710.17380595,36273818,-0.04,-0.48,-0.31,101.19745636,0.05,0.19,354.09,354.73,0.0,0.0
1526668710.27376604,36373778,0.03,-0.34,-0.18,130.227737427,-0.01,0.16,354.09,354.71,0.0,0.0
1526668710.37372589,36473738,0.09,-0.25,-0.06,156.061218262,-0.1,0.15,354.09,354.62,0.0,0.0
1526668710.47368598,36573698,0.1,-0.16,0.04,192.915344238,-0.15,0.19,354.09,354.48,0.0,0.0
1526668710.57447886,36674491,0.1,-0.03,0.11,203.741012573,-0.21,0.12,354.09,354.33,0.0,0.0
1526668710.67443895,36774451,0.08,0.02,0.15,203.339096069,-0.29,0.0,354.09,354.16,0.0,0.0
1526668710.77439904,36874411,0.04,0.05,0.15,198.462860107,-0.34,-0.12,354.09,354.01,0.0,0.0
1526668710.87435889,36974371,-0.03,0.08,0.13,186.381454468,-0.32,-0.22,354.09,353.91,0.0,0.0
1526668710.97431898,37074331,-0.1,0.07,0.08,172.44682312,-0.3,-0.28,354.09,353.82,0.0,0.0
1526668711.07427883,37174291,-0.13,0.05,0.01,159.879104614,-0.26,-0.36,354.09,353.71,0.0,0.0
1526668711.17423892,37274251,-0.13,-0.02,-0.05,149.959594727,-0.23,-0.4,354.09,353.66,0.0,0.0
1526668711.27419901,37374211,-0.12,-0.15,-0.11,140.417999268,-0.14,-0.41,354.09,353.66,0.0,0.0
1526668711.37415886,37474171,-0.08,-0.22,-0.14,133.268981934,-0.05,-0.29,354.09,353.65,0.0,0.0
1526668711.47411895,37574131,-0.02,-0.3,-0.15,132.994522095,0.0,-0.18,354.09,353.71,0.0,0.0
1526668711.57407904,37674091,0.11,-0.33,-0.13,142.399261475,0.01,-0.11,354.09,353.77,0.0,0.0
1526668711.67403889,37774051,0.19,-0.29,-0.07,159.460250854,0.05,0.0,354.22,354.0,0.0,0.0
1526668711.77399898,37874011,0.28,-0.19,0.01,175.502716064,0.09,0.06,354.22,354.1,0.0,0.0
1526668711.87395883,37973971,0.34,-0.06,0.11,185.690246582,0.16,0.06,354.22,354.15,0.0,0.0
1526668711.97391891,38073931,0.41,0.04,0.22,193.134140015,0.21,0.07,354.22,354.15,0.0,0.0
1526668712.07387900,38173891,0.46,0.15,0.32,198.031387329,0.21,0.07,354.22,354.11,0.0,0.0
1526668712.17383885,38273851,0.53,0.25,0.4,201.78175354,0.23,0.03,354.22,354.18,0.0,0.0
1526668712.27379894,38373811,0.5,0.36,0.47,201.546920776,0.27,0.0,227.03,354.24,0.0,0.0
1526668712.37375903,38473771,-1.96,0.05,0.23,333.585540771,2.16,0.08,227.03,353.89,0.0,0.01
1526668712.47371888,38573731,-3.57,-0.89,-0.53,700.477294922,3.33,0.47,227.03,352.77,0.0,0.03
1526668712.57367897,38673691,-4.7,-2.15,-1.64,1288.24523926,3.99,1.07,227.03,350.97,0.0,0.05
1526668712.67447186,38774484,-5.61,-3.45,-2.91,1831.33935547,4.33,1.83,227.03,348.68,0.0,0.05
1526668712.77443194,38874444,-6.26,-4.56,-4.19,1896.61523438,4.42,2.54,227.03,345.97,0.0,0.05
1526668712.87439203,38974404,-6.48,-5.54,-5.33,1685.54272461,4.15,3.17,227.03,343.02,0.0,0.05
1526668712.97435188,39074364,-6.37,-6.18,-6.18,1427.98535156,3.65,3.68,227.03,339.87,0.0,0.05
1526668713.07431197,39174324,-6.06,-6.42,-6.67,1254.91809082,3.0,4.04,227.03,336.66,0.0,0.04
1526668713.17427182,39274284,-5.62,-6.28,-6.79,1296.42712402,2.23,4.14,227.03,333.31,0.0,0.03
1526668713.27423191,39374244,-5.14,-5.84,-6.59,1618.64868164,1.33,3.99,227.03,329.86,0.0,0.03
1526668713.37419200,39474204,-4.63,-5.2,-6.14,2198.70239258,0.4,3.55,227.03,326.32,0.0,0.03
1526668713.47415185,39574164,-4.13,-4.5,-5.52,2899.64038086,-0.53,2.82,227.03,322.73,0.0,0.03
1526668713.57411194,39674124,-3.74,-3.82,-4.83,3530.07226562,-1.38,1.88,227.03,319.06,0.0,0.03
1526668713.67407203,39774084,-3.44,-3.28,-4.16,3954.1418457,-2.12,0.84,227.03,315.39,0.0,0.04
1526668713.77403188,39874044,-3.24,-2.87,-3.57,4122.12890625,-2.71,-0.17,227.03,311.64,0.0,0.04
1526668713.87399197,39974004,-3.13,-2.55,-3.12,4119.75927734,-3.14,-1.17,227.03,307.9,0.0,0.04
1526668713.97395205,40073964,-3.06,-2.41,-2.81,4014.29296875,-3.36,-2.13,227.03,304.05,0.0,0.05
1526668714.07391191,40173924,-3.08,-2.45,-2.65,3832.53051758,-3.38,-2.87,227.03,300.22,0.0,0.05
1526668714.17387199,40273884,-2.94,-2.62,-2.6,3626.78149414,-3.22,-3.37,227.03,296.44,0.0,0.05
1526668714.27383184,40373844,-2.64,-2.82,-2.59,3445.30786133,-2.89,-3.62,227.03,292.64,0.0,0.04
1526668714.37379193,40473804,-2.2,-3.0,-2.55,3335.23901367,-2.45,-3.62,227.03,288.76,0.0,0.04
1526668714.47375202,40573764,-1.7,-3.05,-2.41,3317.77636719,-1.87,-3.33,227.03,284.84,0.0,0.03
1526668714.57371187,40673724,-1.19,-2.99,-2.17,3412.92797852,-1.28,-2.79,227.03,280.89,0.0,0.02
1526668714.67450500,40774517,-0.61,-2.74,-1.81,3603.85644531,-0.71,-2.07,227.03,276.91,0.0,0.02
1526668714.77446485,40874477,0.0,-2.35,-1.35,3841.37548828,-0.14,-1.33,227.03,272.95,0.0,0.01
1526668714.87442493,40974437,0.58,-1.84,-0.8,4101.19775391,0.34,-0.55,227.03,268.98,0.0,0.01
1526668714.97438502,41074397,1.08,-1.17,-0.21,9106.29199219,0.8,0.18,227.03,264.96,0.0,0.01
1526668715.07434487,41174357,1.41,-0.47,0.36,8056.74853516,1.13,0.79,227.03,260.97,0.0,0.01
1526668715.17430496,41274317,1.5,0.2,0.87,6903.15283203,1.21,1.29,227.03,256.99,0.0,0.02
1526668715.27426505,41374277,1.78,0.82,1.29,5699.41699219,1.74,1.68,227.03,252.99,0.0,0.02
1526668715.37422490,41474237,1.64,1.31,1.58,4652.125,1.71,1.92,256.26,248.96,0.0,0.02
1526668715.47418499,41574197,1.39,1.6,1.69,3792.36914062,1.42,1.95,256.26,245.43,0.0,0.02
1526668715.57414484,41674157,1.83,1.79,1.71,3168.36352539,-2.31,1.57,256.26,243.52,0.0,0.02
1526668715.67410493,41774117,2.11,2.25,1.75,2850.20678711,-5.33,0.31,256.26,243.0,0.0,0.02
1526668715.77406502,41874077,2.11,2.72,1.8,3159.72998047,-7.69,-1.63,256.26,243.55,0.0,0.03
1526668715.87402487,41974037,1.86,2.94,1.81,4024.13671875,-9.67,-3.89,256.26,244.95,0.0,0.03
1526668715.97398496,42073997,1.27,2.84,1.71,4908.84521484,-10.91,-6.09,256.26,247.02,0.0,0.02
1526668716.07394505,42173957,0.42,2.38,1.44,5441.86523438,-11.3,-7.99,256.26,249.56,0.0,0.01
1526668716.17390490,42273917,-0.43,1.59,0.97,5508.97216797,-11.18,-9.44,256.26,252.25,0.0,0.0
1526668716.27386498,42373877,-1.13,0.53,0.34,5215.58740234,-10.8,-10.38,256.26,254.78,0.0,0.0
1526668716.37382483,42473837,-1.65,-0.54,-0.36,4851.15722656,-10.36,-10.8,256.26,256.91,0.0,0.01
1526668716.47378492,42573797,-1.97,-1.47,-1.06,4592.1015625,-10.07,-10.85,256.26,258.43,0.0,0.01
1526668716.57374501,42673757,-2.02,-2.16,-1.66,4438.11328125,-9.95,-10.68,256.26,259.35,0.0,0.01
1526668716.67370486,42773717,-1.84,-2.59,-2.08,4324.44189453,-9.94,-10.43,256.26,259.7,0.0,0.01
1526668716.77449799,42874510,-1.49,-2.71,-2.27,4208.33105469,-10.05,-10.17,256.26,259.61,0.0,0.0
1526668716.87445784,42974470,-1.07,-2.58,-2.22,4069.75219727,-10.22,-10.03,256.26,259.23,0.0,0.0
1526668716.97441792,43074430,-0.65,-2.23,-1.95,3916.50341797,-10.48,-9.93,256.26,258.63,0.0,0.0
1526668717.07437801,43174390,-0.22,-1.7,-1.53,3752.5222168,-10.79,-9.92,256.26,257.83,0.0,0.0
1526668717.17433786,43274350,0.16,-1.11,-1.02,3588.30224609,-11.12,-10.04,256.26,256.95,0.0,0.01
1526668717.27429795,43374310,0.51,-0.42,-0.47,3433.34863281,-11.46,-10.24,256.26,256.1,0.0,0.01
1526668717.37425804,43474270,0.75,0.21,0.05,3296.28979492,-11.8,-10.59,256.26,255.42,0.0,0.01
1526668717.47421789,43574230,0.86,0.67,0.5,3174.8425293,-12.16,-11.0,256.26,254.96,0.0,0.01
1526668717.57417798,43674190,0.85,1.0,0.84,247.938262939,-12.49,-11.43,256.26,254.72,0.0,0.01
1526668717.67413783,43774150,0.73,1.2,1.03,266.592651367,-12.8,-11.89,256.26,254.72,0.0,0.01
1526668717.77409792,43874110,0.52,1.21,1.07,244.292648315,-13.08,-12.34,256.26,254.96,0.0,0.01
1526668717.87405801,43974070,0.3,1.04,0.97,197.198486328,-13.34,-12.68,256.26,255.28,0.0,0.0
1526668717.97401786,44074030,0.06,0.86,0.77,160.735198975,-13.41,-12.98,256.26,255.64,0.0,0.0
1526668718.07397795,44173990,-0.14,0.6,0.49,144.156814575,-13.31,-13.26,256.26,255.95,0.0,0.0
1526668718.17393804,44273950,-0.33,0.33,0.19,146.063140869,-13.19,-13.44,256.26,256.22,0.0,0.0
1526668718.27389789,44373910,-0.49,0.01,-0.11,149.081604004,-13.01,-13.55,256.26,256.51,0.0,0.0
1526668718.37385798,44473870,-0.59,-0.34,-0.38,141.427185059,-12.85,-13.55,256.26,256.7,0.0,0.0
1526668718.47381783,44573830,-0.64,-0.66,-0.6,126.783599854,-12.73,-13.41,256.26,256.79,0.0,0.0
1526668718.57377791,44673790,-0.6,-0.84,-0.74,120.610366821,-12.65,-13.24,256.26,256.74,0.0,0.0
1526668718.67373800,44773750,-0.51,-0.93,-0.81,120.408958435,-12.61,-13.08,256.26,256.59,0.0,0.0
1526668718.77369785,44873710,-0.37,-0.89,-0.79,120.38104248,-12.62,-12.97,256.26,256.41,0.0,0.0
1526668718.87449098,44974503,-0.21,-0.8,-0.69,119.31413269,-12.69,-12.84,256.26,256.25,0.0,0.0
1526668718.97445083,45074463,-0.05,-0.6,-0.54,115.643753052,-12.77,-12.67,256.26,255.99,0.0,0.0
1526668719.07441092,45174423,0.08,-0.34,-0.35,108.30922699,-12.9,-12.59,256.26,255.77,0.0,0.0
1526668719.17437100,45274383,0.18,-0.08,-0.16,103.147949219,-13.05,-12.62,256.26,255.57,0.0,0.0
1526668719.27433085,45374343,0.27,0.21,0.02,108.198280334,-13.21,-12.69,256.26,255.41,0.0,0.0
1526668719.37429094,45474303,0.3,0.44,0.17,131.971496582,-13.4,-12.81,256.26,255.28,0.0,0.0
1526668719.47425103,45574263,0.25,0.58,0.29,165.477706909,-13.59,-12.95,256.26,255.32,0.0,0.0
1526668719.57421088,45674223,0.19,0.63,0.34,198.528656006,-13.79,-13.13,256.26,255.36,0.0,0.0
1526668719.67417097,45774183,0.12,0.66,0.34,230.977020264,-13.99,-13.33,256.26,255.4,0.0,0.0
1526668719.77413082,45874143,0.02,0.61,0.29,269.361907959,-14.18,-13.62,256.26,255.55,0.0,0.0
1526668719.87409091,45974103,-0.12,0.53,0.2,304.16494751,-14.34,-13.88,256.26,255.77,0.0,0.0
1526668719.97405100,46074063,-0.31,0.39,0.07,334.115631104,-14.46,-14.13,256.26,256.11,0.0,0.0
1526668720.07401085,46174023,-0.44,0.17,-0.09,354.274719238,-14.56,-14.4,256.26,256.46,0.0,0.0
1526668720.17397094,46273983,-0.52,-0.06,-0.26,412.457946777,-14.61,-14.57,256.26,256.7,0.0,0.0
1526668720.27393103,46373943,-0.61,-0.29,-0.42,256.055114746,-14.7,-14.68,256.26,256.93,0.0,0.0
1526668720.37389088,46473903,-0.66,-0.51,-0.56,181.841049194,-14.77,-14.7,256.26,257.07,0.0,0.0
1526668720.47385097,46573863,-0.64,-0.72,-0.66,125.526878357,-14.84,-14.74,256.26,257.13,0.0,0.0
1526668720.57381105,46673823,-0.6,-0.79,-0.72,105.846443176,-14.93,-14.76,256.26,257.13,0.0,0.0
1526668720.67377090,46773783,-0.51,-0.72,-0.72,87.9313659668,-15.01,-14.81,256.26,256.99,0.0,0.0
1526668720.77373099,46873743,-0.37,-0.59,-0.67,77.1356430054,-15.1,-14.87,256.26,256.77,0.0,0.0
1526668720.87369084,46973703,-0.21,-0.44,-0.56,84.6790390015,-15.2,-14.96,256.26,256.54,0.0,0.01
1526668720.97448397,47074496,-0.09,-0.37,-0.42,85.7289810181,-15.32,-15.0,256.26,256.36,0.0,0.0
1526668721.07444382,47174456,0.01,-0.32,-0.27,77.3141708374,-15.41,-15.04,256.26,256.2,0.0,0.0
1526668721.17440391,47274416,0.12,-0.21,-0.11,74.2136383057,-15.52,-15.12,256.26,256.08,0.0,0.0
1526668721.27436399,47374376,0.21,-0.09,0.02,76.9180908203,-15.63,-15.22,256.26,256.01,0.0,0.0
1526668721.37432384,47474336,0.29,-0.03,0.15,91.3927307129,-15.74,-15.31,84.78,255.97,0.0,0.0
1526668721.47428393,47574296,0.43,-0.46,0.27,232.32635498,-12.9,-15.56,84.78,255.68,0.0,0.01
1526668721.57424402,47674256,0.73,-1.29,0.39,1333.64550781,-10.1,-14.98,84.78,254.65,0.0,0.0
1526668721.67420387,47774216,1.17,-1.86,0.58,4237.36083984,-8.72,-13.52,84.78,252.89,0.0,0.01
1526668721.77416396,47874176,1.79,-1.84,0.86,8239.05566406,-7.88,-11.72,84.78,250.54,0.0,0.01
1526668721.87412405,47974136,2.51,-1.23,1.26,11821.9589844,-7.29,-9.95,84.78,247.79,0.0,0.0
1526668721.97408390,48074096,3.27,-0.22,1.79,14014.2119141,-6.86,-8.52,84.78,244.74,0.0,0.0
1526668722.07404399,48174056,4.02,0.91,2.44,14930.8857422,-6.56,-7.49,84.78,241.49,0.0,0.01
1526668722.17400384,48274016,4.71,2.05,3.16,15051.1533203,-6.32,-6.79,84.78,238.09,0.0,0.02
1526668722.27396393,48373976,5.34,3.12,3.91,14759.4638672,-6.04,-6.34,84.78,234.53,0.0,0.03
1526668722.37392402,48473936,5.86,4.05,4.65,14308.9833984,-5.81,-5.98,84.78,230.86,0.0,0.03
1526668722.47388387,48573896,6.29,4.89,5.32,13798.3632812,-5.5,-5.67,84.78,227.07,0.0,0.03
1526668722.57384396,48673856,6.62,5.58,5.9,13282.9960938,-5.14,-5.39,84.78,223.27,0.0,0.03
1526668722.67380404,48773816,6.85,6.17,6.37,12782.6083984,-4.75,-5.15,84.78,219.45,0.0,0.03
1526668722.77376390,48873776,6.98,6.71,6.72,3.41112756729,-4.29,-4.94,84.78,215.6,0.0,0.03
1526668722.87372398,48973736,7.01,7.09,6.95,66.6620254517,-3.81,-4.78,84.78,211.72,0.0,0.03
1526668722.97368383,49073696,6.95,7.26,7.05,204.692062378,-3.25,-4.55,84.78,207.84,0.0,0.03
1526668723.07447696,49174489,6.8,7.26,7.04,288.510009766,-2.63,-4.23,84.78,203.88,0.0,0.03
1526668723.17443705,49274449,6.59,7.11,6.94,310.429138184,-2.03,-3.84,84.78,199.86,0.0,0.02
1526668723.27439690,49374409,6.34,6.88,6.75,285.899261475,-1.38,-3.37,84.78,195.8,0.0,0.02
1526668723.37435699,49474369,6.01,6.62,6.5,260.433044434,-0.72,-2.83,84.78,191.75,0.0,0.02
1526668723.47431684,49574329,5.62,6.3,6.19,241.951644897,-0.09,-2.24,84.78,187.67,0.0,0.02
1526668723.57427692,49674289,5.19,5.88,5.83,219.257080078,0.51,-1.62,84.78,183.54,0.0,0.02
1526668723.67423701,49774249,4.67,5.41,5.42,195.661422729,1.11,-0.95,84.78,179.37,0.0,0.02
1526668723.77419686,49874209,4.1,4.96,4.97,176.638381958,1.6,-0.3,84.78,175.22,0.0,0.02
1526668723.87415695,49974169,3.51,4.54,4.47,161.646636963,2.01,0.28,84.78,171.04,0.0,0.02
1526668723.97411704,50074129,2.87,4.07,3.93,156.829498291,2.32,0.8,84.78,166.94,0.0,0.02
1526668724.07407689,50174089,2.16,3.55,3.35,165.54888916,2.54,1.28,84.78,162.87,0.0,0.02
1526668724.17403698,50274049,1.36,2.99,2.72,189.235412598,2.62,1.66,84.78,158.84,0.0,0.02
1526668724.27399683,50374009,0.49,2.39,2.02,241.789779663,2.55,1.92,84.78,154.81,0.0,0.02
1526668724.37395692,50473969,-0.45,1.77,1.26,344.841522217,2.26,1.99,84.78,150.75,0.0,0.01
1526668724.47391701,50573929,-1.4,1.06,0.44,508.64743042,1.69,1.87,84.78,146.59,0.0,0.01
1526668724.57387686,50673889,-2.37,0.3,-0.42,726.670837402,0.87,1.55,84.78,142.49,0.0,0.01
1526668724.67383695,50773849,-3.28,-0.52,-1.34,1006.76287842,-0.11,1.06,84.78,138.47,0.0,0.01
1526668724.77379704,50873809,-3.49,-1.35,-2.21,1312.20227051,-0.77,0.45,84.78,134.52,0.0,0.0
1526668724.87375689,50973769,-3.33,-2.01,-2.87,1606.34399414,-1.15,-0.08,84.78,130.53,0.0,0.01
1526668724.97371697,51073729,-2.98,-2.51,-3.25,1838.94165039,-1.37,-0.53,84.78,126.5,0.0,0.01
1526668725.07367682,51173689,-2.46,-2.89,-3.32,1913.71875,-1.42,-0.87,84.78,122.45,0.0,0.01
1526668725.17446995,51274482,-1.88,-3.0,-3.09,1865.26147461,-1.39,-0.97,84.78,118.41,0.0,0.02
1526668725.27443004,51374442,-1.33,-2.92,-2.64,1799.1015625,-1.33,-0.88,84.78,114.48,0.0,0.03
1526668725.37438989,51474402,-0.91,-2.55,-2.04,2547.75708008,-1.54,-0.74,84.78,110.56,0.0,0.03
1526668725.47434998,51574362,-0.58,-2.03,-1.4,3279.91845703,-1.91,-0.74,84.78,106.66,0.0,0.03
1526668725.57430983,51674322,-0.29,-1.47,-0.78,3868.7265625,-2.33,-0.88,84.78,102.71,0.0,0.03
1526668725.67426991,51774282,-0.05,-0.92,-0.24,4143.90527344,-2.75,-1.15,84.78,98.74,0.0,0.02
1526668725.77423000,51874242,0.15,-0.37,0.18,4066.015625,-3.19,-1.56,84.78,94.86,0.0,0.02
1526668725.87418985,51974202,0.29,0.08,0.49,3721.37841797,-3.62,-2.05,84.78,90.99,0.0,0.02
1526668725.97414994,52074162,0.38,0.44,0.7,3301.87646484,-4.05,-2.59,84.78,87.32,0.0,0.01
1526668726.07411003,52174122,0.49,0.74,0.81,2878.0793457,-4.5,-3.13,84.78,84.15,0.0,0.01
1526668726.17406988,52274082,0.49,0.93,0.85,2521.8425293,-4.93,-3.64,84.78,81.69,0.0,0.0
1526668726.27402997,52374042,0.45,1.02,0.83,2264.68188477,-5.35,-4.12,84.78,80.05,0.0,0.0
1526668726.37398982,52474002,0.33,1.03,0.75,2094.87304688,-5.77,-4.53,84.78,79.24,0.0,0.01
1526668726.47394991,52573962,0.18,0.98,0.63,1988.79174805,-6.0,-4.92,84.78,79.11,0.0,0.02
1526668726.57391000,52673922,0.0,0.9,0.46,1950.23205566,-6.03,-5.32,84.78,79.51,0.0,0.02
1526668726.67386985,52773882,-0.18,0.76,0.28,1968.65197754,-5.99,-5.69,84.78,80.34,0.0,0.02
1526668726.77382994,52873842,-0.4,0.51,0.07,1985.12719727,-5.96,-5.98,84.78,81.44,0.0,0.03
1526668726.87379003,52973802,-0.58,0.18,-0.14,1951.72570801,-5.96,-6.13,84.78,82.53,0.0,0.02
1526668726.97374988,53073762,-0.74,-0.15,-0.36,1879.48400879,-5.97,-6.23,84.78,83.53,0.0,0.02
1526668727.07370996,53173722,-0.86,-0.5,-0.56,1780.04772949,-6.01,-6.26,84.78,84.4,0.0,0.02
1526668727.17450285,53274515,-0.92,-0.74,-0.73,1681.79919434,-6.1,-6.21,84.78,85.07,0.0,0.01
1526668727.27446294,53374475,-0.9,-0.91,-0.85,1593.90014648,-6.2,-6.17,84.78,85.55,0.0,0.01
1526668727.37442303,53474435,-0.84,-0.98,-0.92,1515.7722168,-6.32,-6.17,84.78,85.79,0.0,0.01
1526668727.47438288,53574395,-0.76,-1.01,-0.93,1446.05029297,-6.46,-6.15,84.78,85.82,0.0,0.01
1526668727.57434297,53674355,-0.67,-0.98,-0.88,1383.23632812,-6.64,-6.17,84.78,85.7,0.0,0.01
1526668727.67430305,53774315,-0.56,-0.87,-0.8,1326.27966309,-6.86,-6.26,84.78,85.43,0.0,0.01
1526668727.77426291,53874275,-0.46,-0.71,-0.68,1271.71850586,-7.09,-6.37,84.78,85.13,0.0,0.01
1526668727.87422299,53974235,-0.38,-0.55,-0.56,1220.96826172,-7.35,-6.56,84.78,84.83,0.0,0.01
1526668727.97418284,54074195,-0.32,-0.42,-0.43,3.8021607399,-7.6,-6.8,84.78,84.61,0.0,0.01
1526668728.07414293,54174155,-0.23,-0.33,-0.32,3.3184633255,-8.03,-7.08,84.78,84.46,0.0,0.01
1526668728.17410302,54274115,-0.19,-0.28,-0.22,9.04725551605,-8.59,-7.4,84.78,84.42,0.0,0.01
1526668728.27406287,54374075,-0.15,-0.19,-0.14,15.131362915,-9.2,-7.78,84.78,84.43,0.0,0.01
1526668728.37402296,54474035,-0.13,-0.03,-0.09,14.2709760666,-9.81,-8.26,84.78,84.45,0.0,0.02
1526668728.47398305,54573995,-0.14,0.07,-0.05,29.7275047302,-10.27,-8.84,84.78,84.5,0.0,0.02
1526668728.57394290,54673955,-0.2,0.11,-0.05,60.6371574402,-10.83,-9.43,84.78,84.6,0.0,0.02
1526668728.67390299,54773915,-0.25,0.11,-0.08,99.51146698,-11.34,-10.03,84.78,84.71,0.0,0.02
1526668728.77386284,54873875,-0.32,0.07,-0.13,136.305786133,-11.81,-10.6,84.78,84.83,0.0,0.02
1526668728.87382293,54973835,-0.38,0.06,-0.2,181.049468994,-12.25,-11.15,84.78,84.84,0.0,0.02
1526668728.97378302,55073795,-0.45,0.0,-0.27,236.56741333,-12.65,-11.7,84.78,84.85,0.0,0.02
1526668729.07374287,55173755,-0.49,-0.12,-0.36,278.307952881,-13.01,-12.26,84.78,84.82,0.0,0.02
1526668729.17370296,55273715,-0.52,-0.31,-0.43,285.778808594,-13.33,-12.7,84.78,84.75,0.0,0.02
1526668729.27449584,55374508,-0.5,-0.44,-0.49,267.653869629,-13.63,-12.98,84.78,84.73,0.0,0.01
1526668729.37445593,55474468,-0.45,-0.41,-0.52,254.017303467,-13.92,-13.36,84.78,84.67,0.0,0.02
1526668729.47441602,55574428,-0.39,-0.41,-0.52,245.458740234,-14.21,-13.71,84.78,84.58,0.0,0.02
1526668729.57437587,55674388,-0.33,-0.4,-0.49,236.059234619,-14.38,-13.93,84.78,84.5,0.0,0.01
1526668729.67433596,55774348,-0.26,-0.39,-0.43,225.14831543,-14.45,-14.05,84.78,84.47,0.0,0.01
1526668729.77429605,55874308,-0.24,-0.37,-0.37,212.927642822,-14.48,-14.17,84.78,84.47,0.0,0.01
1526668729.87425590,55974268,-0.19,-0.33,-0.3,201.854324341,-14.5,-14.3,84.78,84.35,0.0,0.01
1526668729.97421598,56074228,-0.14,-0.29,-0.23,192.911636353,-14.53,-14.37,84.78,84.28,0.0,0.01
1526668730.07417583,56174188,-0.11,-0.23,-0.17,185.064285278,-14.57,-14.43,84.78,84.24,0.0,0.01
1526668730.17413592,56274148,-0.11,-0.2,-0.12,178.29864502,-14.63,-14.47,84.78,84.22,0.0,0.01
1526668730.27409601,56374108,-0.08,-0.18,-0.09,173.389175415,-14.71,-14.5,84.78,84.17,0.0,0.01
1526668730.37405586,56474068,-0.05,-0.16,-0.06,169.668548584,-14.81,-14.54,84.78,84.11,0.0,0.01
1526668730.47401595,56574028,-0.04,-0.11,-0.04,165.023757935,-14.89,-14.61,84.78,84.1,0.0,0.01
1526668730.57397604,56673988,-0.07,-0.09,-0.03,28.1851158142,-14.97,-14.7,84.78,84.2,0.0,0.01
1526668730.67393589,56773948,-0.11,-0.04,-0.04,10.1067752838,-15.07,-14.8,84.78,84.34,0.0,0.01
1526668730.77389598,56873908,-0.15,0.0,-0.06,12.7057037354,-15.18,-14.94,84.78,84.46,0.0,0.01
1526668730.87385583,56973868,-0.19,0.03,-0.1,46.3743934631,-15.29,-15.12,84.78,84.53,0.0,0.01
1526668730.97381592,57073828,-0.24,0.0,-0.14,85.7702941895,-15.4,-15.27,84.78,84.61,0.0,0.01
1526668731.07377601,57173788,-0.27,-0.06,-0.19,114.491714478,-15.53,-15.38,84.78,84.68,0.0,0.01
1526668731.17373586,57273748,-0.33,-0.18,-0.24,112.317970276,-15.63,-15.5,84.78,84.82,0.0,0.01
1526668731.27369595,57373708,-0.37,-0.32,-0.29,97.959197998,-15.74,-15.59,84.78,84.94,0.0,0.01
1526668731.37448883,57474501,-0.42,-0.48,-0.34,94.6384811401,-15.87,-15.64,84.78,85.08,0.0,0.01
1526668731.47444892,57574461,-0.4,-0.62,-0.39,124.723297119,-15.98,-15.68,84.78,85.15,0.0,0.01
1526668731.57440901,57674421,-0.36,-0.61,-0.41,161.394592285,-16.09,-15.74,84.78,85.14,0.0,0.0
1526668731.67436886,57774381,-0.3,-0.56,-0.41,175.251495361,-16.2,-15.85,84.78,85.14,0.0,0.01
1526668731.77432895,57874341,-0.27,-0.52,-0.38,173.037902832,-14.89,-15.93,84.78,85.19,0.0,0.01
1526668731.87428904,57974301,-0.22,-0.66,-0.35,195.555114746,-14.09,-15.78,84.78,85.21,0.0,0.0
1526668731.97424889,58074261,-0.13,-0.75,-0.29,290.440368652,-13.66,-15.4,84.78,85.14,0.0,0.0
1526668732.07420897,58174221,-0.03,-0.75,-0.22,435.015533447,-13.58,-14.94,84.78,85.12,0.0,0.0
1526668732.17416883,58274181,0.06,-0.7,-0.13,595.551818848,-13.81,-14.54,84.78,85.07,0.0,0.0
1526668732.27412891,58374141,0.16,-0.54,-0.04,728.957580566,-13.86,-14.21,84.78,84.97,0.0,0.0
1526668732.37408900,58474101,0.25,-0.32,0.05,798.997802734,-14.03,-13.95,84.78,84.82,0.0,0.0
1526668732.47404885,58574061,0.3,-0.06,0.15,805.979309082,-14.31,-13.83,84.78,84.69,0.0,0.0
1526668732.57400894,58674021,0.32,0.18,0.24,776.074584961,-14.28,-13.87,84.78,84.6,0.0,0.0
1526668732.67396903,58773981,0.34,0.39,0.3,740.102172852,-14.61,-13.99,84.78,84.47,0.0,0.0
1526668732.77392888,58873941,0.35,0.58,0.34,718.814758301,-15.04,-14.24,84.78,84.25,0.0,0.0
1526668732.87388897,58973901,0.34,0.71,0.36,726.829101562,-15.16,-14.56,84.78,84.1,0.0,0.01
1526668732.97384882,59073861,0.33,0.77,0.37,755.666259766,-15.43,-14.85,84.78,83.99,0.0,0.01
1526668733.07380891,59173821,0.29,0.7,0.35,780.321777344,-15.44,-15.14,84.78,83.92,0.0,0.01
1526668733.17376900,59273781,0.23,0.67,0.32,1179.9810791,-15.65,-15.4,84.78,83.86,0.0,0.01
1526668733.27372885,59373741,0.16,0.59,0.27,1071.12438965,-15.8,-15.56,84.78,83.91,0.0,0.0
1526668733.37368894,59473701,0.09,0.5,0.21,943.163757324,-15.65,-15.62,84.78,83.99,0.0,0.0
1526668733.47448182,59574494,0.01,0.49,0.14,963.883666992,-15.74,-15.66,84.78,84.12,0.0,0.0
1526668733.57444191,59674454,-0.1,0.41,0.06,1021.71514893,-15.97,-15.73,84.78,84.31,0.0,0.0
1526668733.67440200,59774414,-0.2,0.3,-0.02,1044.99890137,-15.95,-15.8,84.78,84.51,0.0,0.0
1526668733.77436185,59874374,-0.28,0.17,-0.12,1027.17602539,-15.83,-15.9,84.78,84.64,0.0,0.0
1526668733.87432194,59974334,-0.31,0.0,-0.21,973.57019043,-15.85,-15.96,84.78,84.72,0.0,0.0
1526668733.97428203,60074294,-0.33,-0.12,-0.28,894.847229004,-15.95,-16.05,84.78,84.72,0.0,0.0
1526668734.07424188,60174254,-0.34,-0.19,-0.33,825.497680664,-16.07,-16.13,84.78,84.77,0.0,0.0
1526668734.17420197,60274214,-0.35,-0.27,-0.37,759.397827148,-16.07,-16.23,84.78,84.89,0.0,0.0
1526668734.27416205,60374174,-0.35,-0.37,-0.38,695.009765625,-15.97,-16.32,84.78,85.02,0.0,0.0
1526668734.37412190,60474134,-0.32,-0.49,-0.38,639.446960449,-15.98,-16.34,84.78,85.06,0.0,0.0
1526668734.47408199,60574094,-0.27,-0.56,-0.37,608.691162109,-15.88,-16.27,84.78,85.02,0.0,0.0
1526668734.57404184,60674054,-0.18,-0.61,-0.33,603.762939453,-16.02,-16.19,84.78,84.91,0.0,0.0
1526668734.67400193,60774014,-0.08,-0.61,-0.26,630.228637695,-16.23,-16.08,84.78,84.75,0.0,0.0
1526668734.77396202,60873974,0.01,-0.51,-0.18,659.16192627,-16.22,-16.01,84.78,84.64,0.0,0.0
1526668734.87392187,60973934,0.13,-0.37,-0.09,673.144042969,-16.1,-15.98,84.78,84.54,0.0,0.0
1526668734.97388196,61073894,0.22,-0.23,0.01,676.134216309,-16.27,-15.95,84.78,84.45,0.0,0.0
1526668735.07384205,61173854,0.28,-0.03,0.12,661.768615723,-16.19,-15.93,84.78,84.38,0.0,0.0
1526668735.17380190,61273814,0.31,0.12,0.21,636.819152832,-16.25,-15.93,84.78,84.34,0.0,0.0
1526668735.27376199,61373774,0.33,0.24,0.28,608.893981934,-16.08,-15.94,84.78,84.29,0.0,0.0
1526668735.37372184,61473734,0.33,0.34,0.34,581.633605957,-16.16,-15.96,84.78,84.19,0.0,0.0
1526668735.47368193,61573694,0.33,0.46,0.36,557.554504395,-16.26,-15.97,84.78,84.07,0.0,0.0
1526668735.57447505,61674487,0.32,0.55,0.37,542.557800293,-16.31,-16.04,84.78,84.0,0.0,0.0
1526668735.67443490,61774447,0.29,0.63,0.36,540.394592285,-16.19,-16.1,84.78,83.95,0.0,0.0
1526668735.77439499,61874407,0.22,0.61,0.33,734.271606445,-16.26,-16.16,84.78,83.99,0.0,0.0
1526668735.87435484,61974367,0.15,0.6,0.29,866.569152832,-16.21,-16.23,219.83,84.01,0.0,0.0
1526668735.97431493,62074327,0.0,0.8,0.22,1492.80310059,-12.9,-15.9,219.83,84.36,0.0,0.0
1526668736.07427502,62174287,-0.28,0.76,0.12,2280.78491211,-10.92,-14.91,219.83,85.54,0.0,0.01
1526668736.17423487,62274247,-0.7,0.58,-0.05,2728.12744141,-9.83,-13.57,219.83,87.36,0.0,0.01
1526668736.27419496,62374207,-1.22,0.32,-0.31,3002.49462891,-9.08,-12.23,219.83,89.7,0.0,0.01
1526668736.37415504,62474167,-1.79,-0.02,-0.68,3193.59033203,-8.48,-11.09,219.83,92.5,0.0,0.0
1526668736.47411489,62574127,-2.36,-0.45,-1.13,3398.56982422,-7.95,-10.2,219.83,95.52,0.0,0.0
1526668736.57407498,62674087,-2.94,-0.93,-1.66,3610.7109375,-7.46,-9.41,219.83,98.75,0.0,0.01
1526668736.67403483,62774047,-3.53,-1.42,-2.25,3883.34936523,-6.97,-8.73,219.83,102.16,0.0,0.01
1526668736.77399492,62874007,-4.09,-1.99,-2.86,4242.3046875,-6.46,-8.16,219.83,105.64,0.0,0.02
1526668736.87395501,62973967,-4.51,-2.61,-3.47,4545.49804688,-6.01,-7.6,219.83,109.22,0.0,0.02
1526668736.97391486,63073927,-4.96,-3.31,-4.05,4712.61914062,-5.46,-6.99,219.83,112.81,0.0,0.02
1526668737.07387495,63173887,-5.29,-3.88,-4.58,4758.94775391,-4.89,-6.31,219.83,116.5,0.0,0.02
1526668737.17383504,63273847,-5.52,-4.35,-5.03,4773.80273438,-4.31,-5.72,219.83,120.2,0.0,0.02
1526668737.27379489,63373807,-5.64,-4.73,-5.37,4747.31689453,-3.73,-5.16,219.83,123.93,0.0,0.02
1526668737.37375498,63473767,-5.65,-5.07,-5.6,4677.22363281,-3.14,-4.55,219.83,127.67,0.0,0.02
1526668737.47371483,63573727,-5.56,-5.27,-5.71,4540.27099609,-2.53,-3.9,219.83,131.44,0.0,0.02
1526668737.57367492,63673687,-5.37,-5.38,-5.69,4373.90771484,-1.97,-3.25,219.83,135.16,0.0,0.02
1526668737.67446804,63774480,-5.07,-5.38,-5.57,4178.33398438,-1.43,-2.63,219.83,138.89,0.0,0.02
1526668737.77442789,63874440,-4.72,-5.27,-5.34,3979.23779297,-0.95,-2.05,219.83,142.6,0.0,0.02
1526668737.87438798,63974400,-4.29,-5.02,-5.01,3790.89648438,-0.49,-1.51,219.83,146.33,0.0,0.02
1526668737.97434783,64074360,-3.77,-4.67,-4.61,3619.15527344,-0.09,-0.95,219.83,150.12,0.0,0.01
1526668738.07430792,64174320,-3.14,-4.27,-4.13,3465.79052734,0.2,-0.49,219.83,153.89,0.0,0.01
1526668738.17426801,64274280,-2.41,-3.79,-3.56,3334.87866211,0.41,-0.13,219.83,157.71,0.0,0.01
1526668738.27422786,64374240,-1.57,-3.19,-2.92,3225.55883789,0.52,0.17,219.83,161.55,0.0,0.01
1526668738.37418795,64474200,-0.61,-2.49,-2.18,934.346252441,0.53,0.39,219.83,165.35,0.0,0.01
1526668738.47414804,64574160,0.47,-1.67,-1.34,983.071350098,0.46,0.54,219.83,169.12,0.0,0.01
1526668738.57410789,64674120,1.76,-0.75,-0.39,1079.06188965,0.29,0.61,219.83,172.97,0.0,0.01
1526668738.67406797,64774080,3.27,0.36,0.71,1162.40234375,-0.02,0.54,219.83,176.89,0.0,0.0
1526668738.77402782,64874040,3.85,1.53,1.88,1180.53479004,-0.44,0.35,219.83,180.84,0.0,0.0
1526668738.87398791,64974000,3.81,2.54,2.87,1180.59533691,-0.78,0.01,219.83,184.78,0.0,0.0
1526668738.97394800,65073960,3.43,3.21,3.54,1164.11706543,-1.1,-0.41,219.83,188.74,0.0,0.01
1526668739.07390785,65173920,2.96,3.51,3.82,1151.4786377,-1.46,-0.92,219.83,192.72,0.0,0.01
1526668739.17386794,65273880,2.49,3.51,3.75,1109.83325195,-2.0,-1.37,219.83,196.76,0.0,0.02
1526668739.27382803,65373840,1.95,3.34,3.39,1018.96630859,-2.58,-1.77,219.83,200.86,0.0,0.02
1526668739.37378788,65473800,1.38,2.99,2.82,924.20123291,-3.14,-2.15,219.83,204.93,0.0,0.03
1526668739.47374797,65573760,0.8,2.54,2.11,921.503967285,-3.65,-2.56,219.83,208.98,0.0,0.03
1526668739.57370782,65673720,0.23,1.97,1.35,1078.22277832,-4.11,-3.0,219.83,213.02,0.0,0.03
1526668739.67450094,65774513,-0.29,1.33,0.58,1363.10510254,-4.5,-3.51,219.83,216.93,0.0,0.02
1526668739.77446103,65874473,-0.76,0.68,-0.12,1692.62207031,-4.88,-3.9,219.83,220.27,0.0,0.02
1526668739.87442088,65974433,-1.18,0.06,-0.75,2013.51916504,-5.23,-4.34,219.83,222.82,0.0,0.01
1526668739.97438097,66074393,-1.45,-0.52,-1.27,2279.45043945,-5.6,-4.76,219.83,224.53,0.0,0.01
1526668740.07434082,66174353,-1.48,-1.04,-1.64,2419.89208984,-5.96,-5.13,219.83,225.44,0.0,0.01
1526668740.17430091,66274313,-1.44,-1.37,-1.85,2450.12011719,-5.96,-5.39,219.83,225.55,0.0,0.02
1526668740.27426100,66374273,-1.29,-1.61,-1.91,2405.0612793,-5.86,-5.56,219.83,225.05,0.0,0.03
1526668740.37422085,66474233,-1.03,-1.69,-1.82,2307.65283203,-5.81,-5.64,219.83,224.12,0.0,0.03
1526668740.47418094,66574193,-0.71,-1.61,-1.59,2200.29833984,-5.81,-5.69,219.83,222.96,0.0,0.03
1526668740.57414103,66674153,-0.36,-1.42,-1.26,2104.84033203,-5.84,-5.69,219.83,221.79,0.0,0.04
1526668740.67410088,66774113,0.0,-1.13,-0.87,2032.50402832,-5.9,-5.59,219.83,220.65,0.0,0.03
1526668740.77406096,66874073,0.34,-0.72,-0.44,1979.33190918,-6.01,-5.53,219.83,219.69,0.0,0.03
1526668740.87402105,66974033,0.66,-0.26,-0.01,1928.20507812,-6.15,-5.55,219.83,218.99,0.0,0.03
1526668740.97398090,67073993,0.86,0.16,0.38,516.184936523,-6.32,-5.68,219.83,218.55,0.0,0.03
1526668741.07394099,67173953,0.99,0.51,0.72,479.383300781,-6.56,-5.86,219.83,218.34,0.0,0.03
1526668741.17390084,67273913,1.03,0.77,0.97,478.51373291,-6.81,-6.05,219.83,218.39,0.0,0.03
1526668741.27386093,67373873,1.03,1.01,1.13,417.327941895,-7.05,-6.31,219.83,218.66,0.0,0.02
1526668741.37382102,67473833,0.95,1.15,1.19,331.57925415,-7.3,-6.61,219.83,219.01,0.0,0.02
1526668741.47378087,67573793,0.85,1.17,1.17,267.187591553,-7.55,-6.93,219.83,219.35,0.0,0.02
1526668741.57374096,67673753,0.72,1.17,1.08,226.560531616,-7.8,-7.26,219.83,219.66,0.0,0.02
1526668741.67370105,67773713,0.54,1.09,0.93,216.837539673,-8.19,-7.62,219.83,219.88,0.0,0.02
1526668741.77449393,67874506,0.36,0.94,0.74,229.45451355,-8.73,-7.98,219.83,220.16,0.0,0.02
1526668741.87445402,67974466,0.22,0.77,0.53,255.775344849,-9.28,-8.37,219.83,220.27,0.0,0.02
1526668741.97441387,68074426,0.08,0.64,0.32,304.448486328,-9.84,-8.74,219.83,220.33,0.0,0.02
1526668742.07437396,68174386,-0.01,0.51,0.13,386.62878418,-10.37,-9.15,219.83,220.35,0.0,0.02
1526668742.17433405,68274346,-0.09,0.4,-0.02,483.310913086,-10.9,-9.61,219.83,220.4,0.0,0.02
1526668742.27429390,68374306,-0.11,0.31,-0.14,591.41229248,-11.38,-10.11,219.83,220.39,0.0,0.03
1526668742.37425399,68474266,-0.12,0.23,-0.21,699.942504883,-11.85,-10.66,219.83,220.38,0.0,0.03
1526668742.47421384,68574226,-0.15,0.09,-0.25,759.914855957,-12.3,-11.12,219.83,220.38,0.0,0.02
1526668742.57417393,68674186,-0.11,0.04,-0.25,775.331604004,-12.72,-11.58,219.83,220.28,0.0,0.03
1526668742.67413402,68774146,-0.02,0.0,-0.22,770.144104004,-13.11,-12.01,219.83,220.08,0.0,0.03
1526668742.77409387,68874106,0.07,0.03,-0.16,752.010864258,-13.51,-12.38,219.83,219.87,0.0,0.03
1526668742.87405396,68974066,0.15,0.13,-0.07,735.145874023,-13.9,-12.78,219.83,219.68,0.0,0.03
1526668742.97401404,69074026,0.22,0.23,0.02,720.951599121,-14.28,-13.2,219.83,219.54,0.0,0.03
1526668743.07397389,69173986,0.29,0.26,0.12,701.452575684,-14.64,-13.59,219.83,219.48,0.0,0.03
1526668743.17393398,69273946,0.31,0.28,0.21,674.284912109,-14.83,-13.99,219.83,219.55,0.0,0.02
1526668743.27389383,69373906,0.32,0.32,0.29,645.780334473,-14.84,-14.36,219.83,219.68,0.0,0.02
1526668743.37385392,69473866,0.34,0.3,0.34,619.139770508,-14.82,-14.67,219.83,219.78,0.0,0.02
1526668743.47381401,69573826,0.38,0.23,0.38,598.979797363,-14.79,-14.92,305.31,219.87,0.0,0.02
1526668743.57377386,69673786,1.06,0.49,0.43,31.3102283478,-11.75,-14.72,305.31,220.22,0.0,0.02
1526668743.67373395,69773746,2.28,0.7,0.71,26.133895874,-7.72,-13.46,305.31,221.38,0.0,0.01
1526668743.77369404,69873706,3.17,1.11,1.24,54.3717918396,-5.98,-11.38,305.31,223.2,0.0,0.03
1526668743.87448692,69974499,3.96,1.85,1.94,83.3482131958,-5.22,-9.26,305.31,225.61,0.0,0.03
1526668743.97444701,70074459,4.67,2.73,2.76,74.2534866333,-4.97,-7.6,305.31,228.38,0.0,0.03
1526668744.07440686,70174419,5.26,3.63,3.62,60.3528213501,-5.1,-6.48,305.31,231.47,0.0,0.02
1526668744.17436695,70274379,5.52,4.41,4.43,50.4436759949,-5.46,-5.89,305.31,234.85,0.0,0.02
1526668744.27432704,70374339,5.47,5.07,5.08,43.7476844788,-5.93,-5.65,305.31,238.39,0.0,0.02
1526668744.37428689,70474299,5.26,5.49,5.49,38.3293685913,-6.44,-5.71,305.31,241.96,0.0,0.01
1526668744.47424698,70574259,4.91,5.7,5.66,34.3913421631,-6.97,-5.99,305.31,245.6,0.0,0.01
1526668744.57420683,70674219,4.44,5.69,5.56,37.4975776672,-7.49,-6.43,305.31,249.35,0.0,0.01
1526668744.67416692,70774179,3.88,5.5,5.24,67.3978805542,-7.99,-6.95,305.31,253.25,0.0,0.01
1526668744.77412701,70874139,3.37,5.1,4.74,137.909210205,-8.46,-7.5,305.31,257.18,0.0,0.01
1526668744.87408686,70974099,2.99,4.59,4.15,247.208389282,-8.98,-8.0,305.31,261.13,0.0,0.01
1526668744.97404695,71074059,2.65,4.08,3.54,403.715454102,-9.49,-8.38,305.31,265.0,0.0,0.01
1526668745.07400703,71174019,2.33,3.53,2.97,582.436462402,-9.99,-8.72,305.31,268.89,0.0,0.01
1526668745.17396688,71273979,2.09,3.06,2.46,748.598937988,-10.39,-9.05,305.31,272.64,0.0,0.01
1526668745.27392697,71373939,1.78,2.73,2.04,946.78314209,-10.86,-9.48,305.31,276.33,0.0,0.01
1526668745.37388682,71473899,1.38,2.35,1.68,1150.43261719,-11.31,-9.96,305.31,280.17,0.0,0.01
1526668745.47384691,71573859,0.87,1.98,1.35,1307.75817871,-11.72,-10.47,305.31,284.0,0.0,0.01
1526668745.57380700,71673819,0.29,1.54,0.99,1419.11730957,-12.06,-10.98,305.31,287.8,0.0,0.01
1526668745.67376685,71773779,-0.34,1.02,0.59,1463.50146484,-12.37,-11.43,305.31,291.68,0.0,0.01
1526668745.77372694,71873739,-1.08,0.44,0.12,1458.72912598,-12.61,-11.79,305.31,295.58,0.0,0.01
1526668745.87368703,71973699,-1.91,-0.18,-0.44,1433.06286621,-12.81,-12.13,305.31,299.58,0.0,0.01
1526668745.97447991,72074492,-2.81,-1.05,-1.11,1388.51062012,-12.91,-12.49,305.31,303.44,0.0,0.01
1526668746.07444000,72174452,-3.62,-2.2,-1.86,1345.81677246,-12.98,-12.78,305.31,306.79,0.0,0.02
1526668746.17439985,72274412,-4.26,-3.38,-2.66,5150.92675781,-13.03,-12.95,305.31,309.37,0.0,0.03
1526668746.27435994,72374372,-4.61,-4.37,-3.41,7141.49072266,-13.08,-12.98,305.31,310.95,0.0,0.03
1526668746.37432003,72474332,-4.73,-5.13,-4.03,8947.35449219,-13.01,-12.99,305.31,311.66,0.0,0.04
1526668746.47427988,72574292,-4.56,-5.63,-4.46,10255.1855469,-12.97,-12.94,305.31,311.51,0.0,0.04
1526668746.57423997,72674252,-4.15,-5.75,-4.65,10920.9150391,-13.01,-12.84,305.31,310.75,0.0,0.04
1526668746.67419982,72774212,-3.54,-5.5,-4.55,10875.5029297,-13.14,-12.66,305.31,309.62,0.0,0.03
1526668746.77415991,72874172,-2.83,-4.9,-4.19,10191.1865234,-13.3,-12.57,305.31,308.31,0.0,0.03
1526668746.87412000,72974132,-2.15,-4.11,-3.61,9256.83886719,-13.49,-12.58,305.31,307.05,0.0,0.03
1526668746.97407985,73074092,-1.54,-3.21,-2.9,8298.63867188,-13.69,-12.73,305.31,305.95,0.0,0.02
1526668747.07403994,73174052,-1.01,-2.29,-2.14,7433.33056641,-13.89,-12.99,305.31,305.03,0.0,0.02
1526668747.17400002,73274012,-0.62,-1.48,-1.4,6701.86865234,-14.09,-13.28,305.31,304.36,0.0,0.02
1526668747.27395988,73373972,-0.31,-0.82,-0.74,6098.48583984,-14.25,-13.55,305.31,303.84,0.0,0.02
1526668747.37391996,73473932,-0.13,-0.3,-0.22,5595.86376953,-14.43,-13.81,305.31,303.45,0.0,0.02
1526668747.47388005,73573892,-0.08,0.06,0.13,5170.55566406,-14.56,-14.07,305.31,303.3,0.0,0.02
1526668747.57383990,73673852,-0.11,0.24,0.33,4806.51220703,-14.69,-14.31,305.31,303.33,0.0,0.02
1526668747.67379999,73773812,-0.2,0.3,0.37,4491.32763672,-14.83,-14.49,305.31,303.6,0.0,0.02
1526668747.77375984,73873772,-0.37,0.24,0.29,4213.65576172,-14.94,-14.64,305.31,304.01,0.0,0.02
1526668747.87371993,73973732,-0.55,0.11,0.11,3966.94189453,-15.06,-14.85,305.31,304.47,0.0,0.02
1526668747.97368002,74073692,-0.72,-0.05,-0.13,3748.36035156,-15.15,-15.05,305.31,304.93,0.0,0.02
1526668748.07447290,74174485,-0.9,-0.28,-0.41,3558.34326172,-15.21,-15.2,305.31,305.37,0.0,0.02
1526668748.17443299,74274445,-1.07,-0.52,-0.69,3393.26098633,-15.29,-15.31,305.31,305.75,0.0,0.02
1526668748.27439284,74374405,-1.17,-0.77,-0.94,3246.10253906,-15.36,-15.39,305.31,306.06,0.0,0.02
1526668748.37435293,74474365,-1.22,-0.96,-1.15,3114.99951172,-15.44,-15.47,305.31,306.31,0.0,0.02
1526668748.47431302,74574325,-1.2,-1.14,-1.3,2994.97070312,-15.54,-15.6,305.31,306.44,0.0,0.02
1526668748.57427287,74674285,-1.14,-1.37,-1.37,2873.93310547,-15.64,-15.68,305.31,306.52,0.0,0.02
1526668748.67423296,74774245,-1.04,-1.52,-1.37,2762.22998047,-15.74,-15.72,305.31,306.5,0.0,0.02
1526668748.77419305,74874205,-0.9,-1.56,-1.3,641.091186523,-15.82,-15.72,305.31,306.4,0.0,0.02
1526668748.87415290,74974165,-0.72,-1.5,-1.18,861.022277832,-15.92,-15.75,305.31,306.27,0.0,0.02
1526668748.97411299,75074125,-0.5,-1.35,-1.0,1004.46264648,-16.03,-15.71,305.31,306.05,0.0,0.02
1526668749.07407284,75174085,-0.28,-1.1,-0.78,1023.08459473,-16.15,-15.76,305.31,305.82,0.0,0.02
1526668749.17403293,75274045,-0.05,-0.78,-0.54,957.205871582,-16.29,-15.87,305.31,305.56,0.0,0.02
1526668749.27399302,75374005,0.11,-0.49,-0.3,853.084411621,-16.41,-15.98,305.31,305.39,0.0,0.02
1526668749.37395287,75473965,0.24,-0.22,-0.07,757.508239746,-16.53,-16.1,305.31,305.32,0.0,0.02
1526668749.47391295,75573925,0.31,0.04,0.12,669.496948242,-16.65,-16.2,305.31,305.29,0.0,0.01
1526668749.57387304,75673885,0.36,0.26,0.27,590.383117676,-16.77,-16.34,305.31,305.23,0.0,0.02
1526668749.67383289,75773845,0.39,0.42,0.37,525.523986816,-16.9,-16.52,305.31,305.2,0.0,0.02
1526668749.77379298,75873805,0.41,0.56,0.43,480.580383301,-17.01,-16.77,305.31,305.15,0.0,0.02
1526668749.87375283,75973765,0.41,0.66,0.45,462.599639893,-17.1,-17.02,305.31,305.09,0.0,0.02
1526668749.97371292,76073725,0.38,0.66,0.44,459.083770752,-17.17,-17.23,305.31,305.04,0.0,0.02
1526668750.07450604,76174518,0.34,0.59,0.41,452.681182861,-17.22,-17.37,305.31,305.1,0.0,0.02
1526668750.17446589,76274478,0.25,0.46,0.36,433.543243408,-17.24,-17.45,305.31,305.28,0.0,0.02
1526668750.27442598,76374438,0.16,0.29,0.28,407.72454834,-17.26,-17.47,305.31,305.49,0.0,0.02
1526668750.37438583,76474398,0.08,0.07,0.2,386.868408203,-17.28,-17.49,305.31,305.7,0.0,0.02
1526668750.47434592,76574358,0.11,-0.13,0.11,385.269378662,-16.59,-17.45,305.31,305.87,0.0,0.02
1526668750.57430601,76674318,0.13,-0.27,0.06,410.632751465,-16.35,-17.21,305.31,305.99,0.0,0.01
1526668750.67426586,76774278,0.17,-0.35,0.03,455.110229492,-16.27,-16.93,305.31,306.05,0.0,0.01
1526668750.77422595,76874238,0.26,-0.33,0.03,503.014678955,-16.25,-16.67,305.31,305.97,0.0,0.01
1526668750.87418604,76974198,0.36,-0.22,0.07,533.939453125,-16.28,-16.43,305.31,305.79,0.0,0.01
1526668750.97414589,77074158,0.47,-0.08,0.15,542.694152832,-16.32,-16.27,305.31,305.62,0.0,0.01
1526668751.07410598,77174118,0.6,0.11,0.26,535.727294922,-16.27,-16.16,305.31,305.38,0.0,0.01
1526668751.17406583,77274078,0.71,0.35,0.38,517.389648438,-16.15,-16.08,305.31,305.2,0.0,0.01
1526668751.27402592,77374038,0.77,0.57,0.52,497.117584229,-16.0,-16.08,305.31,305.12,0.0,0.01
1526668751.37398601,77473998,0.8,0.72,0.63,64.9057693481,-15.84,-16.02,305.31,305.15,0.0,0.01
1526668751.47394586,77573958,0.8,0.76,0.73,34.0140037537,-15.6,-15.95,305.31,305.27,0.0,0.01
1526668751.57390594,77673918,0.78,0.72,0.79,24.3181552887,-15.38,-15.88,305.31,305.43,0.0,0.01
1526668751.67386603,77773878,0.75,0.62,0.82,80.1542434692,-15.13,-15.78,305.31,305.62,0.0,0.01
1526668751.77382588,77873838,0.75,0.53,0.81,221.711303711,-14.83,-15.57,305.31,305.72,0.0,0.01
1526668751.87378597,77973798,0.78,0.49,0.8,360.883422852,-14.51,-15.35,305.31,305.7,0.0,0.01
1526668751.97374582,78073758,0.83,0.46,0.78,471.442230225,-14.17,-15.06,305.31,305.69,0.0,0.0
1526668752.07370591,78173718,0.87,0.46,0.78,549.916687012,-13.83,-14.76,305.31,305.72,0.0,0.0
1526668752.17449903,78274511,0.92,0.47,0.79,608.37701416,-13.47,-14.44,305.31,305.71,0.0,0.0
1526668752.27445889,78374471,0.97,0.5,0.82,653.725219727,-13.06,-14.11,305.31,305.7,0.0,0.0
1526668752.37441897,78474431,1.03,0.53,0.86,695.851074219,-12.67,-13.71,305.31,305.71,0.0,0.0
1526668752.47437882,78574391,1.11,0.56,0.91,741.133789062,-12.28,-13.29,305.31,305.67,0.0,0.0
1526668752.57433891,78674351,1.18,0.65,0.98,779.459106445,-11.87,-12.87,305.31,305.57,0.0,0.0
1526668752.67429900,78774311,1.27,0.78,1.05,791.405517578,-11.43,-12.48,305.31,305.38,0.0,0.0
1526668752.77425885,78874271,1.34,0.92,1.14,776.52722168,-10.95,-12.09,305.31,305.21,0.0,0.0
1526668752.87421894,78974231,1.4,1.01,1.22,758.701904297,-10.55,-11.68,305.31,305.08,0.0,0.0
1526668752.97417903,79074191,1.48,1.12,1.31,735.925415039,-9.84,-11.21,305.31,305.01,0.0,0.0
1526668753.07413888,79174151,1.51,1.21,1.39,713.049255371,-9.31,-10.69,305.31,305.02,0.0,0.0
1526668753.17409897,79274111,1.52,1.31,1.45,688.544799805,-8.93,-10.19,305.31,305.04,0.0,0.0
1526668753.27405882,79374071,1.5,1.41,1.49,658.993896484,-8.6,-9.76,305.31,305.03,0.0,0.0
1526668753.37401891,79474031,1.48,1.46,1.52,628.447692871,-8.32,-9.41,305.31,305.07,0.0,0.0
1526668753.47397900,79573991,1.45,1.41,1.52,602.311767578,-8.04,-9.04,305.31,305.16,0.0,0.0
1526668753.57393885,79673951,1.4,1.35,1.49,583.69543457,-7.76,-8.69,305.31,305.2,0.0,0.0
1526668753.67389894,79773911,1.33,1.3,1.45,569.24810791,-7.46,-8.26,305.31,305.25,0.0,0.0
1526668753.77385902,79873871,1.28,1.3,1.39,552.11151123,-7.14,-7.87,305.31,305.37,0.0,0.0
1526668753.87381887,79973831,1.23,1.28,1.33,532.295776367,-6.81,-7.53,305.31,305.44,0.0,0.0
1526668753.97377896,80073791,1.21,1.26,1.27,2.3973326683,-6.46,-7.25,305.31,305.42,0.0,0.0
1526668754.07373905,80173751,1.21,1.24,1.22,0.480821460485,-6.07,-6.93,305.31,305.46,0.0,0.0
1526668754.17369890,80273711,1.2,1.27,1.19,15.3189048767,-5.66,-6.6,305.31,305.52,0.0,0.0
1526668754.27449203,80374504,1.16,1.27,1.16,44.197883606,-5.22,-6.24,305.31,305.6,0.0,0.0
1526668754.37445188,80474464,1.14,1.22,1.15,54.8150215149,-4.69,-5.87,305.31,305.64,0.0,0.0
1526668754.47441196,80574424,1.12,1.16,1.13,47.6311569214,-4.15,-5.47,305.31,305.67,0.0,0.0
1526668754.57437205,80674384,1.08,1.07,1.12,40.6661186218,-3.57,-5.04,305.31,305.72,0.0,0.0
1526668754.67433190,80774344,1.02,0.91,1.1,59.4422950745,-2.93,-4.51,305.31,305.78,0.0,0.0
1526668754.77429199,80874304,0.99,0.79,1.08,128.636413574,-2.23,-3.85,305.31,305.79,0.0,0.01
1526668754.87425184,80974264,1.42,0.71,1.06,233.27545166,0.47,-3.15,305.32,305.78,0.0,0.01
1526668754.97421193,81074224,1.03,0.47,1.1,439.373565674,5.04,-1.72,305.32,305.76,0.0,0.02
1526668755.07417202,81174184,0.51,-0.12,1.03,1137.10449219,10.84,1.02,305.32,305.72,0.0,0.04
1526668755.17413187,81274144,0.39,-0.65,0.88,2662.58300781,12.6,4.59,305.32,305.62,0.0,0.06
1526668755.27409196,81374104,0.44,-0.62,0.73,4163.54052734,12.58,7.82,305.32,305.5,0.0,0.07
1526668755.37405205,81474064,0.55,-0.11,0.61,4684.41845703,11.58,10.06,305.32,305.34,0.0,0.06
1526668755.47401190,81574024,0.63,0.58,0.55,4484.87207031,10.03,11.09,305.32,305.18,0.0,0.04
1526668755.57397199,81673984,0.6,1.19,0.53,4307.83007812,8.09,11.05,305.32,305.03,0.0,0.02
1526668755.67393184,81773944,0.53,1.62,0.53,4530.38916016,6.05,10.18,305.32,304.97,0.0,0.0
1526668755.77389193,81873904,0.36,1.83,0.51,5094.99707031,4.08,8.74,305.32,304.96,0.0,0.01
1526668755.87385201,81973864,0.09,1.85,0.46,5799.86132812,2.3,7.02,305.32,305.03,0.0,0.02
1526668755.97381186,82073824,-0.16,1.66,0.34,6442.23242188,0.78,5.2,305.32,305.18,0.0,0.02
1526668756.07377195,82173784,-0.38,1.29,0.17,6837.91699219,-0.36,3.52,305.32,305.34,0.0,0.02
1526668756.17373204,82273744,-0.58,0.88,-0.03,6989.20214844,-1.2,2.06,305.32,305.46,0.0,0.02
1526668756.27369189,82373704,-0.75,0.48,-0.25,6978.73828125,-1.77,0.83,305.32,305.54,0.0,0.02
1526668756.37448502,82474497,-0.87,0.13,-0.47,6872.75488281,-2.11,-0.18,305.32,305.52,0.0,0.02
1526668756.47444487,82574457,-0.94,-0.15,-0.66,6721.99169922,-2.25,-0.94,305.32,305.47,0.0,0.01
1526668756.57440495,82674417,-0.93,-0.35,-0.81,2168.87939453,-2.24,-1.47,305.32,305.42,0.0,0.01
1526668756.67436504,82774377,-0.83,-0.55,-0.89,1696.90148926,-2.07,-1.81,305.32,305.41,0.0,0.0
1526668756.77432489,82874337,-0.71,-0.71,-0.9,1242.85009766,-1.85,-1.99,305.32,305.42,0.0,0.0
1526668756.87428498,82974297,-0.55,-0.82,-0.85,883.229064941,-1.61,-1.99,305.32,305.48,0.0,0.0
1526668756.97424483,83074257,-0.41,-0.85,-0.73,674.079467773,-1.34,-1.86,305.32,305.53,0.0,0.0
1526668757.07420492,83174217,-0.29,-0.82,-0.58,607.041442871,-1.03,-1.67,305.32,305.6,0.0,0.0
1526668757.17416501,83274177,-0.14,-0.77,-0.41,657.631408691,-0.76,-1.43,305.32,305.64,0.0,0.0
1526668757.27412486,83374137,0.0,-0.68,-0.23,802.638916016,-0.49,-1.13,305.32,305.68,0.0,0.01
1526668757.37408495,83474097,0.12,-0.55,-0.05,991.358825684,-0.26,-0.83,305.32,305.71,0.0,0.01
1526668757.47404504,83574057,0.26,-0.35,0.1,1137.98254395,-0.09,-0.6,305.32,305.7,0.0,0.01
1526668757.57400489,83674017,0.38,-0.15,0.24,1203.87451172,0.05,-0.4,305.32,305.68,0.0,0.01
1526668757.67396498,83773977,0.42,0.03,0.37,1221.12414551,0.22,-0.21,305.32,305.63,0.0,0.01
1526668757.77392483,83873937,0.45,0.19,0.46,1196.14453125,0.35,-0.04,305.32,305.56,0.0,0.0
1526668757.87388492,83973897,0.46,0.25,0.52,1158.26965332,0.42,0.13,305.32,305.53,0.0,0.0
1526668757.97384501,84073857,0.44,0.3,0.54,1124.0291748,0.46,0.26,305.32,305.51,0.0,0.0
1526668758.07380486,84173817,0.41,0.41,0.54,1075.36645508,0.48,0.28,305.32,305.57,0.0,0.0
1526668758.17376494,84273777,0.39,0.48,0.51,1013.15179443,0.49,0.24,305.32,305.66,0.0,0.0
1526668758.27372503,84373737,0.37,0.51,0.47,953.848815918,0.49,0.23,305.32,305.74,0.0,0.0
1526668758.37368488,84473697,0.34,0.52,0.42,903.292053223,0.51,0.26,305.32,305.74,0.0,0.0
1526668758.47447801,84574490,0.27,0.49,0.37,862.193481445,0.59,0.26,305.32,305.62,0.0,0.0
1526668758.57443786,84674450,0.19,0.38,0.31,823.820983887,0.65,0.28,305.32,305.49,0.0,0.0
1526668758.67439795,84774410,0.14,0.26,0.24,785.599182129,0.67,0.38,305.32,305.34,0.0,0.0
1526668758.77435803,84874370,0.13,0.12,0.18,750.64251709,0.67,0.51,305.32,305.23,0.0,0.0
1526668758.87431788,84974330,0.1,0.02,0.14,722.97064209,0.69,0.65,305.32,305.13,0.0,0.0
1526668758.97427797,85074290,0.1,0.0,0.1,698.671325684,0.67,0.73,305.32,305.11,0.0,0.0
1526668759.07423782,85174250,0.12,0.02,0.08,673.793884277,0.61,0.78,305.32,305.16,0.0,0.0
1526668759.17419791,85274210,0.14,0.05,0.07,8.57072353363,0.57,0.8,305.32,305.2,0.0,0.0
1526668759.27415800,85374170,0.14,0.04,0.08,12.7773303986,0.52,0.78,305.32,305.25,0.0,0.0
1526668759.37411785,85474130,0.13,0.01,0.1,34.3962173462,0.48,0.78,305.32,305.36,0.0,0.0
1526668759.47407794,85574090,0.13,0.05,0.12,50.9349784851,0.44,0.77,305.32,305.43,0.0,0.0
1526668759.57403803,85674050,0.16,0.11,0.13,46.0785865784,0.39,0.73,305.32,305.44,0.0,0.0
1526668759.67399788,85774010,0.14,0.21,0.15,38.8554344177,0.35,0.7,305.32,305.42,0.0,0.0
1526668759.77395797,85873970,0.1,0.3,0.15,50.9629325867,0.32,0.65,305.32,305.41,0.0,0.0
1526668759.87391782,85973930,0.03,0.32,0.14,82.0562515259,0.32,0.59,305.32,305.39,0.0,0.0
1526668759.97387791,86073890,-0.04,0.32,0.11,115.267654419,0.29,0.5,305.32,305.34,0.0,0.0
1526668760.07383800,86173850,-0.11,0.31,0.06,158.238800049,0.3,0.39,305.32,305.27,0.0,0.0
1526668760.17379785,86273810,-0.17,0.25,0.0,196.645492554,0.3,0.37,305.32,305.25,0.0,0.0
1526668760.27375793,86373770,-0.23,0.24,-0.06,246.100692749,0.31,0.32,305.32,305.26,0.0,0.0
1526668760.37371802,86473730,-0.29,0.19,-0.13,313.012298584,0.34,0.26,305.32,305.26,0.0,0.0
1526668760.47367787,86573690,-0.33,0.07,-0.2,366.257476807,0.36,0.21,305.32,305.27,0.0,0.0
1526668760.57447100,86674483,-0.34,-0.07,-0.27,382.647064209,0.43,0.2,305.32,305.29,0.0,0.0
1526668760.67443085,86774443,-0.39,-0.23,-0.32,372.226898193,0.5,0.16,305.32,305.23,0.0,0.0
1526668760.77439094,86874403,-0.38,-0.42,-0.36,350.488189697,0.59,0.18,305.32,305.2,0.0,0.0
1526668760.87435102,86974363,-0.33,-0.52,-0.37,337.507049561,0.71,0.27,305.32,305.22,0.0,0.0
1526668760.97431087,87074323,-0.28,-0.56,-0.37,333.439544678,0.8,0.41,305.32,305.22,0.0,0.0
1526668761.07427096,87174283,-0.17,-0.54,-0.34,336.260986328,0.87,0.53,305.32,305.22,0.0,0.0
1526668761.17423105,87274243,-0.09,-0.47,-0.28,339.207946777,0.9,0.64,305.32,305.26,0.0,0.0
1526668761.27419090,87374203,-0.01,-0.41,-0.2,341.569213867,0.91,0.77,305.32,305.28,0.0,0.0
1526668761.37415099,87474163,0.04,-0.34,-0.11,347.755371094,0.93,0.89,305.32,305.35,0.0,0.0
1526668761.47411084,87574123,0.06,-0.26,-0.02,355.614898682,0.94,0.97,305.32,305.4,0.0,0.0
1526668761.57407093,87674083,0.09,-0.13,0.04,358.641052246,0.89,1.08,305.32,305.44,0.0,0.0
1526668761.67403102,87774043,0.12,0.0,0.09,351.520385742,0.81,1.13,305.32,305.46,0.0,0.0
1526668761.77399087,87874003,0.14,0.13,0.14,1.12123262882,0.73,1.13,305.32,305.44,0.0,0.0
1526668761.87395096,87973963,0.15,0.27,0.16,32.416885376,0.63,1.01,305.32,305.35,0.0,0.0
1526668761.97391105,88073923,0.11,0.4,0.17,169.602798462,0.56,0.85,305.32,305.33,0.0,0.0
1526668762.07387090,88173883,0.06,0.4,0.16,294.260986328,0.43,0.75,305.32,305.38,0.0,0.0
1526668762.17383099,88273843,-0.01,0.37,0.13,364.139404297,0.36,0.65,305.32,305.47,0.0,0.0
1526668762.27379084,88373803,-0.09,0.3,0.07,394.626159668,0.3,0.53,305.32,305.57,0.0,0.0
1526668762.37375093,88473763,-0.16,0.2,0.0,401.944366455,0.26,0.39,305.32,305.6,0.0,0.0
1526668762.47371101,88573723,-0.21,0.12,-0.07,401.704833984,0.28,0.25,305.32,305.58,0.0,0.0
1526668762.57450390,88674516,-0.23,0.0,-0.14,388.032897949,0.32,0.14,305.32,305.59,0.0,0.0
1526668762.67446399,88774476,-0.24,-0.08,-0.2,366.588348389,0.34,0.1,305.32,305.59,0.0,0.0
1526668762.77442384,88874436,-0.23,-0.14,-0.24,344.384246826,0.36,0.08,305.32,305.6,0.0,0.0
1526668762.87438393,88974396,-0.15,-0.19,-0.26,321.387512207,0.35,0.05,305.32,305.62,0.0,0.0
1526668762.97434402,89074356,-0.09,-0.27,-0.24,295.908081055,0.38,0.05,305.32,305.63,0.0,0.0
1526668763.07430387,89174316,-0.03,-0.31,-0.19,278.294128418,0.43,0.12,305.32,305.57,0.0,0.0
1526668763.17426395,89274276,0.03,-0.33,-0.13,273.910888672,0.47,0.24,305.32,305.49,0.0,0.0
1526668763.27422404,89374236,0.05,-0.33,-0.06,292.348846436,0.5,0.38,305.32,305.4,0.0,0.0
1526668763.37418389,89474196,0.09,-0.28,0.0,318.862579346,0.51,0.41,305.32,305.38,0.0,0.0
1526668763.47414398,89574156,0.13,-0.22,0.05,346.519500732,0.48,0.43,305.32,305.42,0.0,0.0
1526668763.57410383,89674116,0.17,-0.16,0.11,371.333526611,0.45,0.45,305.32,305.47,0.0,0.0
1526668763.67406392,89774076,0.23,-0.08,0.16,389.013397217,0.44,0.54,305.32,305.48,0.0,0.0
1526668763.77402401,89874036,0.28,0.05,0.21,391.649291992,0.37,0.63,305.32,305.48,0.0,0.0
1526668763.87398386,89973996,0.3,0.14,0.25,382.322357178,0.29,0.65,305.32,305.48,0.0,0.0
1526668763.97394395,90073956,0.28,0.24,0.28,368.521728516,0.18,0.62,305.32,305.47,0.0,0.0
1526668764.07390404,90173916,0.26,0.35,0.29,352.917755127,0.05,0.53,305.32,305.46,0.0,0.0
1526668764.17386389,90273876,0.23,0.45,0.29,343.875579834,-0.05,0.37,305.32,305.49,0.0,0.0
1526668764.27382398,90373836,0.16,0.51,0.27,346.873657227,-0.08,0.16,305.32,305.53,0.0,0.0
1526668764.37378383,90473796,0.09,0.48,0.22,628.022338867,-0.09,0.0,305.32,305.57,0.0,0.0
1526668764.47374392,90573756,0.04,0.43,0.17,671.667297363,-0.02,-0.12,305.32,305.63,0.0,0.0
1526668764.57370400,90673716,0.0,0.25,0.1,549.071105957,0.05,-0.24,305.32,305.68,0.0,0.0
1526668764.67449689,90774509,-0.05,0.07,0.04,394.039703369,0.1,-0.25,305.32,305.69,0.0,0.0
1526668764.77445698,90874469,-0.06,-0.05,-0.01,297.029815674,0.18,-0.23,305.32,305.67,0.0,0.0
1526668764.87441683,90974429,-0.05,-0.15,-0.05,248.939071655,0.3,-0.11,305.32,305.62,0.0,0.0
1526668764.97437692,91074389,0.0,-0.22,-0.07,232.487808228,0.38,0.02,305.32,305.59,0.0,0.0
1526668765.07433701,91174349,0.1,-0.24,-0.06,236.489852905,0.42,0.13,305.32,305.49,0.0,0.0
1526668765.17429686,91274309,0.2,-0.22,-0.02,253.211517334,0.43,0.25,305.32,305.39,0.0,0.0
1526668765.27425694,91374269,0.28,-0.15,0.05,267.523376465,0.41,0.31,305.32,305.39,0.0,0.0
1526668765.37421703,91474229,0.34,-0.06,0.14,283.412231445,0.38,0.4,305.32,305.42,0.0,0.0
1526668765.47417688,91574189,0.4,0.05,0.23,291.297332764,0.34,0.54,305.32,305.45,0.0,0.0
1526668765.57413697,91674149,0.45,0.18,0.32,290.195678711,0.29,0.62,305.32,305.47,0.0,0.0
1526668765.67409682,91774109,0.46,0.32,0.4,279.346710205,0.2,0.62,305.32,305.56,0.0,0.0
1526668765.77405691,91874069,0.44,0.43,0.45,261.437683105,0.1,0.58,305.32,305.67,0.0,0.0
1526668765.87401700,91974029,0.4,0.51,0.48,244.240097046,0.04,0.5,305.32,305.76,0.0,0.0
1526668765.97397685,92073989,0.34,0.6,0.47,233.795928955,-0.02,0.39,305.32,305.79,0.0,0.0
1526668766.07393694,92173949,0.26,0.62,0.44,234.840927124,-0.06,0.24,305.32,305.78,0.0,0.0
1526668766.17389703,92273909,0.19,0.6,0.37,245.118621826,-0.1,0.06,305.32,305.8,0.0,0.0
1526668766.27385688,92373869,0.1,0.55,0.3,261.184082031,-0.13,-0.1,305.32,305.74,0.0,0.0
1526668766.37381697,92473829,0.0,0.49,0.2,281.941345215,-0.11,-0.18,305.32,305.62,0.0,0.0
1526668766.47377682,92573789,-0.06,0.43,0.1,311.777770996,-0.08,-0.24,305.32,305.5,0.0,0.0
1526668766.57373691,92673749,-0.14,0.29,0.01,339.582611084,-0.01,-0.28,305.32,305.37,0.0,0.0
1526668766.67369699,92773709,-0.18,0.14,-0.07,351.481872559,0.06,-0.23,305.32,305.29,0.0,0.0
1526668766.77448988,92874502,-0.19,-0.02,-0.15,350.177734375,0.15,-0.12,305.32,305.29,0.0,0.0
