timestamp,TimeUS,DesR,R,IR,IRErr,DesP,P,DesY,Y,ErrRP,ErrYaw
1526668814.27804017,26371947,0.0,0.89,0.0,7593.68310547,0.0,0.17,354.85,354.85,0.0,0.0
1526668814.37800002,26471907,0.0,0.9,0.0,7629.99511719,0.0,0.16,354.8,354.8,0.0,0.0
1526668814.47796011,26571867,0.0,0.91,0.0,7683.00683594,0.0,0.14,354.76,354.76,0.0,0.0
1526668814.57792020,26671827,0.0,0.92,0.0,7746.94580078,0.0,0.14,354.69,354.69,0.0,0.0
1526668814.67788005,26771787,0.0,0.9,0.0,7795.07714844,0.0,0.13,354.64,354.64,0.0,0.0
1526668814.77784014,26871747,0.0,0.87,0.0,7797.17138672,0.0,0.13,354.59,354.59,0.0,0.0
1526668814.87780023,26971707,0.0,0.83,0.0,7756.85986328,0.0,0.16,354.55,354.55,0.0,0.0
1526668814.97776008,27071667,0.0,0.8,0.0,7686.49511719,0.0,0.19,354.5,354.5,0.0,0.0
1526668815.07772017,27171627,0.0,0.78,0.0,7598.23974609,0.0,0.2,354.47,354.47,0.0,0.0
1526668815.17768002,27271587,0.0,0.74,0.0,7495.5859375,0.0,0.22,354.43,354.43,0.0,0.0
1526668815.27764010,27371547,0.0,0.71,0.0,7376.24755859,0.0,0.23,354.38,354.38,0.0,0.0
1526668815.37760019,27471507,0.0,0.69,0.0,7250.36767578,0.0,0.21,354.32,354.32,0.0,0.0
1526668815.47756004,27571467,0.0,0.69,0.0,7129.21679688,0.0,0.19,354.24,354.24,0.0,0.0
1526668815.57752013,27671427,0.0,0.72,0.0,7031.75244141,0.0,0.18,354.15,354.15,0.0,0.0
1526668815.67748022,27771387,0.0,0.75,0.0,6961.10986328,0.0,0.19,354.08,354.08,0.0,0.0
1526668815.77744007,27871347,0.0,0.78,0.0,6913.97167969,0.0,0.23,354.02,354.02,0.0,0.0
1526668815.87740016,27971307,0.0,0.79,0.0,6884.06982422,0.0,0.27,353.95,353.95,0.0,0.0
1526668815.97736001,28071267,0.0,0.81,0.0,6865.9375,0.0,0.32,353.85,353.85,0.0,0.0
1526668816.07732010,28171227,0.0,0.84,0.0,6843.875,0.0,0.37,353.76,353.76,0.0,0.0
1526668816.17728019,28271187,0.0,0.86,0.0,6981.64990234,0.0,0.41,353.68,353.68,0.0,0.0
1526668816.27724004,28371147,0.0,0.89,0.0,7195.13330078,0.0,0.46,353.59,353.59,0.0,0.0
1526668816.37803316,28471940,0.0,0.92,0.0,7433.95605469,0.0,0.5,353.5,353.5,0.0,0.0
1526668816.47799301,28571900,0.0,0.93,0.0,7657.54003906,0.0,0.54,353.4,353.4,0.0,0.0
1526668816.57795310,28671860,0.0,0.94,0.0,7841.48339844,0.0,0.56,353.27,353.27,0.0,0.0
1526668816.67791319,28771820,0.0,0.95,0.0,7995.70703125,0.0,0.56,353.16,353.16,0.0,0.0
1526668816.77787304,28871780,0.0,0.96,0.0,8133.91894531,0.0,0.56,353.04,353.04,0.0,0.0
1526668816.87783313,28971740,0.0,0.97,0.0,8273.45019531,0.0,0.56,352.94,352.94,0.0,0.0
1526668816.97779322,29071700,0.0,0.98,0.0,8387.98046875,0.0,0.55,352.84,352.84,0.0,0.0
1526668817.07775307,29171660,0.0,0.98,0.0,8498.52734375,0.0,0.57,352.71,352.71,0.0,0.0
1526668817.17771316,29271620,0.0,0.99,0.0,8594.34375,0.0,0.59,352.58,352.58,0.0,0.0
1526668817.27767301,29371580,0.0,1.0,0.0,8692.52148438,0.0,0.6,352.43,352.43,0.0,0.0
1526668817.37763309,29471540,0.0,1.03,0.0,8815.90722656,0.0,0.61,352.32,352.32,0.0,0.0
1526668817.47759318,29571500,0.0,1.06,0.0,8960.78515625,0.0,0.6,352.22,352.22,0.0,0.0
1526668817.57755303,29671460,0.0,1.1,0.0,9131.1484375,0.0,0.59,352.13,352.13,0.0,0.0
1526668817.67751312,29771420,0.0,1.12,0.0,9321.76757812,0.0,0.6,352.01,352.01,0.0,0.0
1526668817.77747321,29871380,0.0,1.14,0.0,9517.70507812,0.0,0.6,351.88,351.88,0.0,0.0
1526668817.87743306,29971340,0.0,1.16,0.0,9716.78515625,0.0,0.61,351.76,351.76,0.0,0.0
1526668817.97739315,30071300,0.0,1.17,0.0,9913.35742188,0.0,0.62,351.62,351.62,0.0,0.0
1526668818.07735324,30171260,0.0,1.2,0.0,10105.7822266,0.0,0.62,351.49,351.49,0.0,0.0
1526668818.17731309,30271220,0.0,1.22,0.0,10307.8251953,0.0,0.61,351.37,351.37,0.0,0.0
1526668818.27727318,30371180,0.0,1.22,0.0,10506.7890625,0.0,0.6,351.27,351.27,0.0,0.0
1526668818.37723303,30471140,0.0,1.22,0.0,10689.1728516,0.0,0.58,351.17,351.17,0.0,0.0
1526668818.47802615,30571933,0.0,1.22,0.0,10852.5917969,0.0,0.56,351.07,351.07,0.0,0.0
1526668818.57798600,30671893,0.0,1.24,0.0,11018.0322266,0.0,0.55,350.97,350.97,0.0,0.0
1526668818.67794609,30771853,0.0,1.25,0.0,15407.125,0.0,0.55,350.89,350.89,0.0,0.0
1526668818.77790618,30871813,0.0,1.25,0.0,15516.0625,0.0,0.56,350.83,350.83,0.0,0.0
1526668818.87786603,30971773,0.0,1.26,0.0,15608.8496094,0.0,0.57,350.79,350.79,0.0,0.0
1526668818.97782612,31071733,0.0,1.27,0.0,15688.2871094,0.0,0.59,350.76,350.76,0.0,0.0
1526668819.07778621,31171693,0.0,1.27,0.0,15776.4296875,0.0,0.6,350.72,350.72,0.0,0.0
1526668819.17774606,31271653,-0.18,1.27,0.0,15874.3310547,-0.01,0.56,350.7,350.69,0.0,0.0
1526668819.27770615,31371613,-0.34,0.87,-0.06,15360.2070312,-0.11,0.27,350.7,350.68,0.0,0.01
1526668819.37766623,31471573,-0.44,0.46,-0.15,14183.7558594,-0.17,0.03,350.7,350.72,0.0,0.01
1526668819.47762609,31571533,-0.51,0.12,-0.26,12888.4267578,-0.2,-0.15,350.7,350.78,0.0,0.01
1526668819.57758617,31671493,-0.52,-0.14,-0.37,11693.2558594,-0.22,-0.28,350.7,350.8,0.0,0.01
1526668819.67754602,31771453,-0.55,-0.35,-0.46,10655.8154297,-0.26,-0.34,350.7,350.82,0.0,0.01
1526668819.77750611,31871413,-0.53,-0.53,-0.52,9771.30957031,-0.27,-0.35,350.7,350.83,0.0,0.0
1526668819.87746620,31971373,-0.48,-0.66,-0.56,9022.45800781,-0.26,-0.29,350.7,350.84,0.0,0.0
1526668819.97742605,32071333,-0.38,-0.71,-0.55,8390.46679688,-0.25,-0.21,350.7,350.82,0.0,0.0
1526668820.07738614,32171293,-0.28,-0.64,-0.5,7844.70507812,-0.22,-0.13,350.7,350.82,0.0,0.0
1526668820.17734623,32271253,-0.15,-0.58,-0.42,7366.8515625,-0.17,-0.08,350.7,350.88,0.0,0.0
1526668820.27730608,32371213,-0.04,-0.5,-0.31,6950.16162109,-0.12,-0.03,350.7,350.96,0.0,0.0
1526668820.37726617,32471173,0.08,-0.42,-0.18,6589.25683594,-0.08,-0.01,350.7,351.01,0.0,0.0
1526668820.47722602,32571133,0.17,-0.28,-0.04,6271.37695312,-0.08,0.01,350.7,351.01,0.0,0.0
1526668820.57801914,32671926,0.24,-0.15,0.07,5983.02441406,-0.09,0.01,350.7,350.94,0.0,0.0
1526668820.67797923,32771886,0.28,-0.02,0.18,5720.99169922,-0.11,0.01,350.7,350.89,0.0,0.0
1526668820.77793908,32871846,0.29,0.16,0.27,5474.64453125,-0.09,0.05,350.7,350.86,0.0,0.0
1526668820.87789917,32971806,0.29,0.34,0.32,5238.10498047,-0.08,-0.02,350.7,350.85,0.0,0.0
1526668820.97785902,33071766,0.27,0.44,0.34,5021.26367188,-0.07,-0.09,350.7,350.84,0.0,0.0
1526668821.07781911,33171726,0.17,0.46,0.33,4824.96484375,-0.09,-0.17,350.7,350.75,0.0,0.0
1526668821.17777920,33271686,0.07,0.43,0.28,4646.17285156,-0.05,-0.22,350.7,350.65,0.0,0.0
1526668821.27773905,33371646,-0.05,0.36,0.19,244.355316162,0.04,-0.22,350.7,350.63,0.0,0.0
1526668821.37769914,33471606,-0.16,0.23,0.09,241.4349823,0.15,-0.23,350.7,350.71,0.0,0.0
1526668821.47765923,33571566,-0.23,0.02,-0.03,198.685623169,0.25,-0.2,350.7,350.83,0.0,0.0
1526668821.57761908,33671526,-0.27,-0.19,-0.14,151.903167725,0.33,-0.15,350.7,350.94,0.0,0.0
1526668821.67757916,33771486,-0.25,-0.33,-0.23,132.834289551,0.39,-0.04,350.7,351.06,0.0,0.0
1526668821.77753901,33871446,-0.22,-0.4,-0.29,131.064498901,0.45,0.11,350.7,351.11,0.0,0.0
1526668821.87749910,33971406,-0.17,-0.4,-0.31,124.776672363,0.48,0.18,350.7,351.15,0.0,0.0
1526668821.97745919,34071366,-0.08,-0.45,-0.29,130.280853271,0.47,0.25,352.05,352.48,0.0,0.0
1526668822.07741904,34171326,0.01,-0.49,-0.23,165.113052368,0.46,0.34,352.05,352.41,0.0,0.0
1526668822.17737913,34271286,0.13,-0.4,-0.14,216.72718811,0.47,0.47,352.05,352.36,0.0,0.0
1526668822.27733922,34371246,0.23,-0.26,-0.03,253.513641357,0.42,0.57,352.05,352.35,0.0,0.0
1526668822.37729907,34471206,0.32,-0.07,0.09,265.723388672,0.35,0.68,352.05,352.4,0.0,0.0
1526668822.47725916,34571166,0.34,0.13,0.2,256.662689209,0.22,0.69,352.05,352.4,0.0,0.0
1526668822.57721901,34671126,0.36,0.36,0.3,239.555099487,0.09,0.68,352.05,352.34,0.0,0.0
1526668822.67801213,34771919,0.35,0.49,0.36,230.364059448,-0.05,0.57,352.05,352.21,0.0,0.0
1526668822.77797222,34871879,0.27,0.59,0.39,231.043334961,-0.21,0.4,352.05,352.0,0.0,0.0
1526668822.87793207,34971839,0.15,0.68,0.37,253.738830566,-0.34,0.18,352.05,351.76,0.0,0.0
1526668822.97789216,35071799,0.0,0.64,0.3,298.789550781,-0.4,-0.01,352.05,351.5,0.0,0.0
1526668823.07785201,35171759,-0.14,0.51,0.19,339.611053467,-0.4,-0.24,352.05,351.28,0.0,0.01
1526668823.17781210,35271719,-0.28,0.37,0.05,373.645782471,-0.36,-0.4,352.05,351.06,0.0,0.01
1526668823.27777219,35371679,-0.38,0.19,-0.1,398.98550415,-0.26,-0.45,352.05,350.95,0.0,0.01
1526668823.37773204,35471639,-0.42,-0.01,-0.25,413.185546875,-0.13,-0.47,352.05,351.02,0.0,0.01
1526668823.47769213,35571599,-0.44,-0.19,-0.37,413.606933594,-0.03,-0.44,352.05,351.2,0.0,0.0
1526668823.57765222,35671559,-0.42,-0.32,-0.45,407.908752441,0.08,-0.34,352.05,351.5,0.0,0.0
1526668823.67761207,35771519,-0.35,-0.4,-0.49,396.799682617,0.14,-0.17,351.99,351.74,0.0,0.0
1526668823.77757215,35871479,-0.25,-0.49,-0.47,382.619781494,0.17,0.0,351.99,352.02,0.0,0.0
1526668823.87753201,35971439,-0.11,-0.52,-0.41,51.2859611511,0.17,0.16,351.99,352.25,0.0,0.0
1526668823.97749209,36071399,0.03,-0.43,-0.3,96.5073699951,0.15,0.28,351.99,352.44,0.0,0.0
1526668824.07745218,36171359,0.14,-0.29,-0.16,114.307792664,0.11,0.35,351.99,352.56,0.0,0.0
1526668824.17741203,36271319,0.21,-0.13,-0.02,118.164588928,0.07,0.36,351.99,352.61,0.0,0.0
1526668824.27737212,36371279,0.23,0.05,0.1,108.141738892,-0.01,0.29,351.99,352.59,0.0,0.0
1526668824.37733221,36471239,0.23,0.15,0.2,94.7789077759,-0.13,0.24,351.99,352.5,0.0,0.0
1526668824.47729206,36571199,0.19,0.22,0.27,86.1843414307,-0.2,0.21,351.99,352.35,0.0,0.0
1526668824.57725215,36671159,0.13,0.31,0.28,76.1133956909,-0.26,0.07,351.99,352.19,0.0,0.0
1526668824.67804503,36771952,0.04,0.3,0.26,68.6688842773,-0.3,-0.13,351.99,352.01,0.0,0.0
1526668824.77800512,36871912,-0.04,0.26,0.19,64.2797393799,-0.3,-0.3,351.99,351.86,0.0,0.0
1526668824.87796521,36971872,-0.11,0.18,0.11,63.2170677185,-0.25,-0.44,351.99,351.75,0.0,0.0
1526668824.97792506,37071832,-0.17,0.04,0.01,59.6725120544,-0.18,-0.49,351.99,351.66,0.0,0.01
1526668825.07788515,37171792,-0.21,-0.06,-0.08,56.1890716553,-0.09,-0.51,351.99,351.55,0.0,0.01
1526668825.17784524,37271752,-0.21,-0.22,-0.16,52.582988739,-0.03,-0.44,351.99,351.51,0.0,0.01
1526668825.27780509,37371712,-0.17,-0.38,-0.22,58.3766860962,0.07,-0.31,351.99,351.52,0.0,0.01
1526668825.37776518,37471672,-0.1,-0.4,-0.23,70.330329895,0.15,-0.08,351.99,351.51,0.0,0.0
1526668825.47772503,37571632,-0.03,-0.41,-0.21,85.9605789185,0.17,0.1,351.99,351.58,0.0,0.0
1526668825.57768512,37671592,0.1,-0.38,-0.16,104.553909302,0.12,0.2,351.99,351.64,0.0,0.0
1526668825.67764521,37771552,0.23,-0.29,-0.06,126.237838745,0.08,0.31,351.99,351.74,0.0,0.0
1526668825.77760506,37871512,0.31,-0.13,0.04,140.89239502,0.04,0.35,351.99,351.84,0.0,0.0
1526668825.87756515,37971472,0.35,0.07,0.16,143.547134399,-0.01,0.29,351.99,351.89,0.0,0.0
1526668825.97752523,38071432,0.36,0.23,0.27,139.919555664,-0.07,0.2,351.99,351.88,0.0,0.0
1526668826.07748508,38171392,0.34,0.38,0.34,134.05909729,-0.1,0.11,351.99,351.83,0.0,0.0
1526668826.17744517,38271352,0.28,0.47,0.38,130.182067871,-0.12,-0.03,351.99,351.9,0.0,0.0
1526668826.27740502,38371312,0.18,0.52,0.37,131.082214355,-0.1,-0.17,351.99,351.97,0.0,0.0
1526668826.37736511,38471272,0.07,0.38,0.32,131.030700684,-0.01,-0.24,351.99,352.04,0.0,0.0
1526668826.47732520,38571232,-0.01,0.22,0.24,4.37655830383,0.1,-0.23,351.99,352.18,0.0,0.0
1526668826.57728505,38671192,-0.07,0.13,0.13,2.86409068108,0.19,-0.24,351.99,352.29,0.0,0.0
1526668826.67724514,38771152,-0.11,0.02,0.03,2.822681427,0.25,-0.21,351.99,352.44,0.0,0.0
1526668826.77803802,38871945,-0.09,-0.05,-0.05,2.33440208435,0.34,-0.18,351.99,352.49,0.0,0.0
1526668826.87799811,38971905,-0.05,-0.21,-0.1,8.80229187012,0.45,-0.09,351.99,352.54,0.0,0.0
1526668826.97795820,39071865,0.02,-0.33,-0.12,51.8866195679,0.54,0.07,351.99,352.54,0.0,0.0
1526668827.07791805,39171825,0.07,-0.35,-0.1,122.138084412,0.61,0.29,351.99,352.6,0.0,0.0
1526668827.17787814,39271785,0.13,-0.29,-0.05,180.401992798,0.65,0.48,351.99,352.59,0.0,0.0
1526668827.27783823,39371745,0.17,-0.16,0.0,205.371231079,0.6,0.67,351.99,352.53,0.0,0.0
1526668827.37779808,39471705,0.23,0.03,0.07,197.603317261,0.52,0.81,351.99,352.43,0.0,0.0
1526668827.47775817,39571665,0.25,0.22,0.15,181.007583618,0.35,0.83,351.99,352.32,0.0,0.0
1526668827.57771802,39671625,0.23,0.4,0.21,181.208023071,0.18,0.73,199.13,352.17,0.0,0.0
1526668827.67767811,39771585,0.17,0.53,0.24,213.755645752,0.01,0.55,199.13,351.67,0.0,0.0
1526668827.77763820,39871545,-0.04,0.58,0.23,270.902099609,0.09,0.37,199.13,350.34,0.0,0.01
1526668827.87759805,39971505,-0.66,0.46,0.11,338.103729248,0.85,0.19,199.13,348.36,0.0,0.03
1526668827.97755814,40071465,-1.48,-0.04,-0.18,360.571594238,1.83,0.14,199.13,345.81,0.0,0.04
1526668828.07751822,40171425,-2.46,-0.87,-0.7,344.290679932,2.91,0.44,199.13,342.9,0.0,0.06
1526668828.17747808,40271385,-3.53,-1.88,-1.43,385.873260498,3.94,1.06,199.13,339.77,0.0,0.06
1526668828.27743816,40371345,-4.63,-2.99,-2.34,531.447509766,4.85,1.85,199.13,336.41,0.0,0.07
1526668828.37739801,40471305,-5.4,-4.08,-3.37,747.276123047,5.25,2.73,199.13,332.82,0.0,0.07
1526668828.47735810,40571265,-5.97,-4.98,-4.38,921.532897949,5.37,3.57,199.13,329.09,0.0,0.06
1526668828.57731819,40671225,-6.5,-5.71,-5.3,998.526611328,5.28,4.26,199.13,325.28,0.0,0.06
1526668828.67727804,40771185,-6.97,-6.28,-6.09,995.217285156,5.03,4.73,199.13,321.41,0.0,0.05
1526668828.77723813,40871145,-7.45,-6.75,-6.75,957.491638184,4.6,4.95,199.13,317.52,0.0,0.05
1526668828.87803102,40971938,-7.84,-7.17,-7.29,921.719299316,3.97,4.96,199.13,313.58,0.0,0.06
1526668828.97799110,41071898,-8.09,-7.45,-7.71,901.169006348,3.18,4.77,199.13,309.6,0.0,0.06
1526668829.07795119,41171858,-8.13,-7.57,-8.0,1264.24377441,2.24,4.37,199.13,305.66,0.0,0.05
1526668829.17791104,41271818,-8.07,-7.57,-8.14,1945.77026367,1.3,3.81,199.13,301.73,0.0,0.05
1526668829.27787113,41371778,-7.95,-7.46,-8.15,2685.71533203,0.34,3.09,199.13,297.78,0.0,0.06
1526668829.37783122,41471738,-8.0,-7.31,-8.08,3383.84033203,-0.55,2.19,199.13,293.8,0.0,0.06
1526668829.47779107,41571698,-8.29,-7.2,-8.02,4017.44750977,-1.39,1.16,199.13,289.82,0.0,0.06
1526668829.57775116,41671658,-8.66,-7.28,-8.03,4399.52197266,-2.19,0.05,199.13,285.84,0.0,0.07
1526668829.67771101,41771618,-9.03,-7.5,-8.14,4477.31005859,-2.99,-1.07,199.13,281.82,0.0,0.07
1526668829.77767110,41871578,-9.34,-7.84,-8.36,4342.12207031,-3.75,-2.17,199.13,277.76,0.0,0.07
1526668829.87763119,41971538,-9.56,-8.28,-8.64,4082.32299805,-4.44,-3.19,199.13,273.75,0.0,0.07
1526668829.97759104,42071498,-9.7,-8.75,-8.95,3752.53564453,-5.12,-4.06,199.13,269.74,0.0,0.06
1526668830.07755113,42171458,-9.76,-9.14,-9.24,3430.89428711,-5.81,-4.79,199.13,265.75,0.0,0.06
1526668830.17751122,42271418,-9.72,-9.41,-9.47,3151.12255859,-6.52,-5.41,199.13,261.74,0.0,0.05
1526668830.27747107,42371378,-9.55,-9.59,-9.62,2910.92407227,-7.28,-6.05,199.13,257.72,0.0,0.05
1526668830.37743115,42471338,-9.27,-9.6,-9.64,2704.21508789,-8.06,-6.67,199.13,253.69,0.0,0.05
1526668830.47739100,42571298,-8.91,-9.44,-9.54,2528.38037109,-8.86,-7.27,199.13,249.61,0.0,0.05
1526668830.57735109,42671258,-8.42,-9.17,-9.31,2380.14355469,-9.68,-7.87,199.13,245.55,0.0,0.05
1526668830.67731118,42771218,-7.85,-8.79,-8.95,2254.76904297,-10.5,-8.52,199.13,241.48,0.0,0.05
1526668830.77727103,42871178,-7.18,-8.31,-8.46,2144.31030273,-11.32,-9.21,199.13,237.45,0.0,0.05
1526668830.87723112,42971138,-6.38,-7.74,-7.86,2042.94470215,-12.04,-10.0,199.13,233.49,0.0,0.05
1526668830.97802401,43071931,-5.43,-7.12,-7.14,1944.07519531,-12.54,-10.72,199.13,229.48,0.0,0.05
1526668831.07798409,43171891,-4.45,-6.39,-6.31,1852.22302246,-12.97,-11.31,199.13,225.4,0.0,0.05
1526668831.17794418,43271851,-3.41,-5.6,-5.39,1776.88122559,-13.31,-11.84,199.13,221.24,0.0,0.05
1526668831.27790403,43371811,-2.33,-4.68,-4.4,1725.45410156,-13.58,-12.27,199.13,217.06,0.0,0.05
1526668831.37786412,43471771,-1.24,-3.67,-3.36,1687.33581543,-13.78,-12.65,199.13,212.91,0.0,0.05
1526668831.47782421,43571731,-0.16,-2.68,-2.29,1668.07531738,-13.9,-12.97,199.13,208.81,0.0,0.05
1526668831.57778406,43671691,0.89,-1.62,-1.21,1670.17004395,-13.95,-13.21,199.13,204.78,0.0,0.05
1526668831.67774415,43771651,1.87,-0.39,-0.14,1118.74633789,-13.95,-13.29,199.13,201.06,0.0,0.05
1526668831.77770424,43871611,2.67,0.87,0.87,664.435913086,-13.94,-13.25,199.13,197.99,0.0,0.04
1526668831.87766409,43971571,3.22,2.03,1.77,516.945617676,-13.95,-13.12,199.13,195.7,0.0,0.03
1526668831.97762418,44071531,3.49,3.06,2.52,816.897338867,-14.02,-13.07,199.13,194.24,0.0,0.02
1526668832.07758403,44171491,3.49,3.8,3.04,1496.73974609,-14.17,-13.14,199.13,193.55,0.0,0.01
1526668832.17754412,44271451,3.23,4.27,3.32,2473.71411133,-14.38,-13.35,199.13,193.55,0.0,0.0
1526668832.27750421,44371411,2.74,4.37,3.31,3566.11743164,-14.6,-13.71,199.13,194.16,0.0,0.01
1526668832.37746406,44471371,2.09,4.11,3.04,4552.90136719,-14.81,-14.16,199.13,195.1,0.0,0.03
1526668832.47742414,44571331,1.35,3.54,2.53,5252.20605469,-14.99,-14.57,199.13,196.21,0.0,0.03
1526668832.57738423,44671291,0.63,2.82,1.85,5697.95019531,-15.13,-14.93,199.13,197.31,0.0,0.04
1526668832.67734408,44771251,-0.01,1.98,1.06,5975.13964844,-15.12,-15.24,199.13,198.28,0.0,0.04
1526668832.77730417,44871211,-0.55,1.11,0.26,6123.61083984,-14.96,-15.48,199.13,199.13,0.0,0.04
1526668832.87726402,44971171,-0.97,0.25,-0.48,6138.90722656,-14.72,-15.53,199.13,199.8,0.0,0.04
1526668832.97722411,45071131,-1.19,-0.45,-1.12,6055.88476562,-14.44,-15.38,199.13,200.15,0.0,0.03
1526668833.07801723,45171924,-1.26,-1.0,-1.59,5922.72607422,-14.13,-15.14,199.13,200.29,0.0,0.03
1526668833.17797709,45271884,-1.23,-1.35,-1.86,5739.87109375,-13.84,-14.86,199.13,200.22,0.0,0.02
1526668833.27793717,45371844,-1.08,-1.48,-1.95,5548.85644531,-13.55,-14.51,199.13,199.99,0.0,0.01
1526668833.37789702,45471804,-0.88,-1.49,-1.87,5349.61376953,-13.29,-14.12,199.13,199.66,0.0,0.01
1526668833.47785711,45571764,-0.68,-1.41,-1.66,5124.39746094,-13.04,-13.7,199.13,199.38,0.0,0.01
1526668833.57781720,45671724,-0.46,-1.24,-1.37,4888.25976562,-12.82,-13.3,199.13,199.06,0.0,0.0
1526668833.67777705,45771684,-0.23,-0.97,-1.03,4659.76660156,-12.63,-12.96,199.13,198.73,0.0,0.0
1526668833.77773714,45871644,-0.05,-0.72,-0.68,4448.51318359,-12.46,-12.74,199.13,198.52,0.0,0.0
1526668833.87769723,45971604,0.06,-0.46,-0.37,4256.87744141,-12.29,-12.52,199.13,198.44,0.0,0.0
1526668833.97765708,46071564,0.09,-0.23,-0.11,4084.95141602,-12.08,-12.33,199.13,198.53,0.0,0.0
1526668834.07761717,46171524,0.07,-0.05,0.05,3926.86791992,-11.86,-12.23,199.13,198.71,0.0,0.0
1526668834.17757702,46271484,0.03,0.04,0.14,3780.06054688,-11.61,-12.11,199.13,198.86,0.0,0.0
1526668834.27753711,46371444,-0.03,0.05,0.15,117.273475647,-11.34,-11.97,199.13,199.08,0.0,0.01
1526668834.37749720,46471404,-0.12,-0.02,0.1,122.011856079,-11.03,-11.75,199.13,199.26,0.0,0.01
1526668834.47745705,46571364,-0.2,-0.16,0.0,154.136550903,-10.68,-11.52,199.13,199.42,0.0,0.01
1526668834.57741714,46671324,-0.28,-0.26,-0.11,179.910385132,-10.3,-11.25,199.13,199.54,0.0,0.01
1526668834.67737722,46771284,-0.31,-0.31,-0.24,166.202590942,-9.88,-10.95,199.13,199.53,0.0,0.01
1526668834.77733707,46871244,-0.31,-0.36,-0.35,141.972335815,-9.42,-10.6,199.13,199.44,0.0,0.01
1526668834.87729716,46971204,-0.3,-0.41,-0.42,121.834571838,-9.0,-10.2,199.13,199.33,0.0,0.01
1526668834.97725701,47071164,-0.3,-0.5,-0.46,106.961593628,-8.35,-9.7,199.13,199.25,0.0,0.01
1526668835.07805014,47171957,-0.29,-0.58,-0.48,101.260635376,-7.77,-9.13,199.13,199.17,0.0,0.01
1526668835.17801023,47271917,-0.26,-0.59,-0.47,103.8465271,-7.38,-8.56,199.13,199.11,0.0,0.01
1526668835.27797008,47371877,-0.22,-0.56,-0.43,107.465354919,-7.11,-8.05,199.13,199.09,0.0,0.01
1526668835.37793016,47471837,-0.16,-0.53,-0.38,113.190940857,-6.87,-7.57,199.13,199.07,0.0,0.01
1526668835.47789001,47571797,-0.07,-0.46,-0.32,118.721817017,-6.65,-7.19,199.13,199.06,0.0,0.0
1526668835.57785010,47671757,-0.01,-0.38,-0.23,124.849861145,-6.43,-6.88,199.13,199.08,0.0,0.0
1526668835.67781019,47771717,-0.01,-0.3,-0.16,129.981140137,-6.22,-6.59,199.13,199.1,0.0,0.0
1526668835.77777004,47871677,-0.02,-0.22,-0.09,132.868927002,-5.99,-6.36,199.13,199.07,0.0,0.0
1526668835.87773013,47971637,-0.04,-0.13,-0.05,131.132369995,-5.73,-6.08,199.13,199.03,0.0,0.0
1526668835.97769022,48071597,-0.09,0.0,-0.04,124.691925049,-5.45,-5.85,199.13,198.97,0.0,0.0
1526668836.07765007,48171557,-0.14,0.1,-0.06,124.780265808,-5.12,-5.7,199.13,198.91,0.0,0.0
1526668836.17761016,48271517,-0.21,0.09,-0.09,133.925918579,-4.74,-5.55,199.13,198.9,0.0,0.0
1526668836.27757001,48371477,-0.26,-0.01,-0.15,141.402908325,-4.31,-5.35,199.13,198.88,0.0,0.0
1526668836.37753010,48471437,-0.32,-0.17,-0.22,139.21156311,-3.84,-5.0,199.13,198.87,0.0,0.01
1526668836.47749019,48571397,-0.34,-0.32,-0.29,133.597564697,-3.31,-4.54,199.13,198.83,0.0,0.01
1526668836.57745004,48671357,-0.35,-0.47,-0.34,131.198104858,-2.73,-3.97,199.13,198.84,0.0,0.01
1526668836.67741013,48771317,-0.3,-0.54,-0.38,135.145004272,-2.11,-3.37,275.36,198.89,0.0,0.01
1526668836.77737021,48871277,1.84,-0.2,-0.15,134.673110962,-1.82,-2.65,275.36,199.35,0.0,0.0
1526668836.87733006,48971237,3.63,0.64,0.56,16.094417572,-1.51,-1.94,275.36,200.66,0.0,0.0
1526668836.97729015,49071197,5.31,1.84,1.69,87.240524292,-1.3,-1.35,275.36,202.67,0.0,0.0
1526668837.07725000,49171157,6.89,3.25,3.15,118.485473633,-1.29,-0.96,275.36,205.17,0.0,0.0
1526668837.17804313,49271950,8.25,4.73,4.8,95.5513687134,-1.51,-0.8,275.36,207.98,0.0,0.0
1526668837.27800322,49371910,9.01,6.18,6.44,145.942047119,-2.1,-0.91,275.36,210.99,0.0,0.0
1526668837.37796307,49471870,9.19,7.42,7.86,341.826171875,-2.89,-1.3,275.36,214.22,0.0,0.0
1526668837.47792315,49571830,9.03,8.32,8.88,679.003723145,-3.83,-1.91,275.36,217.55,0.0,0.0
1526668837.57788301,49671790,8.58,8.82,9.44,1060.36462402,-4.78,-2.68,275.36,220.93,0.0,0.0
1526668837.67784309,49771750,7.9,8.95,9.52,1355.70959473,-5.65,-3.54,275.36,224.38,0.0,0.01
1526668837.77780318,49871710,6.99,8.78,9.14,1453.55358887,-6.42,-4.43,275.36,227.91,0.0,0.01
1526668837.87776303,49971670,6.01,8.33,8.39,1372.86218262,-7.08,-5.31,275.36,231.5,0.0,0.02
1526668837.97772312,50071630,5.17,7.63,7.38,1272.48986816,-7.82,-6.12,275.36,235.22,0.0,0.02
1526668838.07768321,50171590,4.37,6.83,6.26,1307.09765625,-8.53,-6.82,275.36,239.03,0.0,0.02
1526668838.17764306,50271550,3.55,5.99,5.12,1584.36767578,-9.21,-7.46,275.36,242.91,0.0,0.02
1526668838.27760315,50371510,2.74,5.14,4.02,2141.15527344,-9.86,-8.08,275.36,246.82,0.0,0.02
1526668838.37756324,50471470,1.95,4.34,3.01,2959.73120117,-10.47,-8.73,275.36,250.72,0.0,0.02
1526668838.47752309,50571430,1.22,3.52,2.1,3896.85253906,-11.03,-9.37,275.36,254.55,0.0,0.01
1526668838.57748318,50671390,0.46,2.68,1.3,4770.91601562,-11.54,-9.99,275.36,258.46,0.0,0.01
1526668838.67744303,50771350,-0.3,1.8,0.58,5403.92773438,-11.93,-10.53,275.36,262.45,0.0,0.01
1526668838.77740312,50871310,-1.1,0.88,-0.08,5724.16113281,-11.99,-10.96,275.36,266.51,0.0,0.01
1526668838.87736320,50971270,-1.83,-0.03,-0.72,5775.04052734,-11.89,-11.28,275.36,270.47,0.0,0.01
1526668838.97732306,51071230,-2.46,-1.05,-1.34,5635.37158203,-11.73,-11.54,275.36,274.04,0.0,0.01
1526668839.07728314,51171190,-2.86,-2.12,-1.91,5399.8046875,-11.55,-11.67,275.36,276.93,0.0,0.0
1526668839.17724323,51271150,-3.03,-2.99,-2.38,5253.83837891,-11.42,-11.64,275.36,278.97,0.0,0.0
1526668839.27803612,51371943,-2.6,-3.69,-2.69,5305.890625,-9.5,-11.41,275.36,280.18,0.0,0.0
1526668839.37799621,51471903,-1.74,-4.08,-2.69,5670.23925781,-7.13,-10.49,275.36,280.54,0.0,0.0
1526668839.47795606,51571863,-0.98,-3.96,-2.37,22838.0820312,-6.27,-9.15,275.36,280.25,0.0,0.01
1526668839.57791615,51671823,-0.23,-3.35,-1.81,23882.6933594,-5.92,-7.82,275.36,279.47,0.0,0.01
1526668839.67787623,51771783,0.51,-2.43,-1.06,23091.9941406,-5.85,-6.76,275.36,278.46,0.0,0.0
1526668839.77783608,51871743,1.17,-1.34,-0.21,21212.8320312,-5.9,-6.07,275.36,277.48,0.0,0.0
1526668839.87779617,51971703,1.72,-0.28,0.63,19039.0136719,-6.0,-5.7,275.36,276.55,0.0,0.0
1526668839.97775602,52071663,2.1,0.62,1.42,17094.9707031,-6.2,-5.61,275.36,275.72,0.0,0.01
1526668840.07771611,52171623,2.36,1.39,2.09,15466.5673828,-6.33,-5.68,275.36,275.05,0.0,0.01
1526668840.17767620,52271583,2.44,1.96,2.57,14062.9892578,-6.56,-5.83,275.36,274.55,0.0,0.02
1526668840.27763605,52371543,2.39,2.33,2.87,12870.359375,-6.92,-6.06,275.36,274.23,0.0,0.02
1526668840.37759614,52471503,2.25,2.55,2.97,11812.7197266,-7.25,-6.32,275.36,274.1,0.0,0.02
1526668840.47755623,52571463,2.08,2.67,2.9,10842.9189453,-7.61,-6.64,275.36,274.08,0.0,0.02
1526668840.57751608,52671423,1.88,2.73,2.7,9953.45800781,-7.93,-7.03,275.36,274.13,0.0,0.02
1526668840.67747617,52771383,1.65,2.69,2.42,9209.30371094,-8.16,-7.5,275.36,274.27,0.0,0.02
1526668840.77743602,52871343,1.39,2.5,2.09,8637.29980469,-8.39,-7.93,275.36,274.52,0.0,0.02
1526668840.87739611,52971303,1.15,2.23,1.73,8198.33984375,-8.61,-8.25,275.36,274.72,0.0,0.02
1526668840.97735620,53071263,0.95,1.92,1.39,7854.23730469,-8.78,-8.54,275.36,274.88,0.0,0.02
1526668841.07731605,53171223,0.81,1.6,1.09,7544.29638672,-8.86,-8.74,275.36,275.03,0.0,0.02
1526668841.17727613,53271183,0.71,1.36,0.85,7264.88964844,-8.98,-8.84,275.36,275.15,0.0,0.01
1526668841.27723622,53371143,0.62,1.17,0.67,7017.97509766,-9.11,-8.93,275.36,275.28,0.0,0.01
1526668841.37802911,53471936,0.59,1.02,0.55,6786.90869141,-9.07,-9.04,275.36,275.37,0.0,0.01
1526668841.47798920,53571896,0.6,0.91,0.49,6557.79052734,-9.11,-9.08,275.36,275.41,0.0,0.01
1526668841.57794905,53671856,0.62,0.83,0.49,6327.09326172,-9.15,-9.12,275.36,275.45,0.0,0.01
1526668841.67790914,53771816,0.67,0.79,0.52,6090.54052734,-9.07,-9.17,275.36,275.43,0.0,0.01
1526668841.77786922,53871776,0.71,0.77,0.59,5859.43408203,-9.14,-9.15,275.36,275.4,0.0,0.01
1526668841.87782907,53971736,0.77,0.76,0.67,5632.19140625,-9.1,-9.13,275.36,275.37,0.0,0.01
1526668841.97778916,54071696,0.82,0.72,0.75,5416.22558594,-9.14,-9.1,275.36,275.4,0.0,0.01
1526668842.07774901,54171656,0.88,0.67,0.84,112.287338257,-9.17,-9.11,275.36,275.46,0.0,0.01
1526668842.17770910,54271616,0.95,0.59,0.92,404.42376709,-9.16,-9.13,275.36,275.58,0.0,0.01
1526668842.27766919,54371576,1.01,0.55,1.0,804.232055664,-9.22,-9.13,275.36,275.7,0.0,0.01
1526668842.37762904,54471536,1.87,0.83,1.13,958.104309082,-6.43,-8.78,26.27,276.06,0.0,0.0
1526668842.47758913,54571496,3.08,1.18,1.51,958.605529785,-3.76,-7.62,26.27,277.3,0.0,0.03
1526668842.57754922,54671456,3.78,1.75,2.11,1012.13171387,-2.41,-6.01,26.27,279.31,0.0,0.05
1526668842.67750907,54771416,4.29,2.49,2.81,1041.67382812,-1.6,-4.51,26.27,281.88,0.0,0.06
1526668842.77746916,54871376,4.75,3.27,3.53,1017.34387207,-1.08,-3.28,26.27,284.83,0.0,0.06
1526668842.87742901,54971336,5.2,4.02,4.22,967.408874512,-0.78,-2.37,26.27,287.98,0.0,0.06
1526668842.97738910,55071296,5.63,4.65,4.85,909.382263184,-0.62,-1.77,26.27,291.33,0.0,0.05
1526668843.07734919,55171256,5.98,5.15,5.4,875.305419922,-0.55,-1.41,26.27,294.81,0.0,0.05
1526668843.17730904,55271216,6.31,5.49,5.86,882.942626953,-0.56,-1.14,26.27,298.38,0.0,0.04
1526668843.27726912,55371176,6.61,5.86,6.24,938.171813965,-0.66,-0.87,26.27,302.08,0.0,0.05
1526668843.37722921,55471136,6.86,6.3,6.54,943.065612793,-0.88,-0.88,26.27,305.79,0.0,0.04
1526668843.47802210,55571929,7.01,6.61,6.78,910.286071777,-1.19,-0.97,26.27,309.54,0.0,0.04
1526668843.57798219,55671889,7.05,6.86,6.95,865.746704102,-1.65,-1.08,26.27,313.31,0.0,0.04
1526668843.67794204,55771849,6.95,7.04,7.03,816.857788086,-2.23,-1.24,26.27,317.16,0.0,0.04
1526668843.77790213,55871809,6.69,7.17,7.01,775.582397461,-2.89,-1.54,26.27,321.04,0.0,0.03
1526668843.87786222,55971769,6.31,7.19,6.87,765.791503906,-3.58,-1.99,26.27,324.8,0.0,0.03
1526668843.97782207,56071729,5.81,7.09,6.61,804.691711426,-4.27,-2.54,26.27,328.6,0.0,0.03
1526668844.07778215,56171689,5.2,6.82,6.23,902.397460938,-4.95,-3.21,26.27,332.42,0.0,0.02
1526668844.17774200,56271649,4.5,6.38,5.72,1040.33239746,-5.57,-3.89,26.27,336.26,0.0,0.02
1526668844.27770209,56371609,3.78,5.79,5.11,1184.16003418,-6.09,-4.52,26.27,340.07,0.0,0.01
1526668844.37766218,56471569,3.15,5.13,4.44,1327.13830566,-6.59,-5.11,26.27,343.87,0.0,0.01
1526668844.47762203,56571529,2.75,4.47,3.76,1472.46020508,-7.17,-5.65,26.27,347.73,0.0,0.01
1526668844.57758212,56671489,2.36,3.85,3.14,1604.11706543,-7.81,-6.15,26.27,351.67,0.0,0.01
1526668844.67754221,56771449,2.01,3.33,2.61,4986.30859375,-8.44,-6.65,26.27,355.68,0.0,0.02
1526668844.77750206,56871409,1.63,2.89,2.15,5078.81542969,-9.07,-7.2,26.27,359.66,0.0,0.02
1526668844.87746215,56971369,1.2,2.47,1.76,5130.86376953,-9.66,-7.81,26.27,3.61,0.0,0.02
1526668844.97742224,57071329,0.68,2.01,1.39,4962.83886719,-10.22,-8.43,26.27,7.59,0.0,0.02
1526668845.07738209,57171289,0.16,1.48,1.02,4550.25585938,-10.73,-9.03,26.27,11.58,0.0,0.02
1526668845.17734218,57271249,-0.46,0.88,0.62,4006.97924805,-11.17,-9.63,26.27,15.67,0.0,0.02
1526668845.27730203,57371209,-1.16,0.21,0.15,3474.43188477,-11.52,-10.17,26.27,19.77,0.0,0.02
1526668845.37726212,57471169,-1.9,-0.59,-0.38,3053.06396484,-11.83,-10.67,26.27,23.75,0.0,0.02
1526668845.47722220,57571129,-2.55,-1.54,-0.99,2890.68286133,-12.08,-11.12,26.27,27.22,0.0,0.01
1526668845.57801509,57671922,-3.02,-2.45,-1.62,3103.23657227,-12.26,-11.47,26.27,29.92,0.0,0.0
1526668845.67797518,57771882,-3.29,-3.25,-2.21,3626.36865234,-12.49,-11.78,26.27,31.79,0.0,0.0
1526668845.77793503,57871842,-3.35,-3.85,-2.7,4327.62158203,-12.74,-12.01,26.27,32.87,0.0,0.0
1526668845.87789512,57971802,-3.14,-4.23,-3.02,5076.30712891,-12.95,-12.25,26.27,33.16,0.0,0.0
1526668845.97785521,58071762,-2.68,-4.32,-3.11,5762.52392578,-13.0,-12.49,26.27,32.72,0.0,0.01
1526668846.07781506,58171722,-2.04,-4.15,-2.97,6318.19140625,-13.02,-12.67,26.27,31.85,0.0,0.01
1526668846.17777514,58271682,-1.31,-3.76,-2.57,6794.52490234,-13.01,-12.74,26.27,30.65,0.0,0.01
1526668846.27773523,58371642,-0.53,-3.11,-1.98,7194.03076172,-13.0,-12.68,26.27,29.26,0.0,0.01
1526668846.37769508,58471602,0.2,-2.25,-1.23,7439.69287109,-12.99,-12.54,26.27,27.84,0.0,0.0
1526668846.47765517,58571562,0.83,-1.27,-0.41,7507.79736328,-12.99,-12.42,26.27,26.55,0.0,0.0
1526668846.57761502,58671522,1.31,-0.29,0.38,7434.37109375,-13.03,-12.38,49.96,25.55,0.0,0.0
1526668846.67757511,58771482,1.8,0.75,1.12,7202.79931641,-8.83,-12.0,49.96,25.13,0.0,0.01
1526668846.77753520,58871442,2.04,1.31,1.75,6946.41210938,-5.62,-10.76,49.96,25.59,0.0,0.0
1526668846.87749505,58971402,2.04,1.62,2.21,6763.43847656,-4.23,-8.99,49.96,26.93,0.0,0.0
1526668846.97745514,59071362,1.96,1.88,2.46,6630.77685547,-3.59,-7.23,49.96,28.89,0.0,0.0
1526668847.07741523,59171322,3.03,2.17,2.64,6485.19335938,-5.47,-5.94,49.96,31.31,0.0,0.0
1526668847.17737508,59271282,3.51,2.88,2.92,6269.11035156,-7.38,-5.56,49.96,34.05,0.0,0.03
1526668847.27733517,59371242,3.3,3.52,3.16,427.101409912,-8.83,-6.03,49.96,37.11,0.0,0.05
1526668847.37729502,59471202,2.68,3.83,3.24,1359.61657715,-10.1,-7.01,49.96,40.38,0.0,0.05
1526668847.47725511,59571162,1.77,3.71,3.07,2214.46069336,-11.22,-8.28,49.96,43.8,0.0,0.05
1526668847.57804823,59671955,0.66,3.03,2.61,2404.25048828,-12.19,-9.65,49.96,47.21,0.0,0.05
1526668847.67800808,59771915,-0.5,1.95,1.85,2069.66235352,-12.92,-10.86,49.96,50.21,0.0,0.04
1526668847.77796817,59871875,-1.54,0.68,0.86,1741.9864502,-13.52,-11.9,49.96,52.53,0.0,0.02
1526668847.87792802,59971835,-2.31,-0.59,-0.22,1620.51867676,-14.0,-12.72,49.96,54.06,0.0,0.01
1526668847.97788811,60071795,-2.81,-1.67,-1.29,1610.58740234,-14.43,-13.4,49.96,54.79,0.0,0.0
1526668848.07784820,60171755,-3.03,-2.47,-2.21,1545.66003418,-14.81,-13.94,49.96,54.91,0.0,0.0
1526668848.17780805,60271715,-2.99,-2.99,-2.89,1425.05419922,-15.16,-14.39,49.96,54.58,0.0,0.0
1526668848.27776814,60371675,-2.76,-3.23,-3.28,1297.4642334,-15.5,-14.8,49.96,53.9,0.0,0.0
1526668848.37772822,60471635,-2.38,-3.25,-3.37,1197.79040527,-15.82,-15.12,49.96,52.95,0.0,0.0
1526668848.47768807,60571595,-1.88,-3.05,-3.17,1116.79711914,-16.04,-15.32,49.96,51.87,0.0,0.0
1526668848.57764816,60671555,-1.35,-2.66,-2.75,1048.06201172,-16.11,-15.46,49.96,50.79,0.0,0.0
1526668848.67760801,60771515,-0.84,-2.15,-2.17,980.834472656,-16.14,-15.56,49.96,49.81,0.0,0.0
1526668848.77756810,60871475,-0.41,-1.58,-1.51,920.342163086,-16.16,-15.62,49.96,49.1,0.0,0.0
1526668848.87752819,60971435,-0.08,-1.04,-0.85,876.570617676,-16.16,-15.7,49.96,48.62,0.0,0.0
1526668848.97748804,61071395,0.14,-0.57,-0.26,862.538513184,-16.15,-15.75,49.96,48.39,0.0,0.0
1526668849.07744813,61171355,0.24,-0.15,0.19,874.102905273,-16.16,-15.79,49.96,48.37,0.0,0.0
1526668849.17740822,61271315,0.25,0.14,0.5,894.479553223,-16.2,-15.88,49.96,48.52,0.0,0.0
1526668849.27736807,61371275,0.17,0.31,0.66,914.180480957,-16.24,-15.98,49.96,48.76,0.0,0.0
1526668849.37732816,61471235,0.06,0.4,0.67,919.901062012,-16.27,-16.1,49.96,49.0,0.0,0.0
1526668849.47728801,61571195,-0.05,0.43,0.57,899.980773926,-16.31,-16.23,49.96,49.22,0.0,0.0
1526668849.57724810,61671155,-0.17,0.37,0.39,865.640258789,-16.34,-16.39,49.96,49.45,0.0,0.0
1526668849.67804122,61771948,-0.27,0.25,0.18,831.526367188,-16.35,-16.53,49.96,49.63,0.0,0.0
1526668849.77800107,61871908,-0.41,0.04,-0.04,802.28729248,-16.4,-16.63,49.96,49.83,0.0,0.0
1526668849.87796116,61971868,-0.49,-0.13,-0.25,128.274993896,-16.43,-16.71,49.96,49.95,0.0,0.0
1526668849.97792101,62071828,-0.54,-0.31,-0.44,159.766586304,-16.45,-16.78,49.96,50.07,0.0,0.0
1526668850.07788110,62171788,-0.58,-0.49,-0.57,143.339080811,-16.48,-16.82,49.96,50.2,0.0,0.0
1526668850.17784119,62271748,-0.59,-0.62,-0.66,120.04826355,-16.5,-16.82,49.96,50.28,0.0,0.0
1526668850.27780104,62371708,-0.57,-0.71,-0.71,98.5875015259,-16.53,-16.79,49.96,50.34,0.0,0.0
1526668850.37776113,62471668,-0.53,-0.84,-0.71,91.0730056763,-15.61,-16.71,49.96,50.48,0.0,0.0
1526668850.47772121,62571628,-0.44,-1.0,-0.67,153.802200317,-14.95,-16.43,49.96,50.53,0.0,0.01
1526668850.57768106,62671588,-0.32,-1.06,-0.59,340.157470703,-14.66,-15.95,49.96,50.54,0.0,0.01
1526668850.67764115,62771548,-0.2,-0.97,-0.48,571.887207031,-14.62,-15.45,49.96,50.55,0.0,0.01
1526668850.77760100,62871508,-0.07,-0.8,-0.34,734.692810059,-14.62,-15.12,49.96,50.49,0.0,0.01
1526668850.87756109,62971468,0.03,-0.63,-0.2,840.273498535,-14.68,-14.91,49.96,50.43,0.0,0.0
1526668850.97752118,63071428,0.13,-0.47,-0.07,914.307617188,-15.0,-14.77,49.96,50.29,0.0,0.0
1526668851.07748103,63171388,0.22,-0.22,0.05,937.245300293,-15.24,-14.68,49.96,50.21,0.0,0.0
1526668851.17744112,63271348,0.31,0.04,0.17,895.872680664,-15.32,-14.8,238.87,50.08,0.0,0.0
1526668851.27740121,63371308,0.57,-0.33,0.29,926.70324707,-12.31,-14.99,238.87,49.58,0.0,0.01
1526668851.37736106,63471268,0.96,-0.95,0.45,1568.83618164,-10.57,-14.37,238.87,48.25,0.0,0.04
1526668851.47732115,63571228,1.49,-1.21,0.7,3194.12646484,-9.59,-13.17,238.87,46.27,0.0,0.06
1526668851.57728124,63671188,2.17,-1.02,1.05,5292.02392578,-8.89,-11.76,238.87,43.74,0.0,0.06
1526668851.67724109,63771148,2.92,-0.43,1.53,7203.76953125,-8.31,-10.42,238.87,40.82,0.0,0.06
1526668851.77803421,63871941,3.71,0.44,2.14,8538.44726562,-7.77,-9.27,238.87,37.63,0.0,0.05
1526668851.87799406,63971901,4.48,1.47,2.85,9272.77050781,-7.31,-8.31,238.87,34.29,0.0,0.04
1526668851.97795415,64071861,5.16,2.55,3.61,9533.74023438,-6.86,-7.5,238.87,30.84,0.0,0.04
1526668852.07791424,64171821,5.76,3.56,4.39,9505.89355469,-6.42,-6.89,238.87,27.24,0.0,0.04
1526668852.17787409,64271781,6.26,4.49,5.12,9332.31738281,-5.97,-6.42,238.87,23.58,0.0,0.04
1526668852.27783418,64371741,6.67,5.33,5.78,9079.93554688,-5.5,-6.01,238.87,19.86,0.0,0.04
1526668852.37779403,64471701,6.96,6.07,6.34,8781.57910156,-4.99,-5.67,238.87,16.02,0.0,0.04
1526668852.47775412,64571661,7.13,6.67,6.77,348.890930176,-4.42,-5.32,238.87,12.1,0.0,0.04
1526668852.57771420,64671621,7.18,7.07,7.06,191.332305908,-3.81,-5.0,238.87,8.21,0.0,0.04
1526668852.67767406,64771581,7.13,7.31,7.22,136.346298218,-3.14,-4.68,238.87,4.36,0.0,0.05
1526668852.77763414,64871541,6.97,7.36,7.24,133.208633423,-2.45,-4.31,238.87,0.51,0.0,0.05
1526668852.87759423,64971501,6.71,7.27,7.14,135.648468018,-1.73,-3.83,238.87,356.66,0.0,0.06
1526668852.97755408,65071461,6.36,7.03,6.93,134.755737305,-1.01,-3.27,238.87,352.81,0.0,0.06
1526668853.07751417,65171421,5.95,6.69,6.62,124.058303833,-0.29,-2.66,238.87,348.99,0.0,0.06
1526668853.17747402,65271381,5.47,6.3,6.23,113.718406677,0.41,-1.97,238.87,345.2,0.0,0.06
1526668853.27743411,65371341,4.92,5.88,5.77,107.838539124,1.08,-1.23,238.87,341.47,0.0,0.06
1526668853.37739420,65471301,4.3,5.39,5.25,111.959861755,1.66,-0.48,238.87,337.69,0.0,0.06
1526668853.47735405,65571261,3.61,4.87,4.67,126.723724365,2.13,0.19,238.87,333.88,0.0,0.06
1526668853.57731414,65671221,2.88,4.26,4.05,151.175765991,2.51,0.79,238.87,330.04,0.0,0.06
1526668853.67727423,65771181,2.08,3.6,3.37,177.030212402,2.79,1.27,238.87,326.19,0.0,0.06
1526668853.77723408,65871141,1.22,2.95,2.64,213.138244629,2.91,1.74,238.87,322.28,0.0,0.06
1526668853.87802720,65971934,0.25,2.27,1.86,285.070404053,2.88,2.02,238.87,318.29,0.0,0.06
1526668853.97798705,66071894,-0.69,1.53,1.02,401.74029541,2.62,2.14,238.87,314.33,0.0,0.07
1526668854.07794714,66171854,-1.68,0.71,0.13,551.65612793,2.14,2.1,238.87,310.42,0.0,0.07
1526668854.17790723,66271814,-2.71,-0.1,-0.79,739.511047363,1.38,1.93,238.87,306.48,0.0,0.07
1526668854.27786708,66371774,-3.63,-0.94,-1.76,1004.63543701,0.3,1.54,238.87,302.55,0.0,0.07
1526668854.37782717,66471734,-3.82,-1.68,-2.64,1355.0715332,-0.47,0.98,238.87,298.62,0.0,0.08
1526668854.47778702,66571694,-3.62,-2.25,-3.28,1782.93676758,-1.01,0.34,238.87,294.69,0.0,0.07
1526668854.57774711,66671654,-3.24,-2.7,-3.62,2149.79467773,-1.33,-0.23,238.87,290.81,0.0,0.07
1526668854.67770720,66771614,-2.78,-3.0,-3.65,2339.23071289,-1.46,-0.6,238.87,286.89,0.0,0.06
1526668854.77766705,66871574,-2.25,-3.12,-3.39,2333.87084961,-1.5,-0.8,238.87,282.96,0.0,0.06
1526668854.87762713,66971534,-1.64,-3.0,-2.92,2249.05273438,-1.46,-0.86,238.87,279.05,0.0,0.05
1526668854.97758722,67071494,-1.29,-2.72,-2.3,2191.64746094,-1.66,-0.85,238.87,275.14,0.0,0.04
1526668855.07754707,67171454,-1.07,-2.31,-1.68,2821.04833984,-2.04,-0.9,238.87,271.21,0.0,0.04
1526668855.17750716,67271414,-0.88,-1.85,-1.12,3831.65234375,-2.49,-1.03,238.87,267.32,0.0,0.04
1526668855.27746701,67371374,-0.66,-1.31,-0.65,4160.52197266,-2.98,-1.32,238.87,263.5,0.0,0.05
1526668855.37742710,67471334,-0.49,-0.82,-0.3,3964.24536133,-3.47,-1.76,238.87,259.64,0.0,0.05
1526668855.47738719,67571294,-0.37,-0.44,-0.05,3571.76342773,-3.93,-2.32,238.87,255.72,0.0,0.06
1526668855.57734704,67671254,-0.26,-0.12,0.09,3130.57373047,-4.41,-2.94,238.87,251.77,0.0,0.06
1526668855.67730713,67771214,-0.19,0.1,0.16,2707.65551758,-4.9,-3.59,238.87,247.75,0.0,0.06
1526668855.77726722,67871174,-0.09,0.25,0.18,2370.98730469,-5.36,-4.2,238.87,243.87,0.0,0.06
1526668855.87722707,67971134,0.05,0.4,0.18,2133.55419922,-5.76,-4.73,238.87,240.2,0.0,0.05
1526668855.97802019,68071927,0.21,0.56,0.19,2008.07751465,-5.86,-5.09,238.87,237.13,0.0,0.04
1526668856.07798004,68171887,0.3,0.66,0.22,1979.52941895,-5.82,-5.3,238.87,234.92,0.0,0.03
1526668856.17794013,68271847,0.32,0.72,0.26,1977.55395508,-5.79,-5.43,238.87,233.66,0.0,0.01
1526668856.27790022,68371807,0.29,0.73,0.29,1974.74438477,-5.8,-5.53,238.87,233.2,0.0,0.0
1526668856.37786007,68471767,0.18,0.73,0.3,1970.51782227,-5.84,-5.65,238.87,233.46,0.0,0.0
1526668856.47782016,68571727,-0.01,0.6,0.26,1938.85205078,-5.92,-5.71,238.87,234.26,0.0,0.01
1526668856.57778001,68671687,-0.2,0.47,0.17,1876.33007812,-6.02,-5.78,238.87,235.29,0.0,0.01
1526668856.67774010,68771647,-0.37,0.27,0.04,1805.13562012,-6.15,-5.88,238.87,236.36,0.0,0.02
1526668856.77770019,68871607,-0.55,0.07,-0.12,1728.74438477,-6.3,-5.95,238.87,237.41,0.0,0.02
1526668856.87766004,68971567,-0.69,-0.12,-0.31,1658.53125,-6.46,-6.09,238.87,238.37,0.0,0.01
1526668856.97762012,69071527,-0.83,-0.33,-0.49,1592.65515137,-6.63,-6.27,238.87,239.15,0.0,0.01
1526668857.07758021,69171487,-0.94,-0.57,-0.67,1526.41589355,-6.81,-6.41,238.87,239.74,0.0,0.01
1526668857.17754006,69271447,-1.02,-0.77,-0.83,1459.94152832,-6.99,-6.59,238.87,240.19,0.0,0.0
1526668857.27750015,69371407,-1.03,-0.89,-0.95,1398.16784668,-7.16,-6.78,238.87,240.44,0.0,0.0
1526668857.37746000,69471367,-1.0,-1.0,-1.03,1341.28979492,-7.34,-6.96,238.87,240.45,0.0,0.0
1526668857.47742009,69571327,-0.87,-1.09,-1.05,1287.83837891,-7.54,-7.14,238.87,240.27,0.0,0.0
1526668857.57738018,69671287,-0.73,-1.11,-1.0,1240.27270508,-7.99,-7.35,238.87,239.97,0.0,0.0
1526668857.67734003,69771247,-0.6,-1.06,-0.91,189.12802124,-8.53,-7.56,238.87,239.59,0.0,0.0
1526668857.77730012,69871207,-0.45,-0.89,-0.77,194.866104126,-9.11,-7.84,238.87,239.14,0.0,0.01
1526668857.87726021,69971167,-0.25,-0.62,-0.6,144.295333862,-9.73,-8.21,238.87,238.74,0.0,0.01
1526668857.97722006,70071127,-0.11,-0.34,-0.41,113.792907715,-10.34,-8.69,238.87,238.39,0.0,0.01
1526668858.07801318,70171920,-0.03,-0.1,-0.23,116.378730774,-10.92,-9.26,238.87,238.16,0.0,0.01
1526668858.17797303,70271880,0.0,0.03,-0.08,126.151832581,-11.49,-9.9,238.87,238.11,0.0,0.01
1526668858.27793312,70371840,-0.02,0.14,0.02,124.216812134,-11.99,-10.49,238.87,238.17,0.0,0.01
1526668858.37789321,70471800,-0.07,0.2,0.08,126.751365662,-12.43,-11.08,238.87,238.22,0.0,0.01
1526668858.47785306,70571760,-0.11,0.24,0.08,132.045288086,-12.82,-11.65,238.87,238.28,0.0,0.01
1526668858.57781315,70671720,-0.19,0.21,0.05,143.758361816,-13.19,-12.21,238.87,238.43,0.0,0.01
1526668858.67777324,70771680,-0.31,0.13,-0.02,155.31880188,-13.54,-12.74,238.87,238.67,0.0,0.01
1526668858.77773309,70871640,-0.44,-0.02,-0.13,155.927200317,-13.85,-13.23,238.87,238.91,0.0,0.0
1526668858.87769318,70971600,-0.56,-0.22,-0.27,149.000534058,-14.13,-13.63,238.87,239.08,0.0,0.0
1526668858.97765303,71071560,-0.62,-0.35,-0.41,140.928787231,-14.37,-13.92,238.87,239.1,0.0,0.0
1526668859.07761312,71171520,-0.63,-0.52,-0.53,133.137680054,-14.43,-14.14,238.87,239.08,0.0,0.0
1526668859.17757320,71271480,-0.56,-0.68,-0.62,125.556785583,-14.42,-14.28,238.87,238.86,0.0,0.0
1526668859.27753305,71371440,-0.45,-0.72,-0.65,119.883903503,-14.36,-14.4,238.87,238.54,0.0,0.0
1526668859.37749314,71471400,-0.36,-0.77,-0.62,119.339004517,-14.31,-14.49,238.87,238.36,0.0,0.0
1526668859.47745323,71571360,-0.27,-0.73,-0.55,127.767929077,-14.25,-14.52,238.87,238.2,0.0,0.0
1526668859.57741308,71671320,-0.16,-0.66,-0.45,138.665588379,-14.21,-14.53,238.87,238.04,0.0,0.0
1526668859.67737317,71771280,-0.07,-0.57,-0.33,154.666000366,-14.2,-14.48,238.87,237.98,0.0,0.0
1526668859.77733302,71871240,-0.01,-0.48,-0.2,176.84828186,-14.23,-14.41,238.87,238.0,0.0,0.0
1526668859.87729311,71971200,0.0,-0.35,-0.09,200.339004517,-14.32,-14.3,238.87,238.17,0.0,0.0
1526668859.97725320,72071160,-0.03,-0.21,-0.01,211.909500122,-14.42,-14.24,238.87,238.42,0.0,0.0
1526668860.07804608,72171953,-0.11,-0.19,0.01,219.144790649,-14.53,-14.26,238.87,238.76,0.0,0.0
1526668860.17800617,72271913,-0.21,-0.21,0.0,229.018310547,-14.64,-14.34,238.87,239.11,0.0,0.0
1526668860.27796602,72371873,-0.29,-0.2,-0.04,322.845977783,-14.79,-14.44,238.87,239.32,0.0,0.0
1526668860.37792611,72471833,-0.37,-0.22,-0.13,231.616455078,-14.93,-14.63,238.87,239.45,0.0,0.0
1526668860.47788620,72571793,-0.42,-0.28,-0.23,168.891830444,-15.08,-14.81,238.87,239.44,0.0,0.0
1526668860.57784605,72671753,-0.44,-0.36,-0.32,131.488708496,-15.22,-14.93,238.87,239.34,0.0,0.0
1526668860.67780614,72771713,-0.42,-0.43,-0.4,107.630821228,-15.38,-14.98,238.87,239.23,0.0,0.0
1526668860.77776623,72871673,-0.38,-0.46,-0.45,89.9652633667,-15.53,-15.08,238.87,239.09,0.0,0.0
1526668860.87772608,72971633,-0.34,-0.46,-0.46,77.1910552979,-15.59,-15.21,238.87,239.0,0.0,0.0
1526668860.97768617,73071593,-0.33,-0.43,-0.45,67.6907958984,-15.54,-15.32,238.87,238.98,0.0,0.0
1526668861.07764602,73171553,-0.31,-0.33,-0.42,64.5129699707,-15.41,-15.45,238.87,238.96,0.0,0.0
1526668861.17760611,73271513,-0.31,-0.26,-0.39,73.6717224121,-15.26,-15.56,238.87,238.96,0.0,0.0
1526668861.27756619,73371473,-0.28,-0.24,-0.35,81.7479019165,-15.04,-15.6,238.87,238.84,0.0,0.0
1526668861.37752604,73471433,-0.21,-0.24,-0.31,82.6082229614,-14.81,-15.57,238.87,238.6,0.0,0.0
1526668861.47748613,73571393,-0.14,-0.26,-0.26,77.5242080688,-14.56,-15.49,238.87,238.37,0.0,0.0
1526668861.57744622,73671353,-0.07,-0.32,-0.2,75.4323577881,-14.29,-15.27,238.87,238.15,0.0,0.0
1526668861.67740607,73771313,0.0,-0.32,-0.13,87.2575683594,-14.01,-14.94,238.87,238.05,0.0,0.0
1526668861.77736616,73871273,0.03,-0.31,-0.07,110.944198608,-13.74,-14.56,238.87,238.06,0.0,0.0
1526668861.87732601,73971233,0.08,-0.26,-0.01,141.39503479,-13.47,-14.25,238.87,238.12,0.0,0.0
1526668861.97728610,74071193,0.12,-0.21,0.04,167.777893066,-13.21,-13.96,238.87,238.22,0.0,0.0
1526668862.07724619,74171153,0.13,-0.17,0.08,191.7265625,-12.93,-13.64,238.87,238.35,0.0,0.0
1526668862.17803907,74271946,0.12,-0.15,0.11,216.075134277,-12.62,-13.32,238.87,238.49,0.0,0.0
1526668862.27799916,74371906,0.09,-0.14,0.12,239.496017456,-12.37,-13.02,238.87,238.65,0.0,0.0
1526668862.37795901,74471866,0.07,-0.1,0.12,256.091644287,-12.09,-12.78,238.87,238.85,0.0,0.0
1526668862.47791910,74571826,0.04,-0.09,0.1,262.160614014,-11.81,-12.59,238.87,239.0,0.0,0.0
1526668862.57787919,74671786,0.01,-0.19,0.07,272.624023438,-11.51,-12.34,238.87,239.17,0.0,0.0
1526668862.67783904,74771746,0.0,-0.26,0.03,293.897094727,-11.18,-12.04,238.87,239.27,0.0,0.0
1526668862.77779913,74871706,-0.02,-0.26,0.0,312.840454102,-10.81,-11.71,238.87,239.32,0.0,0.0
1526668862.87775922,74971666,-0.02,-0.26,-0.02,655.975036621,-10.4,-11.4,238.87,239.34,0.0,0.0
1526668862.97771907,75071626,0.0,-0.27,-0.04,594.090698242,-9.97,-11.0,238.87,239.27,0.0,0.0
1526668863.07767916,75171586,0.03,-0.24,-0.04,538.58026123,-9.55,-10.63,238.87,239.17,0.0,0.0
1526668863.17763901,75271546,0.09,-0.17,-0.03,473.190246582,-8.94,-10.26,238.87,239.01,0.0,0.0
1526668863.27759910,75371506,0.12,-0.13,0.0,411.633483887,-8.37,-9.81,238.87,238.91,0.0,0.0
1526668863.37755919,75471466,0.14,-0.08,0.03,368.451293945,-8.0,-9.32,238.87,238.88,0.0,0.01
1526668863.47751904,75571426,0.16,0.0,0.07,330.725006104,-7.69,-8.81,238.87,238.85,0.0,0.01
1526668863.57747912,75671386,0.18,0.06,0.11,296.392944336,-7.42,-8.36,238.87,238.79,0.0,0.01
1526668863.67743921,75771346,0.21,0.12,0.15,265.762573242,-7.18,-7.99,238.87,238.73,0.0,0.0
1526668863.77739906,75871306,0.24,0.2,0.18,239.524337769,-6.92,-7.71,238.87,238.64,0.0,0.0
1526668863.87735915,75971266,0.27,0.28,0.21,219.462997437,-6.66,-7.46,238.87,238.54,0.0,0.0
1526668863.97731900,76071226,0.28,0.31,0.24,204.498703003,-6.37,-7.18,238.87,238.44,0.0,0.0
1526668864.07727909,76171186,0.29,0.32,0.26,191.091995239,-6.06,-6.87,238.87,238.46,0.0,0.0
1526668864.17723918,76271146,0.28,0.29,0.27,178.059585571,-5.73,-6.53,238.87,238.59,0.0,0.01
1526668864.27803206,76371939,0.28,0.23,0.28,166.492218018,-5.34,-6.16,238.87,238.75,0.0,0.01
1526668864.37799215,76471899,0.26,0.14,0.28,163.066482544,-4.99,-5.78,238.87,238.92,0.0,0.01
1526668864.47795200,76571859,0.27,0.1,0.27,168.378555298,-4.59,-5.41,238.87,239.08,0.0,0.01
1526668864.57791209,76671819,0.29,0.11,0.27,175.30279541,-4.16,-4.97,238.87,239.2,0.0,0.01
1526668864.67787218,76771779,0.33,0.13,0.27,177.586685181,-3.66,-4.55,238.87,239.28,0.0,0.01
1526668864.77783203,76871739,0.36,0.18,0.28,176.597839355,-3.12,-4.12,238.87,239.22,0.0,0.01
1526668864.87779212,76971699,0.37,0.22,0.3,172.593139648,-2.53,-3.66,238.87,239.08,0.0,0.01
1526668864.97775221,77071659,0.51,0.22,0.33,168.400375366,-0.69,-3.13,238.88,238.95,0.0,0.01
1526668865.07771206,77171619,0.51,-0.03,0.38,189.81036377,4.96,-1.92,238.88,238.75,0.0,0.03
1526668865.17767215,77271579,0.49,-0.55,0.42,398.162963867,9.27,0.64,238.88,238.59,0.0,0.06
1526668865.27763224,77371539,0.54,-0.79,0.46,921.083129883,10.48,3.77,238.88,238.5,0.0,0.08
1526668865.37759209,77471499,0.68,-0.54,0.51,1430.45544434,10.34,6.54,238.88,238.52,0.0,0.07
1526668865.47755218,77571459,0.87,0.05,0.59,6794.53027344,9.44,8.4,238.88,238.64,0.0,0.05
1526668865.57751203,77671419,0.99,0.8,0.7,3796.55908203,8.04,9.19,238.88,238.82,0.0,0.02
1526668865.67747211,77771379,1.02,1.44,0.82,3093.76538086,6.37,9.06,238.88,239.01,0.0,0.0
1526668865.77743220,77871339,0.92,1.91,0.9,4052.05517578,4.65,8.26,238.88,239.09,0.0,0.01
1526668865.87739205,77971299,0.72,2.13,0.93,5745.99853516,3.0,6.98,238.88,239.06,0.0,0.02
1526668865.97735214,78071259,0.45,2.1,0.88,7264.63085938,1.54,5.48,238.88,239.02,0.0,0.02
1526668866.07731223,78171219,0.17,1.9,0.73,8293.90136719,0.31,3.94,238.88,239.02,0.0,0.02
1526668866.17727208,78271179,-0.1,1.56,0.52,8773.14257812,-0.63,2.49,238.88,239.02,0.0,0.02
1526668866.27723217,78371139,-0.36,1.14,0.25,8825.15234375,-1.25,1.22,238.88,239.03,0.0,0.02
1526668866.37802505,78471932,-0.56,0.7,-0.03,8583.37597656,-1.65,0.23,238.88,239.05,0.0,0.01
1526668866.47798514,78571892,-0.65,0.3,-0.3,8200.70800781,-1.87,-0.48,238.88,239.03,0.0,0.0
1526668866.57794523,78671852,-0.7,0.0,-0.53,7776.60253906,-1.95,-1.01,238.88,238.97,0.0,0.0
1526668866.67790508,78771812,-0.7,-0.23,-0.69,7369.41748047,-1.91,-1.39,238.88,238.84,0.0,0.0
1526668866.77786517,78871772,-0.67,-0.42,-0.79,6974.1796875,-1.77,-1.66,238.88,238.71,0.0,0.0
1526668866.87782502,78971732,-0.58,-0.6,-0.81,6566.61523438,-1.58,-1.79,238.88,238.62,0.0,0.0
1526668866.97778511,79071692,-0.46,-0.71,-0.76,6169.66259766,-1.35,-1.74,238.88,238.56,0.0,0.0
1526668867.07774520,79171652,-0.34,-0.75,-0.66,5807.90185547,-1.06,-1.59,238.88,238.56,0.0,0.0
1526668867.17770505,79271612,-0.19,-0.73,-0.52,5497.79492188,-0.77,-1.4,238.88,238.57,0.0,0.0
1526668867.27766514,79371572,-0.03,-0.66,-0.35,5241.27978516,-0.48,-1.17,238.88,238.56,0.0,0.0
1526668867.37762523,79471532,0.13,-0.56,-0.17,5039.05761719,-0.25,-0.93,238.88,238.59,0.0,0.0
1526668867.47758508,79571492,0.3,-0.45,0.01,4889.85253906,-0.05,-0.65,238.88,238.65,0.0,0.01
1526668867.57754517,79671452,0.43,-0.31,0.2,4781.25097656,0.11,-0.4,238.88,238.67,0.0,0.0
1526668867.67750502,79771412,0.52,-0.13,0.37,4688.10107422,0.24,-0.1,238.88,238.69,0.0,0.01
1526668867.77746511,79871372,0.61,0.08,0.51,4582.05908203,0.33,0.16,238.88,238.78,0.0,0.01
1526668867.87742519,79971332,0.68,0.27,0.62,4459.96777344,0.38,0.35,238.88,238.84,0.0,0.0
1526668867.97738504,80071292,0.73,0.41,0.7,4329.79736328,0.4,0.43,238.88,238.81,0.0,0.0
1526668868.07734513,80171252,0.74,0.54,0.76,681.465209961,0.39,0.47,238.88,238.83,0.0,0.0
1526668868.17730522,80271212,0.73,0.71,0.79,465.043945312,0.37,0.51,238.88,238.88,0.0,0.0
1526668868.27726507,80371172,0.66,0.84,0.78,316.030822754,0.37,0.52,238.88,238.96,0.0,0.0
1526668868.37722516,80471132,0.59,0.92,0.74,276.292602539,0.35,0.46,238.88,238.98,0.0,0.0
1526668868.47801805,80571925,0.47,0.93,0.67,313.12677002,0.34,0.33,238.88,239.01,0.0,0.0
1526668868.57797813,80671885,0.35,0.85,0.58,383.87600708,0.35,0.17,238.88,239.05,0.0,0.0
1526668868.67793822,80771845,0.22,0.62,0.46,395.723968506,0.39,0.06,238.88,239.11,0.0,0.0
1526668868.77789807,80871805,0.12,0.38,0.33,358.46081543,0.45,0.07,238.88,239.14,0.0,0.0
1526668868.87785816,80971765,0.06,0.17,0.21,319.440551758,0.53,0.11,238.88,239.14,0.0,0.0
1526668868.97781801,81071725,0.06,0.05,0.1,289.49029541,0.61,0.23,238.88,239.15,0.0,0.0
1526668869.07777810,81171685,0.07,-0.04,0.03,267.565490723,0.62,0.39,238.88,239.13,0.0,0.0
1526668869.17773819,81271645,0.11,-0.12,0.0,254.628158569,0.6,0.55,238.88,239.08,0.0,0.0
1526668869.27769804,81371605,0.16,-0.13,0.0,248.267288208,0.61,0.68,238.88,239.02,0.0,0.0
1526668869.37765813,81471565,0.21,-0.04,0.04,238.946212769,0.56,0.79,238.88,238.91,0.0,0.0
1526668869.47761822,81571525,0.24,0.05,0.09,225.942520142,0.49,0.84,238.88,238.74,0.0,0.0
1526668869.57757807,81671485,0.24,0.14,0.15,212.330169678,0.39,0.86,238.88,238.56,0.0,0.0
1526668869.67753816,81771445,0.25,0.23,0.21,199.886550903,0.32,0.82,238.88,238.48,0.0,0.0
1526668869.77749801,81871405,0.24,0.31,0.25,189.401687622,0.24,0.73,238.88,238.45,0.0,0.0
1526668869.87745810,81971365,0.22,0.41,0.27,183.882736206,0.15,0.62,238.88,238.5,0.0,0.0
1526668869.97741818,82071325,0.2,0.47,0.28,188.995330811,0.06,0.46,238.88,238.63,0.0,0.0
1526668870.07737803,82171285,0.17,0.41,0.27,193.10017395,0.04,0.31,238.88,238.77,0.0,0.0
1526668870.17733812,82271245,0.13,0.29,0.24,188.103103638,0.06,0.22,238.88,238.85,0.0,0.0
1526668870.27729821,82371205,0.08,0.15,0.2,180.333404541,0.12,0.16,238.88,238.89,0.0,0.0
1526668870.37725806,82471165,0.05,0.03,0.15,177.377578735,0.2,0.09,238.88,238.83,0.0,0.0
1526668870.47805119,82571958,0.04,-0.03,0.11,178.103851318,0.24,0.07,238.88,238.74,0.0,0.0
1526668870.57801104,82671918,0.08,-0.05,0.07,178.644439697,0.28,0.09,238.88,238.66,0.0,0.0
1526668870.67797112,82771878,0.14,-0.08,0.06,177.747467041,0.34,0.16,238.88,238.66,0.0,0.0
1526668870.77793121,82871838,0.22,-0.05,0.08,187.774185181,0.39,0.27,238.88,238.7,0.0,0.0
1526668870.87789106,82971798,0.28,0.02,0.12,172.318603516,0.41,0.37,238.88,238.8,0.0,0.0
1526668870.97785115,83071758,0.31,0.14,0.18,146.548843384,0.41,0.46,238.88,238.9,0.0,0.0
1526668871.07781100,83171718,0.3,0.27,0.23,118.129432678,0.41,0.51,238.88,239.02,0.0,0.0
1526668871.17777109,83271678,0.28,0.37,0.28,105.819465637,0.37,0.51,238.88,239.11,0.0,0.0
1526668871.27773118,83371638,0.25,0.4,0.3,103.116874695,0.36,0.49,238.88,239.18,0.0,0.0
1526668871.37769103,83471598,0.19,0.39,0.3,99.257270813,0.34,0.49,238.88,239.24,0.0,0.0
1526668871.47765112,83571558,0.12,0.44,0.28,103.510253906,0.3,0.42,238.88,239.23,0.0,0.0
1526668871.57761121,83671518,0.06,0.48,0.23,137.872833252,0.29,0.34,238.88,239.2,0.0,0.0
1526668871.67757106,83771478,0.0,0.49,0.16,199.026397705,0.31,0.26,238.88,239.15,0.0,0.0
1526668871.77753115,83871438,-0.06,0.44,0.09,275.34979248,0.36,0.19,238.88,239.06,0.0,0.0
1526668871.87749124,83971398,-0.12,0.32,0.02,333.657958984,0.37,0.2,238.88,239.02,0.0,0.0
1526668871.97745109,84071358,-0.18,0.22,-0.05,367.384277344,0.38,0.2,238.88,238.99,0.0,0.0
1526668872.07741117,84171318,-0.19,0.15,-0.12,392.024932861,0.42,0.12,238.88,239.05,0.0,0.0
1526668872.17737103,84271278,-0.17,0.05,-0.16,403.982818604,0.47,0.04,238.88,239.14,0.0,0.0
1526668872.27733111,84371238,-0.12,-0.06,-0.19,399.170227051,0.56,0.05,238.88,239.24,0.0,0.0
1526668872.37729120,84471198,-0.06,-0.15,-0.18,380.92010498,0.65,0.13,238.88,239.25,0.0,0.0
1526668872.47725105,84571158,0.0,-0.21,-0.14,361.475250244,0.73,0.21,238.88,239.14,0.0,0.0
1526668872.57804418,84671951,0.09,-0.26,-0.08,351.202697754,0.82,0.33,238.88,239.01,0.0,0.0
1526668872.67800403,84771911,0.16,-0.28,0.0,359.96194458,0.86,0.55,238.88,238.85,0.0,0.0
1526668872.77796412,84871871,0.25,-0.27,0.07,390.551696777,0.85,0.76,238.88,238.74,0.0,0.0
1526668872.87792420,84971831,0.34,-0.17,0.17,429.426208496,0.8,0.94,238.88,238.63,0.0,0.0
1526668872.97788405,85071791,0.41,0.0,0.27,452.064147949,0.71,1.01,238.88,238.59,0.0,0.0
1526668873.07784414,85171751,0.48,0.21,0.36,453.890167236,0.55,1.01,238.88,238.63,0.0,0.0
1526668873.17780423,85271711,0.51,0.4,0.44,440.729705811,0.42,0.92,238.88,238.66,0.0,0.0
1526668873.27776408,85371671,0.47,0.49,0.5,6.68310022354,0.27,0.78,238.88,238.7,0.0,0.0
1526668873.37772417,85471631,0.39,0.49,0.52,4.88255977631,0.16,0.67,238.88,238.8,0.0,0.0
1526668873.47768402,85571591,0.29,0.49,0.49,5.72789573669,0.08,0.54,238.88,238.88,0.0,0.0
1526668873.57764411,85671551,0.23,0.52,0.43,8.82707023621,0.02,0.38,238.88,238.9,0.0,0.0
1526668873.67760420,85771511,0.16,0.54,0.35,44.5865821838,-0.02,0.22,238.88,238.89,0.0,0.0
1526668873.77756405,85871471,0.08,0.52,0.26,118.150062561,-0.02,0.07,238.88,238.88,0.0,0.0
1526668873.87752414,85971431,-0.02,0.42,0.16,195.59085083,-0.01,-0.03,238.88,238.87,0.0,0.0
1526668873.97748423,86071391,-0.12,0.31,0.06,246.328659058,0.01,-0.14,238.88,238.83,0.0,0.0
1526668874.07744408,86171351,-0.17,0.17,-0.04,277.380279541,0.06,-0.21,238.88,238.76,0.0,0.0
1526668874.17740417,86271311,-0.18,0.02,-0.12,278.246337891,0.12,-0.2,238.88,238.73,0.0,0.0
1526668874.27736402,86371271,-0.21,-0.02,-0.18,274.564941406,0.21,-0.16,238.88,238.74,0.0,0.0
1526668874.37732410,86471231,-0.23,-0.06,-0.23,277.459838867,0.28,-0.1,238.88,238.73,0.0,0.0
1526668874.47728419,86571191,-0.21,-0.14,-0.25,273.838989258,0.33,-0.04,238.88,238.74,0.0,0.0
1526668874.57724404,86671151,-0.15,-0.26,-0.25,257.045257568,0.37,0.03,238.88,238.76,0.0,0.0
1526668874.67803717,86771944,-0.07,-0.36,-0.21,245.042633057,0.41,0.1,238.88,238.72,0.0,0.0
1526668874.77799702,86871904,0.01,-0.43,-0.16,258.3855896,0.46,0.2,238.88,238.68,0.0,0.0
1526668874.87795711,86971864,0.09,-0.4,-0.08,297.716003418,0.52,0.33,238.88,238.7,0.0,0.0
1526668874.97791719,87071824,0.15,-0.32,0.0,336.910827637,0.55,0.46,238.88,238.71,0.0,0.0
1526668875.07787704,87171784,0.21,-0.21,0.08,370.873382568,0.56,0.55,238.88,238.71,0.0,0.0
1526668875.17783713,87271744,0.25,-0.08,0.16,390.595336914,0.53,0.62,238.88,238.75,0.0,0.0
1526668875.27779722,87371704,0.27,0.03,0.23,395.729064941,0.45,0.68,238.88,238.78,0.0,0.0
1526668875.37775707,87471664,0.27,0.16,0.28,391.031005859,0.4,0.71,238.88,238.85,0.0,0.0
1526668875.47771716,87571624,0.23,0.27,0.3,377.56942749,0.36,0.69,238.88,238.9,0.0,0.0
1526668875.57767701,87671584,0.18,0.38,0.3,362.439880371,0.29,0.65,238.88,238.94,0.0,0.0
1526668875.67763710,87771544,0.12,0.45,0.27,355.071685791,0.2,0.53,238.88,238.96,0.0,0.0
1526668875.77759719,87871504,0.05,0.45,0.22,357.078857422,0.14,0.41,238.88,238.95,0.0,0.0
1526668875.87755704,87971464,0.0,0.44,0.15,675.245239258,0.08,0.24,238.88,238.86,0.0,0.0
1526668875.97751713,88071424,-0.09,0.41,0.07,826.58581543,0.08,0.08,238.88,238.83,0.0,0.0
1526668876.07747722,88171384,-0.14,0.29,0.0,876.883483887,0.06,0.04,238.88,238.87,0.0,0.0
1526668876.17743707,88271344,-0.2,0.17,-0.08,844.198425293,0.07,0.03,238.88,238.96,0.0,0.0
1526668876.27739716,88371304,-0.24,0.05,-0.15,776.786499023,0.1,0.0,238.88,239.07,0.0,0.0
1526668876.37735701,88471264,-0.27,-0.08,-0.21,695.551574707,0.12,-0.06,238.88,239.11,0.0,0.0
1526668876.47731709,88571224,-0.26,-0.17,-0.25,614.979370117,0.16,-0.11,238.88,239.11,0.0,0.0
1526668876.57727718,88671184,-0.22,-0.27,-0.27,541.461669922,0.22,-0.12,238.88,239.13,0.0,0.0
1526668876.67723703,88771144,-0.15,-0.32,-0.27,482.363464355,0.26,-0.08,238.88,239.14,0.0,0.0
1526668876.77803016,88871937,-0.06,-0.34,-0.23,440.394348145,0.3,-0.02,238.88,239.14,0.0,0.0
1526668876.87799001,88971897,0.04,-0.31,-0.16,415.010406494,0.34,0.01,238.88,239.15,0.0,0.0
1526668876.97795010,89071857,0.13,-0.32,-0.07,412.772186279,0.37,0.07,238.88,239.15,0.0,0.0
1526668877.07791018,89171817,0.19,-0.28,0.02,442.906982422,0.39,0.17,238.88,239.08,0.0,0.0
1526668877.17787004,89271777,0.26,-0.23,0.11,485.070861816,0.39,0.3,238.88,238.99,0.0,0.0
1526668877.27783012,89371737,0.31,-0.15,0.2,541.293457031,0.34,0.44,238.88,238.89,0.0,0.0
1526668877.37779021,89471697,0.36,-0.03,0.28,578.019104004,0.28,0.44,238.88,238.86,0.0,0.0
1526668877.47775006,89571657,0.37,0.07,0.35,598.459350586,0.2,0.42,238.88,238.9,0.0,0.0
1526668877.57771015,89671617,0.36,0.16,0.38,603.086791992,0.13,0.38,238.88,238.94,0.0,0.0
1526668877.67767000,89771577,0.39,0.26,0.41,591.557067871,0.07,0.41,238.88,238.96,0.0,0.0
1526668877.77763009,89871537,0.39,0.41,0.42,566.254882812,-0.02,0.4,238.88,238.97,0.0,0.0
1526668877.87759018,89971497,0.33,0.48,0.41,539.976135254,-0.12,0.31,238.88,238.97,0.0,0.0
1526668877.97755003,90071457,0.25,0.52,0.38,520.368530273,-0.22,0.18,238.88,238.97,0.0,0.0
1526668878.07751012,90171417,0.17,0.55,0.33,511.731048584,-0.26,0.03,238.88,238.96,0.0,0.0
1526668878.17747021,90271377,0.09,0.53,0.25,517.995239258,-0.29,-0.15,238.88,238.99,0.0,0.0
1526668878.27743006,90371337,0.03,0.45,0.17,528.296508789,-0.29,-0.34,238.88,239.04,0.0,0.0
1526668878.37739015,90471297,-0.03,0.31,0.09,531.243713379,-0.24,-0.44,238.88,239.08,0.0,0.0
1526668878.47735023,90571257,-0.07,0.19,0.01,399.712921143,-0.11,-0.49,238.88,239.13,0.0,0.0
1526668878.57731009,90671217,-0.1,0.0,-0.04,267.09463501,0.0,-0.48,238.88,239.19,0.0,0.0
1526668878.67727017,90771177,-0.11,-0.16,-0.09,181.64894104,0.12,-0.39,238.88,239.2,0.0,0.0
1526668878.77723002,90871137,-0.09,-0.24,-0.12,155.337768555,0.23,-0.27,238.88,239.18,0.0,0.0
1526668878.87802315,90971930,-0.07,-0.3,-0.13,164.83972168,0.29,-0.08,238.88,239.13,0.0,0.0
1526668878.97798324,91071890,0.0,-0.32,-0.12,190.494430542,0.33,0.07,238.88,239.1,0.0,0.0
1526668879.07794309,91171850,0.08,-0.3,-0.08,225.454345703,0.35,0.18,238.88,239.0,0.0,0.0
