timestamp,TimeUS,DesR,R,IR,IRErr,DesP,P,DesY,Y,ErrRP,ErrYaw
1526668928.27867389,28873446,0.0,1.01,0.0,9136.97851562,0.0,0.4,355.54,355.54,0.0,0.0
1526668928.37946701,28974239,0.0,1.01,0.0,9254.875,0.0,0.4,353.48,353.48,0.0,0.0
1526668928.47942686,29074199,0.0,1.01,0.0,9349.25195312,0.0,0.39,353.4,353.4,0.0,0.0
1526668928.57938695,29174159,0.0,1.02,0.0,9440.77734375,0.0,0.41,353.31,353.31,0.0,0.0
1526668928.67934680,29274119,0.0,1.02,0.0,9520.87988281,0.0,0.43,353.2,353.2,0.0,0.0
1526668928.77930689,29374079,0.0,1.04,0.0,9601.69628906,0.0,0.44,353.08,353.08,0.0,0.0
1526668928.87926698,29474039,0.0,1.07,0.0,9716.39746094,0.0,0.45,353.0,353.0,0.0,0.0
1526668928.97922683,29573999,0.0,1.11,0.0,9859.44726562,0.0,0.44,352.93,352.93,0.0,0.0
1526668929.07918692,29673959,0.0,1.14,0.0,10032.9941406,0.0,0.44,352.86,352.86,0.0,0.0
1526668929.17914701,29773919,0.0,1.17,0.0,10230.6914062,0.0,0.44,352.77,352.77,0.0,0.0
1526668929.27910686,29873879,0.0,1.19,0.0,10437.5878906,0.0,0.45,352.67,352.67,0.0,0.0
1526668931.32745385,31922226,0.0,1.42,0.0,19582.9570312,0.0,0.48,351.64,351.64,0.0,0.0
1526668931.42741394,32022186,0.0,1.38,0.0,19581.1171875,0.0,0.49,351.67,351.67,0.0,0.0
1526668931.52737379,32122146,0.0,1.37,0.0,19527.6230469,0.0,0.5,351.68,351.68,0.0,0.0
1526668931.62733388,32222106,0.0,1.38,0.0,19494.0625,0.0,0.5,351.73,351.73,0.0,0.0
1526668931.72729397,32322066,0.0,1.38,0.0,19473.3242188,0.0,0.51,351.79,351.79,0.0,0.0
1526668931.82725382,32422026,0.0,1.37,0.0,19444.0683594,0.0,0.5,351.86,351.86,0.0,0.0
1526668931.92721391,32521986,0.0,1.37,0.0,19406.6171875,0.0,0.48,351.92,351.92,0.0,0.0
1526668932.02717400,32621946,0.0,1.39,0.0,19384.3105469,0.0,0.47,351.98,351.98,0.0,0.0
1526668932.12713385,32721906,0.0,1.39,0.0,19381.1484375,0.0,0.46,352.03,352.03,0.0,0.0
1526668932.22709394,32821866,0.0,1.42,0.0,19397.5742188,0.0,0.46,352.09,352.09,0.0,0.0
1526668932.32705379,32921826,0.0,1.46,0.0,19454.484375,0.0,0.46,352.14,352.14,0.0,0.0
1526668932.42701387,33021786,0.0,1.49,0.0,19558.640625,0.0,0.44,352.21,352.21,0.0,0.0
1526668932.52697396,33121746,0.0,1.51,0.0,19687.625,0.0,0.42,352.26,352.26,0.0,0.0
1526668932.62693381,33221706,0.0,1.53,0.0,19826.5742188,0.0,0.41,352.3,352.3,0.0,0.0
1526668932.72689390,33321666,0.0,1.54,0.0,23716.0,0.0,0.41,352.34,352.34,0.0,0.0
1526668932.82685399,33421626,0.0,1.53,0.0,23693.5371094,0.0,0.41,352.41,352.41,0.0,0.0
1526668932.92681384,33521586,0.0,1.53,0.0,23609.8769531,0.0,0.4,352.5,352.5,0.0,0.0
1526668933.02677393,33621546,0.0,1.51,0.0,23422.7441406,0.0,0.38,352.59,352.59,0.0,0.0
1526668933.12673402,33721506,0.0,1.48,0.0,23119.3789062,0.0,0.35,352.7,352.7,0.0,0.0
1526668933.22669387,33821466,0.0,1.47,0.0,22851.09375,0.0,0.33,352.8,352.8,0.0,0.0
1526668933.32665396,33921426,0.0,1.47,0.0,22644.9375,0.0,0.3,352.9,352.9,0.0,0.0
1526668933.42744684,34022219,0.0,1.46,0.0,22492.2597656,0.0,0.26,353.0,353.0,0.0,0.0
1526668933.52740693,34122179,0.0,1.44,0.0,22315.8261719,0.0,0.2,353.1,353.1,0.0,0.0
1526668933.62736678,34222139,0.0,1.4,0.0,22055.5742188,0.0,0.15,353.19,353.19,0.0,0.0
1526668933.72732687,34322099,0.0,1.37,0.0,21764.171875,0.0,0.11,353.29,353.29,0.0,0.0
1526668933.82728696,34422059,0.0,1.37,0.0,21492.5019531,0.0,0.09,353.42,353.42,0.0,0.0
1526668933.92724681,34522019,0.0,1.36,0.0,21251.2578125,0.0,0.08,353.56,353.56,0.0,0.0
1526668934.02720690,34621979,0.0,1.36,0.0,21039.7226562,0.0,0.08,353.68,353.68,0.0,0.0
1526668934.12716699,34721939,0.0,1.37,0.0,20872.9492188,0.0,0.08,353.78,353.78,0.0,0.0
1526668934.27460790,34869380,0.0,1.36,0.0,20709.3496094,0.0,0.1,353.89,353.89,0.0,0.0
1526668934.37540078,34970173,0.0,1.37,0.0,20574.2128906,0.0,0.1,353.94,353.94,0.0,0.0
1526668934.47536087,35070133,0.0,1.37,0.0,20475.0449219,0.0,0.12,353.96,353.96,0.0,0.0
1526668934.57532096,35170093,0.0,1.37,0.0,20380.3945312,0.0,0.11,353.97,353.97,0.0,0.0
1526668934.67528081,35270053,0.0,1.38,0.0,20302.2011719,0.0,0.11,353.94,353.94,0.0,0.0
1526668934.77524090,35370013,0.0,1.38,0.0,20239.3691406,0.0,0.13,353.92,353.92,0.0,0.0
1526668934.87520099,35469973,0.0,1.37,0.0,20178.90625,0.0,0.15,353.91,353.91,0.0,0.0
1526668934.97516084,35569933,0.0,1.36,0.0,20107.1289062,0.0,0.16,353.92,353.92,0.0,0.0
1526668935.07512093,35669893,0.0,1.36,0.0,20037.1542969,0.0,0.19,353.95,353.95,0.0,0.0
1526668935.17508101,35769853,0.0,1.36,0.0,19973.0078125,0.0,0.23,353.98,353.98,0.0,0.0
1526668935.27504086,35869813,0.0,1.35,0.0,19909.9101562,0.0,0.27,354.02,354.02,0.0,0.0
1526668935.37500095,35969773,0.0,1.32,0.0,17424.0,0.0,0.3,354.05,354.05,0.0,0.0
1526668935.47496080,36069733,0.0,1.31,0.0,17257.21875,0.0,0.33,354.1,354.1,0.0,0.0
1526668935.57492089,36169693,0.0,1.31,0.0,17209.703125,0.0,0.34,354.14,354.14,0.0,0.0
1526668935.67488098,36269653,0.0,1.31,0.0,17193.6035156,0.0,0.35,354.18,354.18,0.0,0.0
1526668935.77484083,36369613,0.0,1.33,0.0,17223.0878906,0.0,0.33,354.21,354.21,0.0,0.0
1526668935.87480092,36469573,0.0,1.33,0.0,17315.8066406,0.0,0.33,354.24,354.24,0.0,0.0
1526668935.97476101,36569533,0.0,1.31,0.0,17330.53125,0.0,0.35,354.25,354.25,0.0,0.0
1526668936.07472086,36669493,0.0,1.31,0.0,17306.3984375,0.0,0.34,354.26,354.26,0.0,0.0
1526668936.17468095,36769453,0.0,1.3,0.0,17272.8320312,0.0,0.31,354.27,354.27,0.0,0.0
1526668936.27464080,36869413,0.0,1.29,0.0,17212.1503906,0.0,0.29,354.27,354.27,0.0,0.0
1526668936.37543392,36970206,0.0,1.28,0.0,17133.3867188,0.0,0.26,354.28,354.28,0.0,0.0
1526668936.47539401,37070166,0.0,1.26,0.0,17037.7285156,0.0,0.25,354.28,354.28,0.0,0.0
1526668936.57535386,37170126,0.0,1.26,0.0,16941.1191406,0.0,0.23,354.27,354.27,0.0,0.0
1526668936.67531395,37270086,0.0,1.23,0.0,16834.3574219,0.0,0.22,354.26,354.26,0.0,0.0
1526668936.77527380,37370046,0.0,1.19,0.0,16680.2441406,0.0,0.21,354.25,354.25,0.0,0.0
1526668936.87523389,37470006,0.0,1.17,0.0,16499.1992188,0.0,0.23,354.23,354.23,0.0,0.0
1526668936.97519398,37569966,0.0,1.12,0.0,16287.8427734,0.0,0.25,354.22,354.22,0.0,0.0
1526668937.07515383,37669926,0.0,1.08,0.0,16045.1845703,0.0,0.24,354.2,354.2,0.0,0.0
1526668937.17511392,37769886,0.0,1.04,0.0,15776.4189453,0.0,0.25,354.19,354.19,0.0,0.0
1526668937.32338786,37918160,0.0,1.01,0.0,15493.5429688,0.0,0.24,354.18,354.18,0.0,0.0
1526668937.42334795,38018120,0.0,1.0,0.0,15226.7363281,0.0,0.21,354.14,354.14,0.0,0.0
1526668937.52330780,38118080,0.0,1.01,0.0,14980.7695312,0.0,0.19,354.1,354.1,0.0,0.0
1526668937.62326789,38218040,0.0,1.01,0.0,14763.7539062,0.0,0.17,354.07,354.07,0.0,0.0
1526668937.72322798,38318000,0.0,1.03,0.0,14571.9892578,0.0,0.13,354.05,354.05,0.0,0.0
1526668937.82318783,38417960,0.0,1.03,0.0,14410.6982422,0.0,0.1,354.04,354.04,0.0,0.0
1526668937.92314792,38517920,0.0,1.0,0.0,14246.3701172,0.0,0.09,354.04,354.04,0.0,0.0
1526668938.02310801,38617880,0.0,0.98,0.0,9604.0,0.0,0.08,354.04,354.04,0.0,0.0
1526668938.12306786,38717840,0.0,0.97,0.0,9480.34179688,0.0,0.05,354.07,354.07,0.0,0.0
1526668938.22302794,38817800,0.0,0.97,0.0,9445.11132812,0.0,0.02,354.11,354.11,0.0,0.0
1526668938.32298779,38917760,0.0,0.97,0.0,9449.2890625,0.0,-0.01,354.14,354.14,0.0,0.0
1526668938.42294788,39017720,0.0,0.94,0.0,9379.56542969,0.0,-0.07,354.18,354.18,0.0,0.0
1526668938.52290797,39117680,0.0,0.91,0.0,9224.25390625,0.0,-0.11,354.24,354.24,0.0,0.0
1526668938.62286782,39217640,0.0,0.88,0.0,9018.4609375,0.0,-0.15,354.32,354.32,0.0,0.0
1526668938.72282791,39317600,0.0,0.86,0.0,8810.95703125,0.0,-0.17,354.39,354.39,0.0,0.0
1526668938.82278800,39417560,0.0,0.85,0.0,8626.11523438,0.0,-0.17,354.46,354.46,0.0,0.0
1526668938.92274785,39517520,0.0,0.85,0.0,8470.8671875,0.0,-0.16,354.53,354.53,0.0,0.0
1526668939.02270794,39617480,0.0,0.86,0.0,8361.08984375,0.0,-0.14,354.59,354.59,0.0,0.0
1526668939.12266779,39717440,0.0,0.88,0.0,8292.83886719,0.0,-0.14,354.66,354.66,0.0,0.0
1526668939.22262788,39817400,0.0,0.89,0.0,8256.76464844,0.0,-0.14,354.72,354.72,0.0,0.0
1526668939.32258797,39917360,0.0,0.9,0.0,8236.82714844,0.0,-0.13,354.79,354.79,0.0,0.0
1526668939.42338085,40018153,0.0,0.92,0.0,8236.75390625,0.0,-0.13,354.85,354.85,0.0,0.0
1526668939.52334094,40118113,0.0,0.92,0.0,8251.87890625,0.0,-0.15,354.9,354.9,0.0,0.0
1526668939.62330079,40218073,0.0,0.92,0.0,8265.11523438,0.0,-0.16,354.97,354.97,0.0,0.0
1526668939.72326088,40318033,0.0,0.92,0.0,8276.796875,0.0,-0.15,355.06,355.06,0.0,0.0
1526668939.82322097,40417993,0.0,0.91,0.0,8285.15234375,0.0,-0.16,355.13,355.13,0.0,0.0
1526668939.92318082,40517953,0.0,0.93,0.0,8296.2734375,0.0,-0.18,355.19,355.19,0.0,0.0
1526668940.02314091,40617913,0.0,0.95,0.0,8323.25097656,0.0,-0.2,355.25,355.25,0.0,0.0
1526668940.12310100,40717873,0.0,0.96,0.0,8358.89941406,0.0,-0.2,355.3,355.3,0.0,0.0
1526668940.27304101,40867813,0.0,0.96,0.0,8402.2421875,0.0,-0.21,355.36,355.36,0.0,0.0
1526668940.37383389,40968606,0.0,0.95,0.0,8434.43945312,0.0,-0.23,355.41,355.41,0.0,0.0
1526668940.47379398,41068566,0.0,0.93,0.0,8446.859375,0.0,-0.24,355.43,355.43,0.0,0.0
1526668940.57375383,41168526,0.0,0.92,0.0,8453.63671875,0.0,-0.24,355.46,355.46,0.0,0.0
1526668940.67371392,41268486,0.0,0.92,0.0,8464.0,0.0,-0.23,355.48,355.48,0.0,0.0
1526668940.77367401,41368446,0.0,0.92,0.0,8464.0,0.0,-0.2,355.5,355.5,0.0,0.0
1526668943.32182097,43916593,0.0,1.15,0.0,13225.0,0.0,-0.15,354.74,354.74,0.0,0.0
1526668943.42178082,44016553,0.0,1.12,0.0,12840.1669922,0.0,-0.14,354.73,354.73,0.0,0.0
1526668943.52174091,44116513,0.0,1.1,0.0,12617.0,0.0,-0.14,354.72,354.72,0.0,0.0
1526668943.62170100,44216473,0.0,1.08,0.0,12366.9101562,0.0,-0.14,354.71,354.71,0.0,0.0
1526668943.72166085,44316433,0.0,1.07,0.0,12166.8085938,0.0,-0.14,354.7,354.7,0.0,0.0
1526668943.82162094,44416393,0.0,1.07,0.0,12024.6679688,0.0,-0.15,354.71,354.71,0.0,0.0
1526668943.92158079,44516353,0.0,1.04,0.0,11875.1445312,0.0,-0.16,354.71,354.71,0.0,0.0
1526668944.02154088,44616313,0.0,1.01,0.0,11681.1455078,0.0,-0.15,354.71,354.71,0.0,0.0
1526668944.12150097,44716273,0.0,0.99,0.0,11468.0371094,0.0,-0.15,354.68,354.68,0.0,0.0
1526668944.22146082,44816233,0.0,0.96,0.0,11246.4609375,0.0,-0.17,354.63,354.63,0.0,0.0
1526668944.32142091,44916193,0.0,0.96,0.0,11044.4257812,0.0,-0.2,354.59,354.59,0.0,0.0
1526668944.42138100,45016153,0.0,0.96,0.0,10878.9570312,0.0,-0.21,354.54,354.54,0.0,0.0
1526668944.52134085,45116113,0.0,0.97,0.0,10745.7568359,0.0,-0.19,354.46,354.46,0.0,0.0
1526668944.62130094,45216073,0.0,0.97,0.0,10643.3242188,0.0,-0.19,354.38,354.38,0.0,0.0
1526668944.72126079,45316033,0.0,0.99,0.0,10569.3964844,0.0,-0.2,354.27,354.27,0.0,0.0
1526668944.82122087,45415993,0.0,1.03,0.0,10552.4072266,0.0,-0.19,354.16,354.16,0.0,0.0
1526668944.92118096,45515953,0.0,1.06,0.0,10575.0253906,0.0,-0.18,354.04,354.04,0.0,0.0
1526668945.02114081,45615913,0.0,1.07,0.0,10615.3535156,0.0,-0.16,353.93,353.93,0.0,0.0
1526668945.12110090,45715873,0.0,1.06,0.0,10651.2128906,0.0,-0.13,353.81,353.81,0.0,0.0
1526668945.22106099,45815833,0.0,1.06,0.0,10681.9111328,0.0,-0.12,353.68,353.68,0.0,0.0
1526668945.32102084,45915793,0.0,1.06,0.0,10709.5458984,0.0,-0.12,353.56,353.56,0.0,0.0
1526668945.42181396,46016586,0.0,1.07,0.0,10742.1445312,0.0,-0.1,353.48,353.48,0.0,0.06
1526668945.52177382,46116546,0.0,1.11,0.0,10794.0830078,0.0,-0.09,353.43,353.43,0.0,0.01
1526668945.62173390,46216506,0.0,1.13,0.0,10871.2451172,0.0,-0.09,353.39,353.39,0.0,0.0
1526668945.72169399,46316466,0.0,1.15,0.0,10963.1630859,0.0,-0.08,353.36,353.36,0.0,0.0
1526668945.82165384,46416426,0.0,1.16,0.0,11058.2978516,0.0,-0.05,353.35,353.35,0.0,0.0
1526668945.92161393,46516386,0.0,1.15,0.0,13225.0,0.0,-0.02,353.34,353.34,0.0,0.0
1526668946.02157378,46616346,0.0,1.13,0.0,12860.9765625,0.0,0.0,353.35,353.35,0.0,0.0
1526668946.12153387,46716306,0.0,1.14,0.0,12863.1708984,0.0,0.0,353.36,353.36,0.0,0.0
1526668946.27147388,46866246,0.0,1.2,0.0,13061.1708984,0.0,0.02,353.34,353.34,0.0,0.0
1526668946.37226701,46967039,0.0,1.24,0.0,13525.2822266,0.0,0.03,353.32,353.32,0.0,0.0
1526668946.47222686,47066999,0.0,1.25,0.0,13929.2070312,0.0,0.05,353.32,353.32,0.0,0.0
1526668946.57218695,47166959,0.0,1.24,0.0,14192.9794922,0.0,0.06,353.33,353.33,0.0,0.0
1526668946.67214680,47266919,0.0,1.24,0.0,14360.1904297,0.0,0.07,353.34,353.34,0.0,0.0
1526668946.77210689,47366879,0.0,1.25,0.0,14496.7802734,0.0,0.08,353.35,353.35,0.0,0.0
1526668946.87206697,47466839,0.0,1.22,0.0,14578.0410156,0.0,0.09,353.38,353.38,0.0,0.0
1526668946.97202682,47566799,0.0,1.2,0.0,14586.7568359,0.0,0.08,353.4,353.4,0.0,0.0
1526668947.07198691,47666759,0.0,1.17,0.0,14526.9912109,0.0,0.06,353.43,353.43,0.0,0.0
1526668947.17194700,47766719,0.0,1.13,0.0,14419.2568359,0.0,0.05,353.46,353.46,0.0,0.0
1526668947.27190685,47866679,0.0,1.11,0.0,14273.7402344,0.0,0.05,353.48,353.48,0.0,0.0
1526668947.37186694,47966639,0.0,1.09,0.0,14111.5205078,0.0,0.07,353.49,353.49,0.0,0.0
1526668947.47182679,48066599,0.0,1.1,0.0,13964.2851562,0.0,0.1,353.5,353.5,0.0,0.0
1526668947.57178688,48166559,0.0,1.11,0.0,13853.8105469,0.0,0.12,353.5,353.5,0.0,0.0
1526668947.67174697,48266519,0.0,1.13,0.0,13775.8183594,0.0,0.1,353.51,353.51,0.0,0.0
1526668947.77170682,48366479,0.0,1.15,0.0,13737.1230469,0.0,0.08,353.52,353.52,0.0,0.0
1526668947.87166691,48466439,0.0,1.16,0.0,13720.5683594,0.0,0.04,353.53,353.53,0.0,0.0
1526668947.97162700,48566399,0.0,1.16,0.0,13714.6435547,0.0,0.03,353.53,353.53,0.0,0.0
1526668948.07158685,48666359,0.0,1.11,0.0,13677.9248047,0.0,0.04,353.54,353.54,0.0,0.0
1526668948.17154694,48766319,0.0,1.06,0.0,13590.2412109,0.0,0.06,353.56,353.56,0.0,0.0
1526668948.27150679,48866279,0.0,1.05,0.0,13478.4033203,0.0,0.07,353.59,353.59,0.0,0.0
1526668948.37229991,48967072,0.0,1.06,0.0,13377.1533203,0.0,0.09,353.62,353.62,0.0,0.0
1526668948.47226000,49067032,0.0,1.07,0.0,13295.7988281,0.0,0.11,353.66,353.66,0.0,0.0
1526668948.57221985,49166992,0.0,1.06,0.0,11236.0,0.0,0.15,353.69,353.69,0.0,0.0
1526668948.67217994,49266952,0.0,1.03,0.0,10986.9072266,0.0,0.17,353.7,353.7,0.0,0.0
1526668948.77213979,49366912,0.0,1.0,0.0,10633.0478516,0.0,0.18,353.69,353.69,0.0,0.0
1526668948.87209988,49466872,0.0,0.98,0.0,10359.3740234,0.0,0.19,353.67,353.67,0.0,0.0
1526668948.97205997,49566832,0.0,0.97,0.0,10162.0429688,0.0,0.19,353.64,353.64,0.0,0.0
1526668949.07201982,49666792,0.0,0.95,0.0,9971.98535156,0.0,0.18,353.59,353.59,0.0,0.0
1526668949.17197990,49766752,0.0,0.9,0.0,9741.46484375,0.0,0.18,353.52,353.52,0.0,0.0
1526668949.32025385,49915026,0.0,0.88,0.0,9476.08105469,0.0,0.18,353.39,353.39,0.0,0.0
1526668949.42021394,50014986,0.0,0.87,0.0,9239.91015625,0.0,0.19,353.3,353.3,0.0,0.0
1526668949.52017379,50114946,0.0,0.85,0.0,9031.07714844,0.0,0.2,353.23,353.23,0.0,0.0
1526668949.62013388,50214906,0.0,0.82,0.0,8826.82617188,0.0,0.22,353.16,353.16,0.0,0.0
1526668949.72009397,50314866,0.0,0.79,0.0,8612.12011719,0.0,0.25,353.11,353.11,0.0,0.0
1526668949.82005382,50414826,0.0,0.77,0.0,8396.9921875,0.0,0.28,353.06,353.06,0.0,0.0
1526668949.92001390,50514786,0.0,0.76,0.0,8199.45898438,0.0,0.29,352.98,352.98,0.0,0.0
1526668950.01997399,50614746,0.0,0.76,0.0,8027.27685547,0.0,0.3,352.88,352.88,0.0,0.0
1526668950.11993384,50714706,0.0,0.75,0.0,7869.67480469,0.0,0.31,352.81,352.81,0.0,0.0
1526668950.21989393,50814666,0.0,0.72,0.0,7715.99511719,0.0,0.32,352.76,352.76,0.0,0.0
1526668950.31985378,50914626,0.0,0.69,0.0,7552.56787109,0.0,0.33,352.72,352.72,0.0,0.0
1526668950.41981387,51014586,0.0,0.67,0.0,7386.43701172,0.0,0.35,352.67,352.67,0.0,0.0
1526668950.51977396,51114546,0.0,0.62,0.0,7216.23193359,0.0,0.37,352.61,352.61,0.0,0.0
1526668950.61973381,51214506,0.0,0.56,0.0,7028.24267578,0.0,0.36,352.55,352.55,0.0,0.0
1526668950.71969390,51314466,0.0,0.51,0.0,6833.22070312,0.0,0.38,352.53,352.53,0.0,0.0
1526668950.81965399,51414426,0.0,0.45,0.0,6627.02587891,0.0,0.39,352.52,352.52,0.0,0.0
1526668950.91961384,51514386,0.0,0.41,0.0,6418.69580078,0.0,0.41,352.55,352.55,0.0,0.0
1526668951.01957393,51614346,0.0,0.39,0.0,6218.31884766,0.0,0.4,352.57,352.57,0.0,0.0
1526668951.11953402,51714306,0.0,0.36,0.0,6026.37109375,0.0,0.39,352.59,352.59,0.0,0.0
1526668951.21949387,51814266,0.0,0.33,0.0,1089.0,0.0,0.39,352.62,352.62,0.0,0.0
1526668951.31945395,51914226,0.0,0.32,0.0,1067.8371582,0.0,0.37,352.69,352.69,0.0,0.0
1526668951.42024684,52015019,0.0,0.31,0.0,1035.32531738,0.0,0.35,352.76,352.76,0.0,0.0
1526668951.52020693,52114979,0.0,0.29,0.0,987.113830566,0.0,0.32,352.85,352.85,0.0,0.0
1526668951.62016702,52214939,0.0,0.28,0.0,943.21472168,0.0,0.3,352.93,352.93,0.0,0.0
1526668951.72012687,52314899,0.0,0.25,0.0,897.438415527,0.0,0.26,353.01,353.01,0.0,0.0
1526668951.82008696,52414859,0.0,0.22,0.0,840.411499023,0.0,0.22,353.1,353.1,0.0,0.0
1526668951.92004681,52514819,0.0,0.17,0.0,775.363952637,0.0,0.2,353.17,353.17,0.0,0.0
1526668952.02000690,52614779,0.0,0.14,0.0,709.034057617,0.0,0.19,353.22,353.22,0.0,0.0
1526668952.11996698,52714739,0.0,0.14,0.0,652.501403809,0.0,0.17,353.26,353.26,0.0,0.0
1526668952.26740789,52862180,0.0,0.18,0.0,611.642700195,0.0,0.16,353.3,353.3,0.0,0.0
1526668952.36820102,52962973,0.0,0.2,0.0,589.311523438,0.0,0.16,353.32,353.32,0.0,0.0
1526668952.46816087,53062933,0.0,0.21,0.0,576.095214844,0.0,0.15,353.3,353.3,0.0,0.0
1526668952.56812096,53162893,0.0,0.2,0.0,563.959838867,0.0,0.15,353.28,353.28,0.0,0.0
1526668952.66808081,53262853,0.0,0.19,0.0,550.64831543,0.0,0.17,353.25,353.25,0.0,0.0
1526668952.76804090,53362813,0.0,0.19,0.0,539.167480469,0.0,0.18,353.22,353.22,0.0,0.0
1526668952.86800098,53462773,0.0,0.2,0.0,529.297058105,0.0,0.18,353.18,353.18,0.0,0.0
1526668952.96796083,53562733,0.0,0.21,0.0,521.844787598,0.0,0.19,353.12,353.12,0.0,0.0
1526668955.31618786,55910960,0.0,0.54,0.0,1549.42626953,0.0,0.26,352.83,352.83,0.0,0.0
1526668955.41614795,56010920,0.0,0.53,0.0,1636.3515625,0.0,0.26,352.8,352.8,0.0,0.0
1526668955.51610780,56110880,0.0,0.54,0.0,1712.79467773,0.0,0.27,352.78,352.78,0.0,0.0
1526668955.61606789,56210840,0.0,0.55,0.0,1787.40991211,0.0,0.29,352.76,352.76,0.0,0.0
1526668955.71602798,56310800,0.0,0.55,0.0,1855.87963867,0.0,0.31,352.73,352.73,0.0,0.0
1526668955.81598783,56410760,0.0,0.54,0.0,1914.59899902,0.0,0.33,352.67,352.67,0.0,0.0
1526668955.91594791,56510720,0.0,0.52,0.0,1959.02868652,0.0,0.34,352.61,352.61,0.0,0.0
1526668956.01590800,56610680,0.0,0.5,0.0,1991.81848145,0.0,0.35,352.55,352.55,0.0,0.0
1526668956.11586785,56710640,0.0,0.5,0.0,2014.8392334,0.0,0.36,352.52,352.52,0.0,0.0
1526668956.21582794,56810600,0.0,0.51,0.0,2036.73999023,0.0,0.38,352.5,352.5,0.0,0.0
1526668956.31578779,56910560,0.0,0.53,0.0,2063.18896484,0.0,0.4,352.46,352.46,0.0,0.0
1526668956.41574788,57010520,0.0,0.56,0.0,2100.48950195,0.0,0.42,352.42,352.42,0.0,0.0
1526668956.51570797,57110480,0.0,0.58,0.0,3364.0,0.0,0.44,352.38,352.38,0.0,0.0
1526668956.61566782,57210440,0.0,0.58,0.0,3364.0,0.0,0.46,352.35,352.35,0.0,0.0
1526668956.71562791,57310400,0.0,0.57,0.0,3352.91577148,0.0,0.47,352.35,352.35,0.0,0.0
1526668956.81558800,57410360,0.0,0.54,0.0,3278.05688477,0.0,0.49,352.36,352.36,0.0,0.0
1526668956.91554785,57510320,0.0,0.5,0.0,3149.7668457,0.0,0.49,352.39,352.39,0.0,0.0
1526668957.01550794,57610280,0.0,0.45,0.0,2978.80786133,0.0,0.52,352.42,352.42,0.0,0.0
1526668957.11546779,57710240,0.0,0.43,0.0,2805.078125,0.0,0.54,352.44,352.44,0.0,0.0
1526668957.21542788,57810200,0.0,0.42,0.0,2658.22973633,0.0,0.56,352.49,352.49,0.0,0.0
1526668957.31538796,57910160,0.0,0.42,0.0,2547.48925781,0.0,0.57,352.58,352.58,0.0,0.0
1526668957.41618085,58010953,0.0,0.41,0.0,2457.03857422,0.0,0.57,352.66,352.66,0.0,0.0
1526668957.51614094,58110913,0.0,0.44,0.0,2391.63525391,0.0,0.55,352.74,352.74,0.0,0.0
1526668957.61610079,58210873,0.0,0.47,0.0,2362.08129883,0.0,0.53,352.85,352.85,0.0,0.0
1526668957.71606088,58310833,0.0,0.49,0.0,2356.7019043,0.0,0.51,352.95,352.95,0.0,0.0
1526668957.81602097,58410793,0.0,0.5,0.0,2364.06494141,0.0,0.5,353.04,353.04,0.0,0.0
1526668957.91598082,58510753,0.0,0.5,0.0,2373.72290039,0.0,0.51,353.12,353.12,0.0,0.0
1526668958.01594090,58610713,0.0,0.48,0.0,2375.21728516,0.0,0.53,353.21,353.21,0.0,0.0
1526668958.11590099,58710673,0.0,0.48,0.0,2370.78686523,0.0,0.56,353.3,353.3,0.0,0.0
1526668958.26584101,58860613,0.0,0.48,0.0,2362.89477539,0.0,0.58,353.36,353.36,0.0,0.0
1526668958.36663389,58961406,0.0,0.48,0.0,2359.64086914,0.0,0.58,353.39,353.39,0.0,0.0
1526668958.46659398,59061366,0.0,0.48,0.0,2359.77490234,0.0,0.57,353.42,353.42,0.0,0.0
1526668958.56655383,59161326,0.0,0.45,0.0,2352.78369141,0.0,0.54,353.42,353.42,0.0,0.0
1526668958.66651392,59261286,0.0,0.44,0.0,2334.82348633,0.0,0.5,353.41,353.41,0.0,0.0
1526668958.76647401,59361246,0.0,0.42,0.0,2313.84057617,0.0,0.48,353.4,353.4,0.0,0.0
1526668958.86643386,59461206,0.0,0.4,0.0,2285.67529297,0.0,0.49,353.39,353.39,0.0,0.0
1526668958.96639395,59561166,0.0,0.41,0.0,2258.98852539,0.0,0.51,353.37,353.37,0.0,0.0
1526668959.06635380,59661126,0.0,0.43,0.0,2240.203125,0.0,0.53,353.37,353.37,0.0,0.0
1526668959.16631389,59761086,0.0,0.44,0.0,1936.0,0.0,0.57,353.38,353.38,0.0,0.0
1526668959.26627398,59861046,0.0,0.44,0.0,1936.0,0.0,0.6,353.37,353.37,0.0,0.0
1526668959.36623383,59961006,0.0,0.43,0.0,1925.64282227,0.0,0.63,353.35,353.35,0.0,0.0
1526668959.46619391,60060966,0.0,0.42,0.0,1881.72583008,0.0,0.64,353.32,353.32,0.0,0.0
1526668959.56615400,60160926,0.0,0.43,0.0,1861.30493164,0.0,0.64,353.3,353.3,0.0,0.0
1526668959.66611385,60260886,0.0,0.45,0.0,1871.32849121,0.0,0.63,353.31,353.31,0.0,0.0
1526668959.76607394,60360846,0.0,0.48,0.0,1923.0123291,0.0,0.59,353.33,353.33,0.0,0.0
1526668959.86603379,60460806,0.0,0.51,0.0,2005.77819824,0.0,0.57,353.35,353.35,0.0,0.01
1526668959.96599388,60560766,0.0,0.53,0.0,2096.83959961,0.0,0.55,353.36,353.36,0.0,0.07
1526668960.06595397,60660726,0.0,0.54,0.0,2185.09350586,0.0,0.55,353.35,353.35,0.0,0.08
1526668960.16591382,60760686,0.0,0.51,0.0,2243.26245117,0.0,0.53,353.33,353.33,0.0,0.08
1526668960.26587391,60860646,0.0,0.48,0.0,2263.33325195,0.0,0.53,353.32,353.32,0.0,0.08
1526668960.36666679,60961439,0.0,0.46,0.0,2258.11572266,0.0,0.52,353.31,353.31,0.0,0.05
1526668960.46662688,61061399,0.0,0.43,0.0,2235.44091797,0.0,0.51,353.29,353.29,0.0,0.0
1526668960.56658697,61161359,0.0,0.42,0.0,2203.8137207,0.0,0.52,353.26,353.26,0.0,0.0
1526668960.66654682,61261319,0.0,0.41,0.0,2170.42724609,0.0,0.53,353.24,353.24,0.0,0.0
1526668960.76650691,61361279,0.0,0.39,0.0,2135.62890625,0.0,0.54,353.21,353.21,0.0,0.0
1526668960.86646700,61461239,0.0,0.38,0.0,2097.77197266,0.0,0.54,353.14,353.14,0.0,0.0
1526668960.96642685,61561199,0.0,0.38,0.0,2061.65185547,0.0,0.55,353.05,353.05,0.0,0.0
1526668961.06638694,61661159,0.0,0.38,0.0,2029.31408691,0.0,0.55,352.95,352.95,0.0,0.0
1526668961.16634679,61761119,0.0,0.38,0.0,2000.19396973,0.0,0.54,352.84,352.84,0.0,0.0
1526668961.31462097,61909393,0.0,0.37,0.0,1971.96801758,0.0,0.53,352.66,352.66,0.0,0.0
1526668961.41458082,62009353,0.0,0.36,0.0,1942.45471191,0.0,0.53,352.53,352.53,0.0,0.0
1526668961.51454091,62109313,0.0,0.36,0.0,1914.46972656,0.0,0.5,352.41,352.41,0.0,0.0
1526668961.61450100,62209273,0.0,0.36,0.0,1888.80700684,0.0,0.47,352.29,352.29,0.0,0.0
1526668961.71446085,62309233,0.0,0.36,0.0,1865.18920898,0.0,0.46,352.16,352.16,0.0,0.0
1526668961.81442094,62409193,0.0,0.36,0.0,1296.0,0.0,0.46,352.06,352.06,0.0,0.0
1526668961.91438079,62509153,0.0,0.36,0.0,1296.0,0.0,0.46,351.97,351.97,0.0,0.0
1526668962.01434088,62609113,0.0,0.36,0.0,1296.0,0.0,0.43,351.88,351.88,0.0,0.0
1526668962.11430097,62709073,0.0,0.37,0.0,1311.8951416,0.0,0.43,351.8,351.8,0.0,0.0
1526668962.21426082,62809033,0.0,0.4,0.0,1356.51831055,0.0,0.43,351.72,351.72,0.0,0.0
1526668962.31422091,62908993,0.0,0.44,0.0,1442.00976562,0.0,0.41,351.64,351.64,0.0,0.0
1526668962.41418099,63008953,0.0,0.46,0.0,1542.1229248,0.0,0.38,351.55,351.55,0.0,0.0
1526668962.51414084,63108913,0.0,0.46,0.0,1622.95068359,0.0,0.36,351.46,351.46,0.0,0.0
1526668962.61410093,63208873,0.0,0.46,0.0,1683.82104492,0.0,0.36,351.37,351.37,0.0,0.0
1526668962.71406078,63308833,0.0,0.47,0.0,1739.74450684,0.0,0.35,351.28,351.28,0.0,0.0
1526668962.81402087,63408793,0.0,0.49,0.0,1798.99755859,0.0,0.32,351.19,351.19,0.0,0.0
1526668962.91398096,63508753,0.0,0.5,0.0,1862.15087891,0.0,0.3,351.08,351.08,0.0,0.0
1526668963.01394081,63608713,0.0,0.53,0.0,1926.85119629,0.0,0.29,350.98,350.98,0.0,0.0
1526668963.11390090,63708673,0.0,0.53,0.0,1994.1907959,0.0,0.27,350.84,350.84,0.0,0.0
1526668963.21386099,63808633,0.0,0.53,0.0,2051.97875977,0.0,0.25,350.69,350.69,0.0,0.0
1526668963.31382084,63908593,0.0,0.52,0.0,2095.5065918,0.0,0.22,350.53,350.53,0.0,0.0
1526668963.41461396,64009386,0.0,0.53,0.0,2138.19262695,0.0,0.21,350.36,350.36,0.0,0.0
1526668963.51457381,64109346,0.0,0.53,0.0,2177.42114258,0.0,0.22,350.2,350.2,0.0,0.0
1526668963.61453390,64209306,0.0,0.52,0.0,2209.12426758,0.0,0.21,350.03,350.03,0.0,0.0
1526668963.71449399,64309266,0.0,0.51,0.0,2233.41625977,0.0,0.2,349.85,349.85,0.0,0.0
1526668963.81445384,64409226,0.0,0.52,0.0,2253.11328125,0.0,0.17,349.68,349.68,0.0,0.0
1526668963.91441393,64509186,0.0,0.53,0.0,2275.97509766,0.0,0.16,349.47,349.47,0.0,0.0
1526668964.01437402,64609146,0.0,0.53,0.0,2300.21484375,0.0,0.15,349.25,349.25,0.0,0.0
1526668964.11433387,64709106,0.0,0.54,0.0,2325.83007812,0.0,0.14,349.05,349.05,0.0,0.0
1526668964.26427388,64859046,0.0,0.59,0.0,2359.39160156,0.0,0.12,348.78,348.78,0.0,0.0
1526668964.36506701,64959839,0.0,0.63,0.0,2415.58105469,0.0,0.12,348.6,348.6,0.0,0.0
1526668964.46502686,65059799,0.0,0.67,0.0,4489.0,0.0,0.11,348.43,348.43,0.0,0.0
1526668964.56498694,65159759,0.0,0.7,0.0,4652.24462891,0.0,0.09,348.28,348.28,0.0,0.0
1526668964.66494679,65259719,0.0,0.74,0.0,4899.75292969,0.0,0.06,348.15,348.15,0.0,0.0
1526668964.76490688,65359679,0.0,0.78,0.0,5180.71191406,0.0,0.06,348.05,348.05,0.0,0.0
1526668964.86486697,65459639,0.0,0.81,0.0,5479.38183594,0.0,0.09,347.95,347.95,0.0,0.0
1526668964.96482682,65559599,0.0,0.83,0.0,5723.8828125,0.0,0.11,347.86,347.86,0.0,0.0
1526668965.06478691,65659559,0.0,0.83,0.0,5914.10595703,0.0,0.13,347.77,347.77,0.0,0.0
1526668965.16474700,65759519,0.0,0.81,0.0,6026.07373047,0.0,0.12,347.69,347.69,0.0,0.0
1526668967.31305385,67907826,0.0,0.79,0.0,6276.56494141,0.0,0.08,346.4,346.4,0.0,0.0
1526668967.41301394,68007786,0.0,0.78,0.0,6247.60009766,0.0,0.05,346.33,346.33,0.0,0.0
1526668967.51297379,68107746,0.0,0.78,0.0,6207.93945312,0.0,0.04,346.27,346.27,0.0,0.0
1526668967.61293387,68207706,0.0,0.76,0.0,6143.07324219,0.0,0.04,346.22,346.22,0.0,0.0
1526668967.71289396,68307666,0.0,0.75,0.0,6078.21240234,0.0,0.05,346.19,346.19,0.0,0.0
1526668967.81285381,68407626,0.0,0.76,0.0,6020.43164062,0.0,0.06,346.15,346.15,0.0,0.0
1526668967.91281390,68507586,0.0,0.77,0.0,6004.47070312,0.0,0.05,346.15,346.15,0.0,0.0
1526668968.01277399,68607546,0.0,0.75,0.0,5981.578125,0.0,0.06,346.13,346.13,0.0,0.0
1526668968.11273384,68707506,0.0,0.75,0.0,5946.36035156,0.0,0.06,346.1,346.1,0.0,0.0
1526668968.21269393,68807466,0.0,0.73,0.0,5904.46044922,0.0,0.07,346.03,346.03,0.0,0.0
1526668968.31265402,68907426,0.0,0.73,0.0,5857.0,0.0,0.09,345.96,345.96,0.0,0.0
1526668968.41261387,69007386,0.0,0.73,0.0,5816.77148438,0.0,0.11,345.88,345.88,0.0,0.0
1526668968.51257396,69107346,0.0,0.74,0.0,5790.82470703,0.0,0.13,345.81,345.81,0.0,0.0
1526668968.61253381,69207306,0.0,0.72,0.0,5762.73046875,0.0,0.15,345.74,345.74,0.0,0.0
1526668968.71249390,69307266,0.0,0.72,0.0,5726.84033203,0.0,0.15,345.71,345.71,0.0,0.0
1526668968.81245399,69407226,0.0,0.74,0.0,5704.92285156,0.0,0.14,345.68,345.68,0.0,0.0
1526668968.91241384,69507186,0.0,0.74,0.0,5692.29248047,0.0,0.13,345.64,345.64,0.0,0.0
1526668969.01237392,69607146,0.0,0.73,0.0,5675.41064453,0.0,0.1,345.6,345.6,0.0,0.0
1526668969.11233401,69707106,0.0,0.73,0.0,5658.19775391,0.0,0.06,345.56,345.56,0.0,0.0
1526668969.21229386,69807066,0.0,0.72,0.0,5637.12304688,0.0,0.02,345.5,345.5,0.0,0.0
1526668969.31225395,69907026,0.0,0.7,0.0,5609.38525391,0.0,0.0,345.43,345.43,0.0,0.0
1526668969.41304684,70007819,0.0,0.69,0.0,5576.00439453,0.0,0.0,345.36,345.36,0.0,0.0
1526668969.51300693,70107779,0.0,0.66,0.0,5532.22705078,0.0,-0.01,345.28,345.28,0.0,0.0
1526668969.61296701,70207739,0.0,0.63,0.0,5477.25976562,0.0,-0.02,345.22,345.22,0.0,0.0
1526668969.71292686,70307699,0.0,0.6,0.0,3600.0,0.0,-0.05,345.19,345.19,0.0,0.0
1526668969.81288695,70407659,0.0,0.58,0.0,3499.77783203,0.0,-0.05,345.16,345.16,0.0,0.0
1526668969.91284680,70507619,0.0,0.56,0.0,3395.43530273,0.0,-0.05,345.11,345.11,0.0,0.0
1526668970.01280689,70607579,0.0,0.57,0.0,3321.45605469,0.0,-0.05,345.07,345.07,0.0,0.0
1526668970.11276698,70707539,0.0,0.59,0.0,3312.96362305,0.0,-0.06,345.04,345.04,0.0,0.0
1526668970.26020789,70854980,0.0,0.63,0.0,3377.95117188,0.0,-0.07,345.05,345.05,0.0,0.0
1526668970.36100101,70955773,0.0,0.65,0.0,3510.453125,0.0,-0.09,345.06,345.06,0.0,0.0
1526668970.46096087,71055733,0.0,0.68,0.0,3638.96850586,0.0,-0.1,345.03,345.03,0.0,0.0
1526668970.56092095,71155693,0.0,0.68,0.0,3760.203125,0.0,-0.1,345.0,345.0,0.0,0.0
1526668970.66088080,71255653,0.0,0.64,0.0,3822.3972168,0.0,-0.09,344.92,344.92,0.0,0.0
1526668970.76084089,71355613,0.0,0.62,0.0,3834.12841797,0.0,-0.09,344.79,344.79,0.0,0.0
1526668970.86080098,71455573,0.0,0.59,0.0,3816.14160156,0.0,-0.11,344.68,344.68,0.0,0.0
1526668970.96076083,71555533,0.0,0.57,0.0,3773.88867188,0.0,-0.13,344.56,344.56,0.0,0.0
1526668971.06072092,71655493,0.0,0.55,0.0,3724.24194336,0.0,-0.17,344.42,344.42,0.0,0.0
1526668971.16068101,71755453,0.0,0.54,0.0,3669.91503906,0.0,-0.22,344.28,344.28,0.0,0.0
1526668971.26064086,71855413,0.0,0.52,0.0,3610.7487793,0.0,-0.27,344.13,344.13,0.0,0.0
1526668971.36060095,71955373,0.0,0.51,0.0,3549.40625,0.0,-0.28,344.02,344.02,0.0,0.0
1526668971.46056080,72055333,0.0,0.53,0.0,3499.75024414,0.0,-0.29,343.93,343.93,0.0,0.0
1526668971.56052089,72155293,0.0,0.52,0.0,3459.32275391,0.0,-0.3,343.87,343.87,0.0,0.0
1526668971.66048098,72255253,0.0,0.5,0.0,3412.46264648,0.0,-0.31,343.84,343.84,0.0,0.0
1526668971.76044083,72355213,0.0,0.49,0.0,3367.0,0.0,-0.31,343.79,343.79,0.0,0.0
1526668971.86040092,72455173,0.0,0.49,0.0,3321.2722168,0.0,-0.33,343.75,343.75,0.0,0.0
1526668971.96036100,72555133,0.0,0.47,0.0,3275.20898438,0.0,-0.35,343.69,343.69,0.0,0.0
1526668972.06032085,72655093,0.0,0.43,0.0,3220.22265625,0.0,-0.36,343.62,343.62,0.0,0.0
1526668972.16028094,72755053,0.0,0.39,0.0,3155.89941406,0.0,-0.35,343.55,343.55,0.0,0.0
1526668972.26024079,72855013,0.0,0.35,0.0,3083.81787109,0.0,-0.34,343.48,343.48,0.0,0.0
1526668972.36103392,72955806,0.0,0.3,0.0,900.0,0.0,-0.34,343.42,343.42,0.0,0.0
1526668972.46099401,73055766,0.0,0.28,0.0,832.666687012,0.0,-0.34,343.38,343.38,0.0,0.0
1526668972.56095386,73155726,0.0,0.29,0.0,815.799987793,0.0,-0.36,343.35,343.35,0.0,0.0
1526668972.66091394,73255686,0.0,0.32,0.0,856.679992676,0.0,-0.38,343.32,343.32,0.0,0.0
1526668972.76087379,73355646,0.0,0.35,0.0,926.557556152,0.0,-0.38,343.28,343.28,0.0,0.0
1526668972.86083388,73455606,0.0,0.37,0.0,1002.95611572,0.0,-0.39,343.18,343.18,0.0,0.0
1526668972.96079397,73555566,0.0,0.4,0.0,1085.08569336,0.0,-0.41,343.07,343.07,0.0,0.0
1526668973.06075382,73655526,0.0,0.41,0.0,1167.5859375,0.0,-0.44,342.93,342.93,0.0,0.0
1526668973.16071391,73755486,0.0,0.41,0.0,1230.77539062,0.0,-0.46,342.81,342.81,0.0,0.0
1526668973.30898786,73903760,0.0,0.39,0.0,1274.82739258,0.0,-0.45,342.63,342.63,0.0,0.0
1526668973.40894794,74003720,0.0,0.38,0.0,1292.67651367,0.0,-0.47,342.51,342.51,0.0,0.0
1526668973.50890779,74103680,0.0,0.36,0.0,1300.56176758,0.0,-0.48,342.39,342.39,0.0,0.0
1526668973.60886788,74203640,0.0,0.35,0.0,1296.96496582,0.0,-0.47,342.28,342.28,0.0,0.0
1526668973.70882797,74303600,0.0,0.32,0.0,1282.30285645,0.0,-0.45,342.17,342.17,0.0,0.0
1526668973.80878782,74403560,0.0,0.3,0.0,1257.73803711,0.0,-0.43,342.07,342.07,0.0,0.0
1526668973.90874791,74503520,0.0,0.3,0.0,1234.0859375,0.0,-0.42,341.99,341.99,0.0,0.0
1526668974.00870800,74603480,0.0,0.29,0.0,1211.99536133,0.0,-0.43,341.91,341.91,0.0,0.0
1526668974.10866785,74703440,0.0,0.25,0.0,1183.45690918,0.0,-0.43,341.84,341.84,0.0,0.0
1526668974.20862794,74803400,0.0,0.23,0.0,1149.57788086,0.0,-0.43,341.79,341.79,0.0,0.0
1526668974.30858779,74903360,0.0,0.22,0.0,1115.77648926,0.0,-0.42,341.73,341.73,0.0,0.0
1526668974.40854788,75003320,0.0,0.21,0.0,1084.17016602,0.0,-0.43,341.67,341.67,0.0,0.01
1526668974.50850797,75103280,0.0,0.2,0.0,1052.60827637,0.0,-0.42,341.62,341.62,0.0,0.06
1526668974.60846782,75203240,0.0,0.2,0.0,1023.11187744,0.0,-0.44,341.55,341.55,0.0,0.06
1526668974.70842791,75303200,0.0,0.22,0.0,997.145935059,0.0,-0.47,341.48,341.48,0.0,0.06
1526668974.80838799,75403160,0.0,0.24,0.0,977.007263184,0.0,-0.49,341.43,341.43,0.0,0.06
1526668974.90834785,75503120,0.0,0.27,0.0,964.139282227,0.0,-0.51,341.4,341.4,0.0,0.06
1526668975.00830793,75603080,0.0,0.31,0.0,936.599975586,0.0,-0.5,341.37,341.37,0.0,0.06
1526668975.10826778,75703040,0.0,0.34,0.0,1035.17773438,0.0,-0.49,341.33,341.33,0.0,0.06
1526668975.20822787,75803000,0.0,0.37,0.0,1129.01171875,0.0,-0.49,341.28,341.28,0.0,0.06
1526668975.30818796,75902960,0.0,0.41,0.0,1250.12805176,0.0,-0.53,341.22,341.22,0.0,0.05
1526668975.40898085,76003753,0.0,0.48,0.0,1434.46057129,0.0,-0.56,341.14,341.14,0.0,0.04
1526668975.50894094,76103713,0.0,0.52,0.0,1643.68774414,0.0,-0.59,341.05,341.05,0.0,0.01
1526668975.60890079,76203673,0.0,0.56,0.0,1857.40820312,0.0,-0.61,341.01,341.01,0.0,0.01
1526668975.70886087,76303633,0.0,0.59,0.0,2057.62451172,0.0,-0.63,340.98,340.98,0.0,0.01
1526668975.80882096,76403593,0.0,0.58,0.0,2229.56933594,0.0,-0.63,340.96,340.96,0.0,0.01
1526668975.90878081,76503553,0.0,0.56,0.0,2338.52880859,0.0,-0.64,340.96,340.96,0.0,0.01
1526668976.00874090,76603513,0.0,0.54,0.0,2407.72338867,0.0,-0.65,340.95,340.95,0.0,0.01
1526668976.10870099,76703473,0.0,0.54,0.0,2453.41113281,0.0,-0.63,340.96,340.96,0.0,0.01
1526668976.25864100,76853413,0.0,0.54,0.0,2490.23461914,0.0,-0.59,340.94,340.94,0.0,0.01
1526668976.35943389,76954206,0.0,0.53,0.0,2519.15405273,0.0,-0.56,340.9,340.9,0.0,0.01
1526668979.30742097,79902193,0.0,0.46,0.0,2318.42578125,0.0,-0.33,340.01,340.01,0.0,0.0
1526668979.40738082,80002153,0.0,0.45,0.0,2304.23461914,0.0,-0.34,339.95,339.95,0.0,0.0
1526668979.50734091,80102113,0.0,0.45,0.0,2288.84985352,0.0,-0.37,339.87,339.87,0.0,0.0
1526668979.60730100,80202073,0.0,0.46,0.0,2275.19067383,0.0,-0.38,339.82,339.82,0.0,0.0
1526668979.70726085,80302033,0.0,0.49,0.0,2272.52978516,0.0,-0.38,339.78,339.78,0.0,0.0
1526668979.80722094,80401993,0.0,0.51,0.0,2283.78369141,0.0,-0.38,339.74,339.74,0.0,0.0
1526668979.90718079,80501953,0.0,0.53,0.0,2304.07006836,0.0,-0.39,339.7,339.7,0.0,0.0
1526668980.00714087,80601913,0.0,0.56,0.0,2332.41479492,0.0,-0.42,339.67,339.67,0.0,0.0
1526668980.10710096,80701873,0.0,0.59,0.0,2374.08178711,0.0,-0.48,339.65,339.65,0.0,0.0
1526668980.20706081,80801833,0.0,0.58,0.0,2415.41943359,0.0,-0.55,339.65,339.65,0.0,0.0
1526668980.30702090,80901793,0.0,0.57,0.0,3249.0,0.0,-0.61,339.64,339.64,0.0,0.0
1526668980.40698099,81001753,0.0,0.56,0.0,3155.65209961,0.0,-0.68,339.64,339.64,0.0,0.0
1526668980.50694084,81101713,0.0,0.55,0.0,3118.11621094,0.0,-0.72,339.64,339.64,0.0,0.0
1526668980.60690093,81201673,0.0,0.53,0.0,3054.96020508,0.0,-0.74,339.65,339.65,0.0,0.0
1526668980.70686078,81301633,0.0,0.49,0.0,2941.01806641,0.0,-0.75,339.64,339.64,0.0,0.0
1526668980.80682087,81401593,0.0,0.45,0.0,2795.49023438,0.0,-0.76,339.64,339.64,0.0,0.0
1526668980.90678096,81501553,0.0,0.42,0.0,2650.18286133,0.0,-0.76,339.61,339.61,0.0,0.0
1526668981.00674081,81601513,0.0,0.4,0.0,2515.00708008,0.0,-0.76,339.55,339.55,0.0,0.0
1526668981.10670090,81701473,0.0,0.36,0.0,2383.31298828,0.0,-0.74,339.5,339.5,0.0,0.0
1526668981.20666099,81801433,0.0,0.32,0.0,2247.33056641,0.0,-0.74,339.46,339.46,0.0,0.0
1526668981.30662084,81901393,0.0,0.29,0.0,2114.35229492,0.0,-0.74,339.42,339.42,0.0,0.0
1526668981.40741396,82002186,0.0,0.28,0.0,1995.16589355,0.0,-0.73,339.4,339.4,0.0,0.0
1526668981.50737381,82102146,0.0,0.26,0.0,1892.4465332,0.0,-0.73,339.4,339.4,0.0,0.0
1526668981.60733390,82202106,0.0,0.21,0.0,1791.4753418,0.0,-0.73,339.4,339.4,0.0,0.0
1526668981.70729399,82302066,0.0,0.16,0.0,1689.42932129,0.0,-0.73,339.38,339.38,0.0,0.0
1526668981.80725384,82402026,0.0,0.1,0.0,1589.0098877,0.0,-0.74,339.34,339.34,0.0,0.0
1526668981.90721393,82501986,0.0,0.05,0.0,1493.80493164,0.0,-0.76,339.28,339.28,0.0,0.0
1526668982.00717402,82601946,0.0,0.02,0.0,1407.29736328,0.0,-0.77,339.2,339.2,0.0,0.0
1526668982.10713387,82701906,0.0,0.0,0.0,1329.81542969,0.0,-0.78,339.12,339.12,0.0,0.0
1526668982.25707388,82851846,0.0,-0.01,0.0,1258.75354004,0.0,-0.75,339.04,339.04,0.0,0.0
1526668982.35786700,82952639,0.0,-0.02,0.0,1196.5489502,0.0,-0.73,339.01,339.01,0.0,0.0
1526668982.45782685,83052599,0.0,-0.02,0.0,1140.23022461,0.0,-0.71,338.98,338.98,0.0,0.0
1526668982.55778694,83152559,0.0,-0.01,0.0,1088.88952637,0.0,-0.69,338.96,338.96,0.0,0.0
1526668982.65774679,83252519,0.0,0.0,0.0,1041.90722656,0.0,-0.68,338.96,338.96,0.0,0.0
1526668982.75770688,83352479,0.0,0.0,0.0,998.80871582,0.0,-0.68,338.95,338.95,0.0,0.0
1526668982.85766697,83452439,0.0,-0.03,0.0,959.22644043,0.0,-0.66,338.96,338.96,0.0,0.0
1526668982.95762682,83552399,0.0,-0.02,0.0,7.57142877579,0.0,-0.66,338.97,338.97,0.0,0.0
1526668983.05758691,83652359,0.0,0.0,0.0,2.2553191185,0.0,-0.66,338.98,338.98,0.0,0.0
1526668983.15754700,83752319,0.0,0.03,0.0,2.11494255066,0.0,-0.64,338.99,338.99,0.0,0.0
1526668983.25750685,83852279,0.0,0.07,0.0,9.45669269562,0.0,-0.62,338.99,338.99,0.0,0.0
1526668983.35746694,83952239,0.0,0.08,0.0,21.443113327,0.0,-0.58,339.0,339.0,0.0,0.0
1526668983.45742679,84052199,0.0,0.08,0.0,29.6666660309,0.0,-0.55,339.02,339.02,0.0,0.0
1526668983.55738688,84152159,0.0,0.1,0.0,36.8502006531,0.0,-0.54,339.06,339.06,0.0,0.0
1526668983.65734696,84252119,0.0,0.14,0.0,51.3240432739,0.0,-0.57,339.12,339.12,0.0,0.0
1526668983.75730681,84352079,0.0,0.18,0.0,77.9449539185,0.0,-0.6,339.2,339.2,0.0,0.0
1526668983.85726690,84452039,0.0,0.22,0.0,114.735694885,0.0,-0.62,339.28,339.28,0.0,0.0
1526668983.95722699,84551999,0.0,0.26,0.0,161.110565186,0.0,-0.64,339.32,339.32,0.0,0.0
1526668984.05718684,84651959,0.0,0.28,0.0,212.953018188,0.0,-0.69,339.35,339.35,0.0,0.0
1526668984.15714693,84751919,0.0,0.29,0.0,262.431213379,0.0,-0.71,339.37,339.37,0.0,0.0
1526668984.25710678,84851879,0.0,0.26,0.0,301.222015381,0.0,-0.71,339.39,339.39,0.0,0.0
1526668984.35789990,84952672,0.0,0.22,0.0,322.412689209,0.0,-0.71,339.41,339.41,0.0,0.0
1526668984.45785999,85052632,0.0,0.2,0.0,330.746307373,0.0,-0.72,339.43,339.43,0.0,0.0
1526668984.55781984,85152592,0.0,0.2,0.0,335.027832031,0.0,-0.73,339.47,339.47,0.0,0.0
1526668984.65777993,85252552,0.0,0.2,0.0,338.810760498,0.0,-0.74,339.5,339.5,0.0,0.0
1526668984.75773978,85352512,0.0,0.19,0.0,341.426422119,0.0,-0.76,339.53,339.53,0.0,0.0
1526668984.85769987,85452472,0.0,0.15,0.0,338.588012695,0.0,-0.77,339.58,339.58,0.0,0.0
1526668984.95765996,85552432,0.0,0.1,0.0,329.344482422,0.0,-0.78,339.63,339.63,0.0,0.0
1526668985.05761981,85652392,0.0,0.08,0.0,317.4793396,0.0,-0.8,339.66,339.66,0.0,0.0
1526668985.15757990,85752352,0.0,0.08,0.0,306.048492432,0.0,-0.82,339.68,339.68,0.0,0.0
1526668985.30585384,85900626,0.0,0.1,0.0,296.419647217,0.0,-0.81,339.71,339.71,0.0,0.0
1526668985.40581393,86000586,0.0,0.08,0.0,287.693908691,0.0,-0.81,339.72,339.72,0.0,0.0
1526668985.50577378,86100546,0.0,0.08,0.0,278.808349609,0.0,-0.83,339.72,339.72,0.0,0.0
1526668985.60573387,86200506,0.0,0.07,0.0,51.1428565979,0.0,-0.83,339.71,339.71,0.0,0.0
1526668985.70569396,86300466,0.0,0.06,0.0,41.5744667053,0.0,-0.82,339.72,339.72,0.0,0.0
1526668985.80565381,86400426,0.0,0.09,0.0,49.1149406433,0.0,-0.8,339.73,339.73,0.0,0.0
1526668985.90561390,86500386,0.0,0.11,0.0,66.4409484863,0.0,-0.78,339.74,339.74,0.0,0.0
1526668986.00557399,86600346,0.0,0.11,0.0,81.9880218506,0.0,-0.76,339.75,339.75,0.0,0.0
1526668986.10553384,86700306,0.0,0.09,0.0,86.4396133423,0.0,-0.74,339.76,339.76,0.0,0.0
1526668986.20549393,86800266,0.0,0.07,0.0,83.7854232788,0.0,-0.75,339.75,339.75,0.0,0.0
1526668986.30545402,86900226,0.0,0.04,0.0,76.6759567261,0.0,-0.78,339.74,339.74,0.0,0.0
1526668986.40541387,87000186,0.0,0.03,0.0,68.6758422852,0.0,-0.8,339.74,339.74,0.0,0.0
1526668986.50537395,87100146,0.0,0.03,0.0,62.171661377,0.0,-0.81,339.73,339.73,0.0,0.0
1526668986.60533381,87200106,0.0,0.04,0.0,57.1351356506,0.0,-0.82,339.72,339.72,0.0,0.0
1526668986.70529389,87300066,0.0,0.06,0.0,54.3534660339,0.0,-0.83,339.71,339.71,0.0,0.0
1526668986.80525398,87400026,0.0,0.07,0.0,53.7002067566,0.0,-0.82,339.71,339.71,0.0,0.0
1526668986.90521383,87499986,0.0,0.09,0.0,54.4041748047,0.0,-0.81,339.72,339.72,0.0,0.0
1526668987.00517392,87599946,0.0,0.1,0.0,56.5820121765,0.0,-0.8,339.72,339.72,0.0,0.0
1526668987.10513401,87699906,0.0,0.12,0.0,60.7182884216,0.0,-0.77,339.72,339.72,0.0,0.0
1526668987.20509386,87799866,0.0,0.14,0.0,67.2704772949,0.0,-0.75,339.71,339.71,0.0,0.0
1526668987.30505395,87899826,0.0,0.15,0.0,75.3144073486,0.0,-0.72,339.69,339.69,0.0,0.0
1526668987.40584683,88000619,0.0,0.19,0.0,86.7744140625,0.0,-0.72,339.65,339.65,0.0,0.0
1526668987.50580692,88100579,0.0,0.25,0.0,107.889175415,0.0,-0.7,339.63,339.63,0.0,0.0
1526668987.60576701,88200539,0.0,0.27,0.0,136.073104858,0.0,-0.66,339.63,339.63,0.0,0.0
1526668987.70572686,88300499,0.0,0.27,0.0,165.567886353,0.0,-0.62,339.66,339.66,0.0,0.0
1526668987.80568695,88400459,0.0,0.27,0.0,190.976318359,0.0,-0.62,339.69,339.69,0.0,0.0
1526668987.90564680,88500419,0.0,0.26,0.0,212.648330688,0.0,-0.63,339.7,339.7,0.0,0.0
1526668988.00560689,88600379,0.0,0.26,0.0,231.81489563,0.0,-0.64,339.72,339.72,0.0,0.0
1526668988.10556698,88700339,0.0,0.26,0.0,249.458786011,0.0,-0.66,339.75,339.75,0.0,0.0
1526668988.20552683,88800299,0.0,0.28,0.0,784.0,0.0,-0.66,339.78,339.78,0.0,0.0
1526668988.35380101,88948573,0.0,0.31,0.0,864.914916992,0.0,-0.68,339.83,339.83,0.0,0.0
1526668988.45376086,89048533,0.0,0.33,0.0,944.10345459,0.0,-0.72,339.88,339.88,0.0,0.0
1526668988.55372095,89148493,0.0,0.34,0.0,993.433044434,0.0,-0.76,339.92,339.92,0.0,0.0
1526668991.30178785,91896560,0.0,0.6,0.0,3768.52099609,0.0,-0.96,341.47,341.47,0.0,0.03
1526668991.40174794,91996520,0.0,0.59,0.0,3716.9855957,0.0,-0.95,341.58,341.58,0.0,0.01
1526668991.50170779,92096480,0.0,0.59,0.0,3678.76928711,0.0,-0.94,341.69,341.69,0.0,0.01
1526668991.60166788,92196440,0.0,0.58,0.0,3649.98266602,0.0,-0.94,341.81,341.81,0.0,0.01
1526668991.70162797,92296400,0.0,0.58,0.0,3615.0,0.0,-0.97,341.95,341.95,0.0,0.01
1526668991.80158782,92396360,0.0,0.6,0.0,3595.93725586,0.0,-0.99,342.07,342.07,0.0,0.01
1526668991.90154791,92496320,0.0,0.63,0.0,3606.80102539,0.0,-0.99,342.18,342.18,0.0,0.01
1526668992.00150800,92596280,0.0,0.67,0.0,3661.71362305,0.0,-0.98,342.28,342.28,0.0,0.01
1526668992.10146785,92696240,0.0,0.7,0.0,3751.80493164,0.0,-0.97,342.38,342.38,0.0,0.01
1526668992.20142794,92796200,0.0,0.72,0.0,3850.19921875,0.0,-0.94,342.5,342.5,0.0,0.01
1526668992.30138779,92896160,0.0,0.7,0.0,3933.49560547,0.0,-0.89,342.62,342.62,0.0,0.01
1526668992.40134788,92996120,0.0,0.66,0.0,3976.60449219,0.0,-0.85,342.75,342.75,0.0,0.01
1526668992.50130796,93096080,0.0,0.63,0.0,3987.62744141,0.0,-0.84,342.88,342.88,0.0,0.01
1526668992.60126781,93196040,0.0,0.61,0.0,3978.57495117,0.0,-0.85,343.0,343.0,0.0,0.01
1526668992.70122790,93296000,0.0,0.6,0.0,3962.23925781,0.0,-0.85,343.12,343.12,0.0,0.01
1526668992.80118799,93395960,0.0,0.6,0.0,3943.34814453,0.0,-0.86,343.24,343.24,0.0,0.01
1526668992.90114784,93495920,0.0,0.6,0.0,3926.32958984,0.0,-0.87,343.32,343.32,0.0,0.01
1526668993.00110793,93595880,0.0,0.58,0.0,3903.36474609,0.0,-0.89,343.37,343.37,0.0,0.01
1526668993.10106778,93695840,0.0,0.57,0.0,3875.15209961,0.0,-0.92,343.41,343.41,0.0,0.01
1526668993.20102787,93795800,0.0,0.56,0.0,3846.30517578,0.0,-0.94,343.43,343.43,0.0,0.01
1526668993.30098796,93895760,0.0,0.54,0.0,3812.46118164,0.0,-0.97,343.45,343.45,0.0,0.01
1526668993.40178084,93996553,0.0,0.51,0.0,3771.89379883,0.0,-1.0,343.45,343.45,0.0,0.01
1526668993.50174093,94096513,0.0,0.49,0.0,2415.14282227,0.0,-1.04,343.45,343.45,0.0,0.01
1526668993.60170078,94196473,0.0,0.47,0.0,2331.25537109,0.0,-1.09,343.43,343.43,0.0,0.01
1526668993.70166087,94296433,0.0,0.45,0.0,2230.35620117,0.0,-1.13,343.41,343.41,0.0,0.01
1526668993.80162096,94396393,0.0,0.45,0.0,2165.67724609,0.0,-1.14,343.42,343.42,0.0,0.01
1526668993.90158081,94496353,0.0,0.47,0.0,2143.46118164,0.0,-1.14,343.43,343.43,0.0,0.01
1526668994.00154090,94596313,0.0,0.47,0.0,2156.12548828,0.0,-1.14,343.45,343.45,0.0,0.01
1526668994.10150099,94696273,0.0,0.46,0.0,2157.91088867,0.0,-1.16,343.49,343.49,0.0,0.01
1526668994.25144100,94846213,0.0,0.42,0.0,2135.97558594,0.0,-1.15,343.57,343.57,0.0,0.01
1526668994.35223389,94947006,0.0,0.4,0.0,2079.55786133,0.0,-1.14,343.64,343.64,0.0,0.01
1526668994.45219398,95046966,0.0,0.36,0.0,2009.54345703,0.0,-1.15,343.7,343.7,0.0,0.01
1526668994.55215383,95146926,0.0,0.33,0.0,1930.84558105,0.0,-1.17,343.74,343.74,0.0,0.01
1526668994.65211391,95246886,0.0,0.31,0.0,1847.79016113,0.0,-1.2,343.77,343.77,0.0,0.01
1526668994.75207400,95346846,0.0,0.31,0.0,1775.10241699,0.0,-1.22,343.82,343.82,0.0,0.01
1526668994.85203385,95446806,0.0,0.28,0.0,1706.28222656,0.0,-1.23,343.86,343.86,0.0,0.01
1526668994.95199394,95546766,0.0,0.25,0.0,1635.83276367,0.0,-1.24,343.87,343.87,0.0,0.01
1526668995.05195379,95646726,0.0,0.21,0.0,1561.90625,0.0,-1.24,343.86,343.86,0.0,0.0
1526668995.15191388,95746686,0.0,0.18,0.0,1487.41052246,0.0,-1.24,343.84,343.84,0.0,0.0
1526668995.25187397,95846646,0.0,0.18,0.0,1419.77038574,0.0,-1.21,343.83,343.83,0.0,0.01
1526668995.35183382,95946606,0.0,0.17,0.0,1358.89013672,0.0,-1.19,343.83,343.83,0.0,0.01
1526668995.45179391,96046566,0.0,0.15,0.0,1301.71618652,0.0,-1.19,343.84,343.84,0.0,0.0
1526668995.55175400,96146526,0.0,0.13,0.0,1246.93811035,0.0,-1.18,343.85,343.85,0.0,0.0
1526668995.65171385,96246486,0.0,0.13,0.0,1196.09204102,0.0,-1.16,343.86,343.86,0.0,0.0
1526668995.75167394,96346446,0.0,0.17,0.0,1152.68469238,0.0,-1.14,343.88,343.88,0.0,0.01
1526668995.85163379,96446406,0.0,0.2,0.0,1117.49890137,0.0,-1.14,343.89,343.89,0.0,0.01
1526668995.95159388,96546366,0.0,0.21,0.0,1088.4432373,0.0,-1.14,343.88,343.88,0.0,0.0
1526668996.05155396,96646326,0.0,0.23,0.0,1064.60913086,0.0,-1.15,343.87,343.87,0.0,0.0
1526668996.15151381,96746286,0.0,0.26,0.0,631.375,0.0,-1.15,343.88,343.88,0.0,0.0
1526668996.25147390,96846246,0.0,0.27,0.0,681.8125,0.0,-1.15,343.9,343.9,0.0,0.0
1526668996.35226679,96947039,0.0,0.28,0.0,717.636352539,0.0,-1.16,343.89,343.89,0.0,0.0
1526668996.45222688,97046999,0.0,0.28,0.0,741.9375,0.0,-1.17,343.88,343.88,0.0,0.0
1526668996.55218697,97146959,0.0,0.29,0.0,764.166687012,0.0,-1.19,343.87,343.87,0.0,0.0
1526668996.65214682,97246919,0.0,0.31,0.0,795.586547852,0.0,-1.22,343.88,343.88,0.0,0.0
1526668996.75210690,97346879,0.0,0.33,0.0,830.729858398,0.0,-1.21,343.9,343.9,0.0,0.0
1526668996.85206699,97446839,0.0,0.35,0.0,879.28125,0.0,-1.23,343.91,343.91,0.0,0.0
1526668996.95202684,97546799,0.0,0.37,0.0,933.024414062,0.0,-1.27,343.89,343.89,0.0,0.0
1526668997.05198693,97646759,0.0,0.38,0.0,984.489135742,0.0,-1.29,343.87,343.87,0.0,0.0
1526668997.15194678,97746719,0.0,0.39,0.0,1033.50244141,0.0,-1.29,343.85,343.85,0.0,0.0
1526668997.30022097,97894993,0.0,0.41,0.0,1085.18078613,0.0,-1.28,343.76,343.76,0.0,0.0
1526668997.40018082,97994953,0.0,0.41,0.0,1134.01843262,0.0,-1.29,343.72,343.72,0.0,0.0
1526668997.50014091,98094913,0.0,0.42,0.0,1175.92797852,0.0,-1.3,343.67,343.67,0.0,0.0
1526668997.60010099,98194873,0.0,0.43,0.0,1218.8380127,0.0,-1.33,343.62,343.62,0.0,0.0
1526668997.70006084,98294833,0.0,0.46,0.0,1266.3684082,0.0,-1.34,343.58,343.58,0.0,0.0
1526668997.80002093,98394793,0.0,0.47,0.0,1322.97680664,0.0,-1.34,343.55,343.55,0.0,0.0
1526668997.89998078,98494753,0.0,0.44,0.0,1367.78051758,0.0,-1.33,343.51,343.51,0.0,0.0
1526668997.99994087,98594713,0.0,0.42,0.0,1394.6126709,0.0,-1.32,343.45,343.45,0.0,0.0
1526668998.09990096,98694673,0.0,0.39,0.0,1405.96618652,0.0,-1.3,343.4,343.4,0.0,0.0
1526668998.19986081,98794633,0.0,0.37,0.0,1406.84777832,0.0,-1.28,343.38,343.38,0.0,0.0
1526668998.29982090,98894593,0.0,0.36,0.0,1402.30773926,0.0,-1.27,343.38,343.38,0.0,0.0
1526668998.39978099,98994553,0.0,0.31,0.0,1390.90087891,0.0,-1.27,343.37,343.37,0.0,0.0
1526668998.49974084,99094513,0.0,0.26,0.0,1365.94396973,0.0,-1.26,343.37,343.37,0.0,0.0
1526668998.59970093,99194473,0.0,0.23,0.0,1334.43798828,0.0,-1.24,343.37,343.37,0.0,0.0
1526668998.69966102,99294433,0.0,0.2,0.0,1299.8223877,0.0,-1.22,343.4,343.4,0.0,0.0
1526668998.79962087,99394393,0.0,0.16,0.0,284.875,0.0,-1.19,343.41,343.41,0.0,0.0
1526668998.89958096,99494353,0.0,0.12,0.0,212.75,0.0,-1.16,343.43,343.43,0.0,0.0
1526668998.99954081,99594313,0.0,0.1,0.0,172.465911865,0.0,-1.15,343.44,343.44,0.0,0.0
1526668999.09950089,99694273,0.0,0.07,0.0,142.2578125,0.0,-1.15,343.46,343.46,0.0,0.0
1526668999.19946098,99794233,0.0,0.06,0.0,118.196426392,0.0,-1.17,343.46,343.46,0.0,0.0
1526668999.29942083,99894193,0.0,0.04,0.0,100.091346741,0.0,-1.2,343.48,343.48,0.0,0.0
1526668999.40021396,99994986,0.0,0.02,0.0,85.1774215698,0.0,-1.23,343.54,343.54,0.0,0.0
1526668999.50017381,100094946,0.0,0.0,0.0,73.6041641235,0.0,-1.25,343.64,343.64,0.0,0.0
1526668999.60013390,100194906,0.0,0.0,0.0,64.6280517578,0.0,-1.24,343.75,343.75,0.0,0.0
1526668999.70009398,100294866,0.0,0.0,0.0,57.6032600403,0.0,-1.24,343.85,343.85,0.0,0.0
1526668999.80005383,100394826,0.0,0.01,0.0,51.9730377197,0.0,-1.22,343.95,343.95,0.0,0.0
1526668999.90001392,100494786,0.0,0.06,0.0,48.2790184021,0.0,-1.22,344.01,344.01,0.0,0.0
1526668999.99997401,100594746,0.0,0.1,0.0,49.6639328003,0.0,-1.22,344.06,344.06,0.0,0.0
1526669000.09993386,100694706,0.0,0.14,0.0,57.2803039551,0.0,-1.21,344.11,344.11,0.0,0.0
1526669000.24987388,100844646,0.0,0.21,0.0,70.3532485962,0.0,-1.2,344.17,344.17,0.0,0.0
1526669000.35066700,100945439,0.0,0.27,0.0,104.389160156,0.0,-1.21,344.24,344.24,0.0,0.0
1526669000.45062685,101045399,0.0,0.28,0.0,144.919876099,0.0,-1.21,344.3,344.3,0.0,0.0
1526669000.55058694,101145359,0.0,0.3,0.0,184.098693848,0.0,-1.22,344.36,344.36,0.0,0.0
1526669000.65054679,101245319,0.0,0.31,0.0,225.388198853,0.0,-1.23,344.4,344.4,0.0,0.0
1526669000.75050688,101345279,0.0,0.31,0.0,263.651489258,0.0,-1.25,344.45,344.45,0.0,0.0
1526669003.29865384,103893426,0.0,0.36,0.0,838.23046875,0.0,-1.25,345.56,345.56,0.0,0.0
1526669003.39861393,103993386,0.0,0.38,0.0,865.287414551,0.0,-1.24,345.59,345.59,0.0,0.0
1526669003.49857402,104093346,0.0,0.4,0.0,897.257080078,0.0,-1.25,345.62,345.62,0.0,0.0
1526669003.59853387,104193306,0.0,0.43,0.0,936.943481445,0.0,-1.25,345.66,345.66,0.0,0.02
1526669003.69849396,104293266,0.0,0.43,0.0,977.980895996,0.0,-1.26,345.7,345.7,0.0,0.06
1526669003.79845381,104393226,0.0,0.4,0.0,1009.89129639,0.0,-1.28,345.72,345.72,0.0,0.06
1526669003.89841390,104493186,0.0,0.35,0.0,1026.40454102,0.0,-1.28,345.76,345.76,0.0,0.06
1526669003.99837399,104593146,0.0,0.31,0.0,1029.01586914,0.0,-1.27,345.79,345.79,0.0,0.06
1526669004.09833384,104693106,0.0,0.29,0.0,841.0,0.0,-1.27,345.83,345.83,0.0,0.06
1526669004.19829392,104793066,0.0,0.28,0.0,802.612243652,0.0,-1.27,345.88,345.88,0.0,0.06
1526669004.29825401,104893026,0.0,0.28,0.0,794.247192383,0.0,-1.26,345.94,345.94,0.0,0.06
1526669004.39821386,104992986,0.0,0.26,0.0,770.0,0.0,-1.23,346.01,346.01,0.0,0.06
1526669004.49817395,105092946,0.0,0.25,0.0,746.242614746,0.0,-1.2,346.07,346.07,0.0,0.06
1526669004.59813380,105192906,0.0,0.22,0.0,709.110046387,0.0,-1.18,346.13,346.13,0.0,0.06
1526669004.69809389,105292866,0.0,0.2,0.0,665.092346191,0.0,-1.14,346.19,346.19,0.0,0.05
1526669004.79805398,105392826,0.0,0.18,0.0,625.304504395,0.0,-1.14,346.23,346.23,0.0,0.05
1526669004.89801383,105492786,0.0,0.16,0.0,584.914916992,0.0,-1.14,346.28,346.28,0.0,0.05
1526669004.99797392,105592746,0.0,0.16,0.0,546.907836914,0.0,-1.15,346.34,346.34,0.0,0.05
1526669005.09793401,105692706,0.0,0.16,0.0,516.941345215,0.0,-1.16,346.38,346.38,0.0,0.05
1526669005.19789386,105792666,0.0,0.16,0.0,493.694885254,0.0,-1.18,346.45,346.45,0.0,0.05
1526669005.29785395,105892626,0.0,0.17,0.0,475.668701172,0.0,-1.21,346.53,346.53,0.0,0.05
1526669005.39864683,105993419,0.0,0.19,0.0,465.533081055,0.0,-1.23,346.62,346.62,0.0,0.03
1526669005.49860692,106093379,0.0,0.21,0.0,461.502624512,0.0,-1.28,346.68,346.68,0.0,0.02
1526669005.59856701,106193339,0.0,0.21,0.0,460.650238037,0.0,-1.29,346.73,346.73,0.0,0.02
1526669005.69852686,106293299,0.0,0.2,0.0,457.607086182,0.0,-1.28,346.78,346.78,0.0,0.03
1526669005.79848695,106393259,0.0,0.2,0.0,454.262695312,0.0,-1.28,346.82,346.82,0.0,0.05
1526669005.89844680,106493219,0.0,0.21,0.0,453.197540283,0.0,-1.29,346.86,346.86,0.0,0.05
1526669005.99840689,106593179,0.0,0.2,0.0,450.91027832,0.0,-1.28,346.9,346.9,0.0,0.05
1526669006.09836698,106693139,0.0,0.2,0.0,449.508026123,0.0,-1.27,346.91,346.91,0.0,0.05
1526669006.19832683,106793099,0.0,0.21,0.0,448.962310791,0.0,-1.25,346.89,346.89,0.0,0.05
1526669006.34660101,106941373,0.0,0.17,0.0,445.108001709,0.0,-1.22,346.88,346.88,0.0,0.03
1526669006.44656086,107041333,0.0,0.13,0.0,435.918182373,0.0,-1.18,346.87,346.87,0.0,0.02
1526669006.54652095,107141293,0.0,0.11,0.0,423.845214844,0.0,-1.15,346.86,346.86,0.0,0.02
1526669006.64648080,107241253,0.0,0.1,0.0,411.423187256,0.0,-1.13,346.83,346.83,0.0,0.02
1526669006.74644089,107341213,0.0,0.1,0.0,100.0,0.0,-1.11,346.83,346.83,0.0,0.02
1526669006.84640098,107441173,0.0,0.12,0.0,113.448982239,0.0,-1.08,346.83,346.83,0.0,0.02
1526669006.94636083,107541133,0.0,0.14,0.0,137.213485718,0.0,-1.05,346.82,346.82,0.0,0.02
1526669007.04632092,107641093,0.0,0.14,0.0,155.441864014,0.0,-1.04,346.83,346.83,0.0,0.02
1526669007.14628100,107741053,0.0,0.12,0.0,160.431945801,0.0,-1.03,346.85,346.85,0.0,0.02
1526669007.24624085,107841013,0.0,0.12,0.0,157.287078857,0.0,-1.03,346.87,346.87,0.0,0.02
1526669007.34620094,107940973,0.0,0.12,0.0,155.152603149,0.0,-1.03,346.9,346.9,0.0,0.02
1526669007.44616079,108040933,0.0,0.13,0.0,154.4740448,0.0,-1.03,346.93,346.93,0.0,0.02
1526669007.54612088,108140893,0.0,0.13,0.0,157.553192139,0.0,-1.03,346.96,346.96,0.0,0.02
1526669007.64608097,108240853,0.0,0.11,0.0,155.951217651,0.0,-1.05,347.0,347.0,0.0,0.02
1526669007.74604082,108340813,0.0,0.1,0.0,150.838638306,0.0,-1.07,347.04,347.04,0.0,0.02
1526669007.84600091,108440773,0.0,0.08,0.0,144.015594482,0.0,-1.09,347.1,347.1,0.0,0.02
1526669007.94596100,108540733,0.0,0.04,0.0,135.141098022,0.0,-1.09,347.14,347.14,0.0,0.02
1526669008.04592085,108640693,0.0,0.01,0.0,125.574668884,0.0,-1.08,347.15,347.15,0.0,0.02
1526669008.14588094,108740653,0.0,-0.03,0.0,116.89806366,0.0,-1.11,347.15,347.15,0.0,0.02
1526669008.24584079,108840613,0.0,-0.08,0.0,111.724136353,0.0,-1.12,347.16,347.16,0.0,0.02
1526669008.34580088,108940573,0.0,-0.11,0.0,110.64868927,0.0,-1.1,347.2,347.2,0.0,0.02
1526669008.44659400,109041366,0.0,-0.14,0.0,113.619735718,0.0,-1.05,347.25,347.25,0.0,0.02
1526669008.54655385,109141326,0.0,-0.16,0.0,119.381347656,0.0,-1.02,347.29,347.29,0.0,0.02
1526669008.64651394,109241286,0.0,-0.15,0.0,125.762031555,0.0,-0.99,347.32,347.32,0.0,0.02
1526669008.74647379,109341246,0.0,-0.14,0.0,129.736709595,0.0,-0.97,347.37,347.37,0.0,0.02
1526669008.84643388,109441206,0.0,-0.14,0.0,132.858657837,0.0,-0.95,347.42,347.42,0.0,0.01
1526669008.94639397,109541166,0.0,-0.12,0.0,134.071990967,0.0,-0.93,347.44,347.44,0.0,0.01
1526669009.04635382,109641126,0.0,-0.11,0.0,133.533905029,0.0,-0.95,347.47,347.47,0.0,0.01
1526669009.14631391,109741086,0.0,-0.11,0.0,133.01651001,0.0,-0.97,347.5,347.5,0.0,0.01
1526669009.29458785,109889360,0.0,-0.11,0.0,132.540145874,0.0,-0.98,347.53,347.53,0.0,0.01
1526669009.39454794,109989320,0.0,-0.12,0.0,144.0,0.0,-1.0,347.57,347.57,0.0,0.01
1526669009.49450779,110089280,0.0,-0.12,0.0,144.0,0.0,-0.98,347.61,347.61,0.0,0.01
1526669009.59446788,110189240,0.0,-0.11,0.0,137.79776001,0.0,-0.96,347.66,347.66,0.0,0.01
1526669009.69442797,110289200,0.0,-0.1,0.0,127.705429077,0.0,-0.94,347.69,347.69,0.0,0.01
1526669009.79438782,110389160,0.0,-0.1,0.0,123.384613037,0.0,-0.92,347.72,347.72,0.0,0.01
1526669009.89434791,110489120,0.0,-0.09,0.0,117.181816101,0.0,-0.92,347.74,347.74,0.0,0.01
1526669009.99430799,110589080,0.0,-0.08,0.0,110.68674469,0.0,-0.91,347.77,347.77,0.0,0.01
1526669010.09426785,110689040,0.0,-0.07,0.0,102.667823792,0.0,-0.93,347.79,347.79,0.0,0.01
1526669010.19422793,110789000,0.0,-0.07,0.0,96.1428604126,0.0,-0.95,347.79,347.79,0.0,0.01
1526669010.29418778,110888960,0.0,-0.07,0.0,91.0325241089,0.0,-0.98,347.78,347.78,0.0,0.01
1526669010.39414787,110988920,0.0,-0.06,0.0,85.9682159424,0.0,-1.0,347.77,347.77,0.0,0.01
1526669010.49410796,111088880,0.0,-0.04,0.0,80.389755249,0.0,-1.0,347.74,347.74,0.0,0.01
1526669010.59406781,111188840,0.0,-0.04,0.0,74.8507156372,0.0,-1.0,347.7,347.7,0.0,0.01
1526669010.69402790,111288800,0.0,-0.06,0.0,70.9376144409,0.0,-0.99,347.65,347.65,0.0,0.01
1526669010.79398799,111388760,0.0,-0.07,0.0,69.0755691528,0.0,-0.99,347.58,347.58,0.0,0.01
1526669010.89394784,111488720,0.0,-0.08,0.0,68.0279159546,0.0,-1.0,347.5,347.5,0.0,0.01
1526669010.99390793,111588680,0.0,-0.09,0.0,68.015411377,0.0,-1.0,347.42,347.42,0.0,0.01
1526669011.09386802,111688640,0.0,-0.11,0.0,69.8214797974,0.0,-1.0,347.36,347.36,0.0,0.01
1526669011.19382787,111788600,0.0,-0.16,0.0,76.7558288574,0.0,-1.0,347.29,347.29,0.0,0.01
1526669011.29378796,111888560,0.0,-0.17,0.0,87.4096221924,0.0,-1.01,347.22,347.22,0.0,0.01
1526669011.39458084,111989353,0.0,-0.15,0.0,95.7144622803,0.0,-1.01,347.14,347.14,0.0,0.01
1526669011.49454093,112089313,0.0,-0.14,0.0,101.737335205,0.0,-1.0,347.04,347.04,0.0,0.01
1526669011.59450102,112189273,0.0,-0.14,0.0,106.043869019,0.0,-1.02,346.94,346.94,0.0,0.01
1526669011.69446087,112289233,0.0,-0.13,0.0,109.655540466,0.0,-1.03,346.81,346.81,0.0,0.01
1526669011.79442096,112389193,0.0,-0.11,0.0,110.751289368,0.0,-1.03,346.66,346.66,0.0,0.01
1526669011.89438081,112489153,0.0,-0.09,0.0,109.931617737,0.0,-1.03,346.5,346.5,0.0,0.01
1526669011.99434090,112589113,0.0,-0.09,0.0,81.0,0.0,-1.03,346.32,346.32,0.0,0.01
1526669012.09430099,112689073,0.0,-0.09,0.0,81.0,0.0,-1.03,346.14,346.14,0.0,0.01
1526669012.24424100,112839013,0.0,-0.08,0.0,77.5999984741,0.0,-1.04,345.92,345.92,0.0,0.01
1526669012.34503388,112939806,0.0,-0.08,0.0,73.4153823853,0.0,-1.04,345.77,345.77,0.0,0.01
1526669012.44499397,113039766,0.0,-0.09,0.0,71.8000030518,0.0,-1.04,345.63,345.63,0.0,0.01
1526669012.54495382,113139726,0.0,-0.11,0.0,75.5619049072,0.0,-1.03,345.52,345.52,0.0,0.01
1526669012.64491391,113239686,0.0,-0.11,0.0,82.8320007324,0.0,-1.0,345.42,345.42,0.0,0.01
1526669012.74487400,113339646,0.0,-0.12,0.0,88.3344802856,0.0,-1.01,345.32,345.32,0.0,0.01
1526669012.84483385,113439606,0.0,-0.12,0.0,95.081817627,0.0,-1.03,345.22,345.22,0.0,0.01
1526669012.94479394,113539566,0.0,-0.09,0.0,97.3135147095,0.0,-1.03,345.13,345.13,0.0,0.01
1526669015.29302096,115887793,0.0,-0.08,0.0,50.8479995728,0.0,-1.09,342.62,342.62,0.0,0.0
1526669015.39298081,115987753,0.0,-0.07,0.0,51.8344841003,0.0,-1.1,342.51,342.51,0.0,0.0
1526669015.49294090,116087713,0.0,-0.06,0.0,50.4666671753,0.0,-1.11,342.42,342.42,0.0,0.0
1526669015.59290099,116187673,0.0,-0.06,0.0,48.9027023315,0.0,-1.13,342.34,342.34,0.0,0.0
1526669015.69286084,116287633,0.0,-0.09,0.0,49.8097572327,0.0,-1.14,342.27,342.27,0.0,0.0
1526669015.79282093,116387593,0.0,-0.12,0.0,54.9822235107,0.0,-1.17,342.2,342.2,0.0,0.0
1526669015.89278078,116487553,0.0,-0.16,0.0,65.4816360474,0.0,-1.19,342.12,342.12,0.0,0.0
1526669015.99274087,116587513,0.0,-0.2,0.0,85.1981124878,0.0,-1.2,342.05,342.05,0.0,0.0
1526669016.09270096,116687473,0.0,-0.26,0.0,116.759651184,0.0,-1.21,341.97,341.97,0.0,0.0
1526669016.19266081,116787433,0.0,-0.32,0.0,167.022949219,0.0,-1.24,341.89,341.89,0.0,0.0
1526669016.29262090,116887393,0.0,-0.36,0.0,228.803070068,0.0,-1.26,341.81,341.81,0.0,0.0
1526669016.39258099,116987353,0.0,-0.39,0.0,295.940582275,0.0,-1.28,341.73,341.73,0.0,0.0
1526669016.49254084,117087313,0.0,-0.43,0.0,374.384918213,0.0,-1.3,341.66,341.66,0.0,0.0
1526669016.59250093,117187273,0.0,-0.45,0.0,455.990905762,0.0,-1.34,341.58,341.58,0.0,0.0
1526669016.69246101,117287233,0.0,-0.43,0.0,528.875305176,0.0,-1.37,341.51,341.51,0.0,0.0
1526669016.79242086,117387193,0.0,-0.42,0.0,589.598815918,0.0,-1.4,341.45,341.45,0.0,0.0
