timestamp,TimeUS,DesR,R,IR,IRErr,DesP,P,DesY,Y,ErrRP,ErrYaw
1526669426.97900009,26071234,0.0,0.88,0.0,7480.53759766,0.0,0.18,354.93,354.93,0.0,0.0
1526669427.07896018,26171194,0.0,0.88,0.0,7529.55371094,0.0,0.17,354.9,354.9,0.0,0.0
1526669427.17892003,26271154,0.0,0.88,0.0,7556.359375,0.0,0.17,354.86,354.86,0.0,0.0
1526669427.27888012,26371114,0.0,0.89,0.0,7585.56689453,0.0,0.16,354.8,354.8,0.0,0.0
1526669427.37884021,26471074,0.0,0.9,0.0,7627.16503906,0.0,0.15,354.73,354.73,0.0,0.0
1526669427.47880006,26571034,0.0,0.92,0.0,7695.34326172,0.0,0.13,354.67,354.67,0.0,0.0
1526669427.57876015,26670994,0.0,0.93,0.0,7774.42919922,0.0,0.13,354.59,354.59,0.0,0.0
1526669427.67872000,26770954,0.0,0.92,0.0,7838.14599609,0.0,0.12,354.53,354.53,0.0,0.0
1526669427.77868009,26870914,0.0,0.88,0.0,7856.27880859,0.0,0.12,354.46,354.46,0.0,0.0
1526669427.87864017,26970874,0.0,0.84,0.0,7829.41503906,0.0,0.15,354.4,354.4,0.0,0.0
1526669427.97860003,27070834,0.0,0.81,0.0,7768.62988281,0.0,0.17,354.34,354.34,0.0,0.0
1526669428.07856011,27170794,0.0,0.79,0.0,7687.44140625,0.0,0.19,354.29,354.29,0.0,0.0
1526669428.17852020,27270754,0.0,0.75,0.0,7591.10253906,0.0,0.2,354.25,354.25,0.0,0.07
1526669428.27848005,27370714,0.0,0.72,0.0,7476.52490234,0.0,0.21,354.19,354.19,0.0,0.08
1526669428.37844014,27470674,0.0,0.7,0.0,7353.89013672,0.0,0.2,354.12,354.12,0.0,0.08
1526669428.47839999,27570634,0.0,0.71,0.0,7237.70947266,0.0,0.17,354.03,354.03,0.0,0.08
1526669428.57836008,27670594,0.0,0.73,0.0,7143.73388672,0.0,0.17,353.93,353.93,0.0,0.07
1526669428.67832017,27770554,0.0,0.77,0.0,7077.42382812,0.0,0.18,353.85,353.85,0.0,0.07
1526669428.77828002,27870514,0.0,0.79,0.0,7035.24072266,0.0,0.21,353.78,353.78,0.0,0.07
1526669428.87824011,27970474,0.0,0.81,0.0,7009.04003906,0.0,0.25,353.7,353.7,0.0,0.07
1526669428.97820020,28070434,0.0,0.83,0.0,6996.20947266,0.0,0.3,353.59,353.59,0.0,0.07
1526669429.07899308,28171227,0.0,0.85,0.0,7119.67480469,0.0,0.35,353.49,353.49,0.0,0.07
1526669429.17895317,28271187,0.0,0.87,0.0,7245.23730469,0.0,0.39,353.41,353.41,0.0,0.01
1526669429.27891302,28371147,0.0,0.9,0.0,7464.85839844,0.0,0.44,353.32,353.32,0.0,0.01
1526669429.37887311,28471107,0.0,0.93,0.0,7706.82519531,0.0,0.48,353.21,353.21,0.0,0.01
1526669429.47883320,28571067,0.0,0.95,0.0,7930.87988281,0.0,0.52,353.1,353.1,0.0,0.0
1526669429.57879305,28671027,0.0,0.95,0.0,8113.23339844,0.0,0.54,352.97,352.97,0.0,0.0
1526669429.67875314,28770987,0.0,0.96,0.0,8261.22167969,0.0,0.54,352.84,352.84,0.0,0.0
1526669429.77871299,28870947,0.0,0.98,0.0,8401.08105469,0.0,0.55,352.72,352.72,0.0,0.0
1526669429.87867308,28970907,0.0,0.98,0.0,8534.73925781,0.0,0.54,352.61,352.61,0.0,0.0
1526669429.97863317,29070867,0.0,0.99,0.0,8647.08203125,0.0,0.53,352.5,352.5,0.0,0.0
1526669430.07859302,29170827,0.0,1.0,0.0,8763.74316406,0.0,0.55,352.37,352.37,0.0,0.0
1526669430.17855310,29270787,0.0,1.0,0.0,8866.76464844,0.0,0.57,352.23,352.23,0.0,0.06
1526669430.27851319,29370747,0.0,1.02,0.0,8968.66308594,0.0,0.58,352.08,352.08,0.0,0.07
1526669430.37847304,29470707,0.0,1.05,0.0,9098.82128906,0.0,0.59,351.96,351.96,0.0,0.07
1526669430.47843313,29570667,0.0,1.08,0.0,9251.64160156,0.0,0.58,351.86,351.86,0.0,0.06
1526669430.57839322,29670627,0.0,1.12,0.0,9432.14355469,0.0,0.57,351.76,351.76,0.0,0.06
1526669430.67835307,29770587,0.0,1.15,0.0,9633.46582031,0.0,0.58,351.64,351.64,0.0,0.06
1526669430.77831316,29870547,0.0,1.17,0.0,9843.28515625,0.0,0.58,351.51,351.51,0.0,0.06
1526669430.87827301,29970507,0.0,1.19,0.0,10057.7763672,0.0,0.59,351.38,351.38,0.0,0.06
1526669430.97823310,30070467,0.0,1.2,0.0,10270.40625,0.0,0.6,351.24,351.24,0.0,0.06
1526669431.07819319,30170427,0.0,1.23,0.0,10480.0117188,0.0,0.6,351.1,351.1,0.0,0.06
1526669431.17898607,30271220,0.0,1.25,0.0,10701.1669922,0.0,0.59,350.98,350.98,0.0,0.06
1526669431.27894616,30371180,0.0,1.26,0.0,10923.7041016,0.0,0.59,350.88,350.88,0.0,0.02
1526669431.37890601,30471140,0.0,1.25,0.0,11122.9902344,0.0,0.57,350.77,350.77,0.0,0.01
1526669431.47886610,30571100,0.0,1.26,0.0,11303.5732422,0.0,0.55,350.67,350.67,0.0,0.01
1526669431.57882619,30671060,0.0,1.27,0.0,11485.7607422,0.0,0.54,350.56,350.56,0.0,0.01
1526669431.67878604,30771020,0.0,1.28,0.0,16352.125,0.0,0.53,350.48,350.48,0.0,0.01
1526669431.77874613,30870980,0.0,1.29,0.0,16480.5,0.0,0.54,350.41,350.41,0.0,0.01
1526669431.87870622,30970940,-0.28,1.16,-0.02,16366.7285156,-0.05,0.41,350.39,350.36,0.0,0.01
1526669431.97866607,31070900,-0.43,0.73,-0.1,14791.2324219,-0.1,0.16,350.39,350.32,0.0,0.0
1526669432.07862616,31170860,-0.55,0.33,-0.21,12774.6474609,-0.13,-0.02,350.39,350.3,0.0,0.0
1526669432.17858601,31270820,-0.62,0.02,-0.34,10989.5566406,-0.15,-0.17,350.39,350.31,0.0,0.0
1526669432.27854609,31370780,-0.67,-0.22,-0.47,9557.48144531,-0.16,-0.26,350.39,350.34,0.0,0.06
1526669432.37850618,31470740,-0.69,-0.41,-0.58,8421.65527344,-0.16,-0.32,350.39,350.42,0.0,0.06
1526669432.47846603,31570700,-0.68,-0.6,-0.66,7504.95263672,-0.16,-0.34,350.39,350.51,0.0,0.06
1526669432.57842612,31670660,-0.61,-0.74,-0.71,6755.73486328,-0.12,-0.3,350.39,350.55,0.0,0.06
1526669432.67838621,31770620,-0.56,-0.82,-0.71,6146.40136719,-0.07,-0.22,350.39,350.59,0.0,0.06
1526669432.77834606,31870580,-0.44,-0.86,-0.67,5653.34423828,-0.03,-0.08,350.39,350.62,0.0,0.05
1526669432.87830615,31970540,-0.3,-0.82,-0.59,5254.08496094,0.0,0.07,350.39,350.65,0.0,0.05
1526669432.97826600,32070500,-0.12,-0.7,-0.47,4918.09082031,0.0,0.16,350.39,350.63,0.0,0.05
1526669433.07822609,32170460,0.02,-0.47,-0.32,4614.05273438,-0.03,0.23,350.39,350.62,0.0,0.04
1526669433.17901921,32271253,0.14,-0.28,-0.15,4336.27294922,-0.04,0.25,350.39,350.69,0.0,0.04
1526669433.27897906,32371213,0.23,-0.14,0.0,4090.54199219,-0.06,0.24,350.39,350.78,0.0,0.03
1526669433.37893915,32471173,0.28,-0.05,0.14,3878.66064453,-0.09,0.16,350.39,350.82,0.0,0.02
1526669433.47889900,32571133,0.26,0.07,0.25,3693.23071289,-0.15,0.11,350.39,350.81,0.0,0.02
1526669433.57885909,32671093,0.24,0.18,0.31,3520.44677734,-0.19,0.05,350.39,350.73,0.0,0.02
1526669433.67881918,32771053,0.2,0.28,0.33,3357.69677734,-0.24,0.0,350.39,350.65,0.0,0.02
1526669433.77877903,32871013,0.17,0.41,0.31,3206.09912109,-0.27,-0.04,350.39,350.59,0.0,0.02
1526669433.87873912,32970973,0.1,0.49,0.27,3078.61645508,-0.3,-0.21,350.39,350.54,0.0,0.02
1526669433.97869921,33070933,0.01,0.44,0.2,2971.28686523,-0.27,-0.35,350.39,350.5,0.0,0.02
1526669434.07865906,33170893,-0.12,0.32,0.11,2871.35986328,-0.21,-0.45,350.39,350.39,0.0,0.01
1526669434.17861915,33270853,-0.22,0.17,0.0,2772.85205078,-0.13,-0.49,350.39,350.27,0.0,0.01
1526669434.27857900,33370813,-0.28,0.02,-0.1,223.950363159,-0.03,-0.46,350.39,350.25,0.0,0.01
1526669434.37853909,33470773,-0.3,-0.14,-0.21,170.519958496,0.05,-0.42,350.39,350.33,0.0,0.05
1526669434.47849917,33570733,-0.27,-0.33,-0.29,119.585716248,0.1,-0.33,350.39,350.46,0.0,0.06
1526669434.57845902,33670693,-0.21,-0.49,-0.33,115.353599548,0.17,-0.23,350.39,350.57,0.0,0.05
1526669434.67841911,33770653,-0.07,-0.53,-0.32,161.212280273,0.26,-0.09,355.9,356.22,0.0,0.05
1526669434.77837920,33870613,0.05,-0.47,-0.26,210.087844849,0.3,0.08,355.9,356.28,0.0,0.05
1526669434.87833905,33970573,0.16,-0.37,-0.16,235.722793579,0.33,0.15,355.9,356.34,0.0,0.05
1526669434.97829914,34070533,0.26,-0.31,-0.04,276.547485352,0.33,0.23,355.9,356.34,0.0,0.05
1526669435.07825899,34170493,0.33,-0.25,0.08,347.730163574,0.28,0.3,355.9,356.27,0.0,0.05
1526669435.17821908,34270453,0.41,-0.1,0.21,423.910980225,0.2,0.39,355.9,356.22,0.0,0.04
1526669435.27901220,34371246,0.44,0.07,0.32,464.276916504,0.1,0.42,355.9,356.21,0.0,0.04
1526669435.37897205,34471206,0.47,0.26,0.41,463.66027832,0.02,0.46,355.9,356.26,0.0,0.03
1526669435.47893214,34571166,0.42,0.43,0.47,437.006256104,-0.09,0.42,355.9,356.25,0.0,0.03
1526669435.57889199,34671126,0.37,0.6,0.49,407.825622559,-0.19,0.33,355.9,356.18,0.0,0.03
1526669435.67885208,34771086,0.27,0.65,0.47,396.398773193,-0.27,0.19,355.9,356.06,0.0,0.02
1526669435.77881217,34871046,0.14,0.67,0.41,401.588806152,-0.32,0.04,355.9,355.84,0.0,0.02
1526669435.87877202,34971006,-0.02,0.66,0.31,432.058044434,-0.35,-0.13,355.9,355.6,0.0,0.02
1526669435.97873211,35070966,-0.18,0.54,0.17,483.57244873,-0.33,-0.29,355.9,355.33,0.0,0.02
1526669436.07869220,35170926,-0.37,0.33,0.0,524.659667969,-0.28,-0.45,355.9,355.11,0.0,0.01
1526669436.17865205,35270886,-0.48,0.11,-0.18,548.086181641,-0.22,-0.54,355.9,354.89,0.0,0.01
1526669436.27861214,35370846,-0.57,-0.1,-0.35,556.342773438,-0.15,-0.52,355.9,354.78,0.0,0.01
1526669436.37857199,35470806,-0.57,-0.31,-0.49,553.638183594,-0.08,-0.48,351.61,350.57,0.0,0.01
1526669436.47853208,35570766,-0.57,-0.47,-0.59,539.273376465,0.02,-0.4,351.61,350.75,0.0,0.05
1526669436.57849216,35670726,-0.48,-0.56,-0.63,521.866088867,0.1,-0.26,351.61,351.05,0.0,0.05
1526669436.67845201,35770686,-0.37,-0.61,-0.62,501.928344727,0.21,-0.07,351.61,351.36,0.0,0.05
1526669436.77841210,35870646,-0.24,-0.64,-0.55,483.390563965,0.25,0.12,351.61,351.64,0.0,0.04
1526669436.87837219,35970606,-0.07,-0.6,-0.43,168.939147949,0.28,0.31,351.61,351.88,0.0,0.04
1526669436.97833204,36070566,0.05,-0.45,-0.28,225.270309448,0.25,0.43,351.61,352.07,0.0,0.04
1526669437.07829213,36170526,0.19,-0.28,-0.11,238.326919556,0.2,0.48,351.61,352.2,0.0,0.04
1526669437.17825222,36270486,0.31,-0.09,0.05,233.2550354,0.13,0.48,351.61,352.24,0.0,0.04
1526669437.27821207,36370446,0.37,0.11,0.21,216.649765015,0.05,0.41,351.61,352.2,0.0,0.04
1526669437.37900519,36471239,0.35,0.24,0.33,195.692352295,-0.02,0.36,351.61,352.11,0.0,0.04
1526669437.47896504,36571199,0.38,0.33,0.41,180.452087402,-0.07,0.32,351.61,351.95,0.0,0.03
1526669437.57892513,36671159,0.34,0.45,0.45,160.653152466,-0.12,0.2,351.61,351.79,0.0,0.03
1526669437.67888522,36771119,0.02,0.47,0.43,143.097793579,0.08,0.03,218.62,351.47,0.0,0.02
1526669437.77884507,36871079,-0.75,0.3,0.25,130.877639771,0.73,-0.09,218.62,350.43,0.0,0.01
1526669437.87880516,36971039,-1.75,-0.19,-0.13,119.539176941,1.54,-0.07,218.62,348.66,0.0,0.01
1526669437.97876501,37070999,-2.9,-1.03,-0.78,130.804595947,2.39,0.19,218.62,346.31,0.0,0.02
1526669438.07872510,37170959,-4.11,-2.07,-1.67,198.232727051,3.15,0.63,218.62,343.47,0.0,0.03
1526669438.17868519,37270919,-4.92,-3.22,-2.71,332.238372803,3.5,1.25,218.62,340.34,0.0,0.04
1526669438.27864504,37370879,-5.49,-4.26,-3.76,491.113189697,3.61,1.91,218.62,336.97,0.0,0.04
1526669438.37860513,37470839,-6.01,-5.05,-4.72,566.414794922,3.53,2.54,218.62,333.38,0.0,0.03
1526669438.47856522,37570799,-6.47,-5.69,-5.56,564.372131348,3.32,2.95,218.62,329.73,0.0,0.03
1526669438.57852507,37670759,-6.91,-6.21,-6.26,534.993591309,2.95,3.13,218.62,325.98,0.0,0.08
1526669438.67848516,37770719,-7.31,-6.63,-6.81,514.628051758,2.46,3.18,218.62,322.2,0.0,0.07
1526669438.77844501,37870679,-7.68,-6.95,-7.24,518.917785645,1.84,3.02,218.62,318.39,0.0,0.07
1526669438.87840509,37970639,-7.99,-7.15,-7.58,559.714050293,1.08,2.66,218.62,314.51,0.0,0.06
1526669438.97836518,38070599,-8.16,-7.31,-7.84,643.051940918,0.24,2.13,218.62,310.58,0.0,0.06
1526669439.07832503,38170559,-8.03,-7.4,-8.0,761.725280762,-0.66,1.46,218.62,306.62,0.0,0.06
1526669439.17828512,38270519,-7.8,-7.42,-8.02,885.535827637,-1.5,0.71,218.62,302.75,0.0,0.05
1526669439.27824521,38370479,-7.52,-7.35,-7.92,992.417419434,-2.26,-0.07,218.62,298.85,0.0,0.04
1526669439.37820506,38470439,-7.25,-7.33,-7.72,1050.32641602,-2.97,-0.8,218.62,294.94,0.0,0.04
1526669439.47899818,38571232,-6.99,-7.21,-7.45,1009.96807861,-3.66,-1.49,218.62,291.03,0.0,0.03
1526669439.57895803,38671192,-6.97,-6.98,-7.17,743.517150879,-4.39,-2.25,218.62,287.14,0.0,0.03
1526669439.67891812,38771152,-7.08,-6.8,-6.95,592.970275879,-5.19,-3.08,218.62,283.3,0.0,0.03
1526669439.77887821,38871112,-7.16,-6.66,-6.82,509.416809082,-5.96,-4.0,218.62,279.41,0.0,0.03
1526669439.87883806,38971072,-7.24,-6.68,-6.78,447.586364746,-6.71,-4.97,218.62,275.54,0.0,0.04
1526669439.97879815,39071032,-7.26,-6.77,-6.82,384.512542725,-7.44,-5.87,218.62,271.65,0.0,0.04
1526669440.07875800,39170992,-7.17,-6.85,-6.9,332.792816162,-8.15,-6.69,218.62,267.82,0.0,0.03
1526669440.17871809,39270952,-7.0,-6.88,-6.96,296.222442627,-8.85,-7.45,218.62,263.94,0.0,0.03
1526669440.27867818,39370912,-6.69,-6.81,-6.97,281.368286133,-9.54,-8.14,218.62,260.04,0.0,0.03
1526669440.37863803,39470872,-6.29,-6.64,-6.89,297.395721436,-10.23,-8.79,218.62,256.09,0.0,0.03
1526669440.47859812,39570832,-5.8,-6.38,-6.69,345.253753662,-10.9,-9.46,218.62,252.14,0.0,0.03
1526669440.57855821,39670792,-5.21,-6.03,-6.37,408.287963867,-11.57,-10.13,218.62,248.14,0.0,0.03
1526669440.67851806,39770752,-4.52,-5.61,-5.93,468.061248779,-12.24,-10.77,218.62,244.17,0.0,0.04
1526669440.77847815,39870712,-3.72,-5.1,-5.35,495.903686523,-12.86,-11.34,218.62,240.16,0.0,0.04
1526669440.87843800,39970672,-2.83,-4.47,-4.66,498.131408691,-13.45,-11.91,218.62,236.17,0.0,0.05
1526669440.97839808,40070632,-1.86,-3.75,-3.86,482.513427734,-13.98,-12.49,218.62,232.11,0.0,0.05
1526669441.07835817,40170592,-0.77,-2.95,-2.95,456.788421631,-14.24,-12.98,218.62,228.07,0.0,0.05
1526669441.17831802,40270552,0.33,-2.02,-1.95,432.662017822,-14.31,-13.31,218.62,224.11,0.0,0.05
1526669441.27827811,40370512,1.37,-0.88,-0.89,410.684265137,-14.29,-13.48,218.62,220.42,0.0,0.06
1526669441.37823820,40470472,2.26,0.37,0.17,396.880310059,-14.21,-13.53,218.62,217.27,0.0,0.06
1526669441.47819805,40570432,2.88,1.6,1.18,425.579772949,-14.08,-13.5,218.62,214.92,0.0,0.07
1526669441.57899117,40671225,3.18,2.61,2.05,519.178955078,-13.83,-13.44,218.62,213.45,0.0,0.08
1526669441.67895103,40771185,3.18,3.32,2.7,651.477783203,-13.56,-13.37,218.62,212.85,0.0,0.01
1526669441.77891111,40871145,2.92,3.68,3.07,781.76940918,-13.33,-13.38,218.62,212.96,0.0,0.01
1526669441.87887120,40971105,2.46,3.7,3.15,882.998840332,-13.14,-13.42,218.62,213.63,0.0,0.03
1526669441.97883105,41071065,1.89,3.47,2.95,954.310546875,-12.93,-13.44,218.62,214.59,0.0,0.03
1526669442.07879114,41171025,1.3,3.0,2.51,2568.43579102,-12.69,-13.43,218.62,215.75,0.0,0.04
1526669442.17875099,41270985,0.69,2.38,1.9,2434.00146484,-12.39,-13.34,218.62,216.93,0.0,0.05
1526669442.27871108,41370945,0.15,1.69,1.2,2361.20239258,-12.11,-13.16,218.62,218.01,0.0,0.05
1526669442.37867117,41470905,-0.28,1.01,0.48,2383.52490234,-11.79,-12.96,218.62,218.85,0.0,0.04
1526669442.47863102,41570865,-0.6,0.4,-0.17,2520.59106445,-11.49,-12.7,218.62,219.45,0.0,0.04
1526669442.57859111,41670825,-0.82,-0.18,-0.73,2637.13720703,-11.19,-12.38,218.62,219.8,0.0,0.04
1526669442.67855120,41770785,-0.9,-0.64,-1.15,2669.90844727,-10.87,-12.03,218.62,219.87,0.0,0.12
1526669442.77851105,41870745,-0.88,-0.91,-1.41,2663.03173828,-10.56,-11.67,218.62,219.72,0.0,0.12
1526669442.87847114,41970705,-0.78,-1.07,-1.51,2618.95654297,-10.26,-11.31,218.62,219.49,0.0,0.11
1526669442.97843099,42070665,-0.64,-1.15,-1.47,2502.37207031,-9.95,-10.91,218.62,219.21,0.0,0.11
1526669443.07839108,42170625,-0.48,-1.13,-1.31,2331.54833984,-9.63,-10.48,218.62,218.93,0.0,0.1
1526669443.17835116,42270585,-0.3,-1.0,-1.08,2154.12231445,-9.32,-10.02,218.62,218.64,0.0,0.1
1526669443.27831101,42370545,-0.12,-0.85,-0.81,1989.84155273,-9.02,-9.62,218.62,218.36,0.0,0.1
1526669443.37827110,42470505,0.01,-0.64,-0.53,1851.44458008,-8.7,-9.26,218.62,218.13,0.0,0.09
1526669443.47823119,42570465,0.15,-0.41,-0.26,1738.02026367,-8.33,-8.91,218.62,217.92,0.0,0.09
1526669443.57902408,42671258,0.23,-0.22,-0.04,1645.38708496,-7.94,-8.59,218.62,217.8,0.0,0.09
1526669443.67898417,42771218,0.26,-0.08,0.13,1571.11816406,-7.51,-8.29,218.62,217.74,0.0,0.01
1526669443.77894402,42871178,0.27,0.0,0.25,1514.2677002,-7.04,-7.98,218.62,217.78,0.0,0.0
1526669443.87890410,42971138,0.24,0.01,0.3,1474.98095703,-6.34,-7.67,218.62,217.93,0.0,0.0
1526669443.97886419,43071098,0.19,-0.02,0.31,1452.40551758,-5.92,-7.21,218.62,218.09,0.0,0.01
1526669444.07882404,43171058,0.15,-0.03,0.27,1432.9251709,-5.63,-6.7,218.62,218.19,0.0,0.01
1526669444.17878413,43271018,0.11,-0.03,0.21,1401.17224121,-5.38,-6.24,218.62,218.19,0.0,0.01
1526669444.27874422,43370978,0.08,0.01,0.13,1355.73950195,-5.17,-5.82,218.62,218.17,0.0,0.0
1526669444.37870407,43470938,0.05,0.08,0.06,1300.89880371,-4.94,-5.53,218.62,218.19,0.0,0.0
1526669444.47866416,43570898,0.02,0.08,0.0,1250.49731445,-4.72,-5.3,218.62,218.25,0.0,0.0
1526669444.57862401,43670858,-0.01,0.07,-0.06,1207.16381836,-4.49,-5.1,218.62,218.34,0.0,0.0
1526669444.67858410,43770818,-0.04,0.05,-0.1,228.527267456,-4.22,-4.89,218.62,218.48,0.0,0.0
1526669444.77854419,43870778,-0.11,0.0,-0.14,230.389328003,-3.92,-4.66,218.62,218.69,0.0,0.08
1526669444.87850404,43970738,-0.16,-0.13,-0.18,189.486541748,-3.57,-4.32,218.62,218.87,0.0,0.09
1526669444.97846413,44070698,-0.21,-0.19,-0.21,145.117675781,-3.18,-3.97,218.62,219.0,0.0,0.09
1526669445.07842422,44170658,-0.27,-0.27,-0.25,116.523948669,-2.75,-3.61,218.62,219.03,0.0,0.09
1526669445.17838407,44270618,-0.31,-0.32,-0.29,97.9751815796,-2.28,-3.24,47.91,219.0,0.0,0.08
1526669445.27834415,44370578,-0.35,-0.46,-0.33,93.372428894,-1.77,-2.88,47.91,218.59,0.0,0.08
1526669445.37830400,44470538,-0.34,-0.62,-0.36,129.282608032,-1.22,-2.47,47.91,217.3,0.0,0.07
1526669445.47826409,44570498,-0.25,-0.76,-0.37,232.888046265,-0.57,-1.93,47.91,215.31,0.0,0.06
1526669445.57822418,44670458,-0.14,-0.8,-0.34,388.41494751,0.23,-1.3,47.91,212.74,0.0,0.05
1526669445.67901707,44771251,-0.09,-0.81,-0.29,568.609436035,1.15,-0.59,47.91,209.72,0.0,0.05
1526669445.77897716,44871211,-0.12,-0.79,-0.23,759.552124023,2.01,0.16,47.91,206.47,0.0,0.03
1526669445.87893701,44971171,-0.1,-0.75,-0.18,945.353759766,2.25,0.97,47.91,203.06,0.0,0.03
1526669445.97889709,45071131,-0.1,-0.61,-0.14,1070.1529541,2.2,1.7,47.91,199.4,0.0,0.04
1526669446.07885718,45171091,-0.26,-0.41,-0.13,1092.43029785,2.24,2.21,47.91,195.64,0.0,0.04
1526669446.17881703,45271051,-0.61,-0.24,-0.18,1045.92370605,2.25,2.49,47.91,191.77,0.0,0.05
1526669446.27877712,45371011,-1.08,-0.12,-0.35,993.477478027,2.19,2.57,47.91,187.84,0.0,0.05
1526669446.37873721,45470971,-1.64,-0.2,-0.64,1007.54296875,2.09,2.48,47.91,183.83,0.0,0.04
1526669446.47869706,45570931,-2.17,-0.46,-1.04,1099.1114502,1.96,2.31,47.91,179.87,0.0,0.04
1526669446.57865715,45670891,-2.74,-0.87,-1.54,1247.82202148,1.77,2.09,47.91,175.85,0.0,0.03
1526669446.67861700,45770851,-3.29,-1.35,-2.1,1430.68151855,1.61,1.83,47.91,171.79,0.0,0.03
1526669446.77857709,45870811,-3.85,-1.94,-2.7,1637.61083984,1.42,1.52,47.91,167.8,0.0,0.03
1526669446.87853718,45970771,-4.41,-2.55,-3.31,1825.13586426,1.25,1.24,47.91,163.85,0.0,0.03
1526669446.97849703,46070731,-4.94,-3.17,-3.92,1991.22265625,1.05,1.0,47.91,160.01,0.0,0.03
1526669447.07845712,46170691,-5.41,-3.82,-4.5,2122.15087891,0.84,0.75,47.91,156.2,0.0,0.03
1526669447.17841721,46270651,-5.85,-4.46,-5.04,2199.02099609,0.62,0.59,47.91,152.33,0.0,0.02
1526669447.27837706,46370611,-6.23,-5.05,-5.53,2808.95507812,0.41,0.44,47.91,148.5,0.0,0.01
1526669447.37833714,46470571,-6.55,-5.59,-5.96,2338.75146484,0.12,0.34,47.91,144.64,0.0,0.01
1526669447.47829700,46570531,-6.5,-6.06,-6.29,1875.84130859,-0.24,0.17,47.91,140.8,0.0,0.01
1526669447.57825708,46670491,-6.3,-6.33,-6.47,1495.45458984,-0.63,0.02,47.91,136.95,0.0,0.01
1526669447.67821717,46770451,-6.04,-6.42,-6.49,1223.45043945,-1.01,-0.19,47.91,133.02,0.0,0.01
1526669447.77901006,46871244,-5.8,-6.38,-6.37,1022.88793945,-1.44,-0.43,47.91,129.02,0.0,0.02
1526669447.87897015,46971204,-5.59,-6.24,-6.15,879.714294434,-1.91,-0.7,47.91,125.03,0.0,0.04
1526669447.97893000,47071164,-5.4,-6.08,-5.88,796.575439453,-2.4,-0.95,47.91,121.08,0.0,0.04
1526669448.07889009,47171124,-5.23,-5.84,-5.59,766.844421387,-2.89,-1.25,47.91,117.12,0.0,0.04
1526669448.17885017,47271084,-5.08,-5.52,-5.31,742.531494141,-3.4,-1.65,47.91,113.17,0.0,0.04
1526669448.27881002,47371044,-4.92,-5.17,-5.07,694.780334473,-3.89,-2.16,47.91,109.24,0.0,0.04
1526669448.37877011,47471004,-4.78,-4.91,-4.86,641.210083008,-4.37,-2.69,47.91,105.28,0.0,0.03
1526669448.47873020,47570964,-4.61,-4.67,-4.69,592.132263184,-4.85,-3.29,47.91,101.32,0.0,0.03
1526669448.57869005,47670924,-4.43,-4.47,-4.55,551.816711426,-5.33,-3.88,47.91,97.39,0.0,0.03
1526669448.67865014,47770884,-4.36,-4.29,-4.43,524.096069336,-5.95,-4.44,47.91,93.43,0.0,0.03
1526669448.77860999,47870844,-4.35,-4.09,-4.35,516.64465332,-6.7,-5.06,47.91,89.43,0.0,0.03
1526669448.87857008,47970804,-4.29,-3.88,-4.3,557.089233398,-7.47,-5.72,47.91,85.41,0.0,0.03
1526669448.97853017,48070764,-4.16,-3.66,-4.27,679.843688965,-8.23,-6.5,47.91,81.36,0.0,0.06
1526669449.07849002,48170724,-3.94,-3.52,-4.22,882.617980957,-8.98,-7.39,47.91,77.32,0.0,0.07
1526669449.17845011,48270684,-3.65,-3.42,-4.13,1088.55603027,-9.66,-8.26,47.91,73.31,0.0,0.07
1526669449.27841020,48370644,-3.28,-3.3,-3.97,1275.37915039,-10.26,-9.1,47.91,69.29,0.0,0.08
1526669449.37837005,48470604,-2.77,-3.18,-3.73,1385.03540039,-10.79,-9.79,47.91,65.24,0.0,0.09
1526669449.47833014,48570564,-2.14,-2.95,-3.38,1438.85473633,-11.25,-10.32,47.91,61.15,0.0,0.09
1526669449.57828999,48670524,-1.39,-2.7,-2.9,1424.27026367,-11.65,-10.68,47.91,57.1,0.0,0.1
1526669449.67825007,48770484,-0.47,-2.2,-2.3,1376.04138184,-11.94,-10.94,47.91,53.13,0.0,0.1
1526669449.77821016,48870444,0.42,-1.32,-1.56,1333.42370605,-12.19,-11.08,47.91,49.41,0.0,0.1
1526669449.87900305,48971237,1.24,-0.23,-0.73,1559.77478027,-12.38,-11.2,47.91,46.22,0.0,0.09
1526669449.97896314,49071197,1.87,0.84,0.12,2730.05664062,-12.58,-11.28,47.91,43.81,0.0,0.01
1526669450.07892299,49171157,2.27,1.8,0.94,3939.29711914,-12.83,-11.42,47.91,42.17,0.0,0.0
1526669450.17888308,49271117,2.38,2.52,1.62,4904.39746094,-12.97,-11.64,47.91,41.23,0.0,0.01
1526669450.27884316,49371077,2.22,3.0,2.1,5516.27197266,-13.02,-11.92,47.91,40.97,0.0,0.01
1526669450.37880301,49471037,1.85,3.24,2.32,5966.40869141,-13.04,-12.23,47.91,41.35,0.0,0.02
1526669450.47876310,49570997,1.31,3.19,2.27,6336.9453125,-13.0,-12.59,47.91,42.18,0.0,0.02
1526669450.57872319,49670957,0.7,2.8,1.96,6504.55908203,-12.97,-12.92,47.91,43.24,0.0,0.01
1526669450.67868304,49770917,-0.06,2.14,1.44,6446.79980469,-10.99,-13.12,47.91,44.43,0.0,0.01
1526669450.77864313,49870877,-0.78,1.12,0.74,6099.50732422,-8.91,-12.74,47.91,45.66,0.0,0.0
1526669450.87860322,49970837,-1.23,0.05,-0.03,5592.91455078,-8.0,-11.8,47.91,46.77,0.0,0.01
1526669450.97856307,50070797,-1.51,-0.85,-0.78,5128.57519531,-7.53,-10.63,47.91,47.79,0.0,0.02
1526669451.07852316,50170757,-1.62,-1.48,-1.41,4738.01708984,-7.37,-9.49,47.91,48.61,0.0,0.09
1526669451.17848301,50270717,-1.61,-1.84,-1.87,4400.42919922,-7.43,-8.56,47.91,49.23,0.0,0.09
1526669451.27844310,50370677,-1.49,-1.94,-2.13,4117.57568359,-7.57,-7.86,47.91,49.59,0.0,0.08
1526669451.37840319,50470637,-1.35,-1.81,-2.2,3919.19140625,-7.79,-7.49,47.91,49.69,0.0,0.07
1526669451.47836304,50570597,-1.17,-1.56,-2.1,3825.0246582,-8.13,-7.39,47.91,49.48,0.0,0.07
1526669451.57832313,50670557,-0.99,-1.3,-1.89,3797.06884766,-8.57,-7.49,47.91,49.17,0.0,0.06
1526669451.67828321,50770517,-0.82,-1.06,-1.61,3770.54345703,-9.0,-7.71,47.91,48.85,0.0,0.06
1526669451.77824306,50870477,-0.69,-0.85,-1.3,3703.15698242,-9.49,-8.0,47.91,48.55,0.0,0.06
1526669451.87820315,50970437,-0.57,-0.6,-1.01,3611.32250977,-9.92,-8.38,47.91,48.21,0.0,0.06
1526669451.97899604,51071230,-0.48,-0.4,-0.75,3516.43676758,-10.27,-8.83,47.91,47.85,0.0,0.05
1526669452.07895613,51171190,-0.36,-0.33,-0.54,3398.21875,-10.52,-9.3,47.91,47.53,0.0,0.02
1526669452.17891622,51271150,-0.31,-0.25,-0.38,3268.22509766,-10.87,-9.69,47.91,47.33,0.0,0.02
1526669452.27887607,51371110,-0.29,-0.23,-0.28,3141.06201172,-11.09,-10.03,47.91,47.29,0.0,0.02
1526669452.37883615,51471070,-0.31,-0.17,-0.23,3021.171875,-11.35,-10.36,47.91,47.34,0.0,0.02
1526669452.47879601,51571030,-0.34,-0.11,-0.23,103.382583618,-11.5,-10.73,47.91,47.47,0.0,0.02
1526669452.57875609,51670990,-0.38,-0.1,-0.26,158.666046143,-11.62,-11.07,47.91,47.58,0.0,0.02
1526669452.67871618,51770950,-0.43,-0.15,-0.32,203.548126221,-11.7,-11.34,47.91,47.69,0.0,0.02
1526669452.77867603,51870910,-0.51,-0.22,-0.4,236.353729248,-11.77,-11.57,47.91,47.9,0.0,0.02
1526669452.87863612,51970870,-0.57,-0.32,-0.49,256.896514893,-11.84,-11.77,47.91,48.1,0.0,0.02
1526669452.97859621,52070830,-0.62,-0.46,-0.58,253.817245483,-11.89,-11.95,47.91,48.27,0.0,0.01
1526669453.07855606,52170790,-0.67,-0.59,-0.66,230.520797729,-11.97,-12.12,47.91,48.39,0.0,0.06
1526669453.17851615,52270750,-0.7,-0.73,-0.73,205.124176025,-11.98,-12.24,47.91,48.43,0.0,0.06
1526669453.27847600,52370710,-0.67,-0.89,-0.77,186.923019409,-11.9,-12.28,47.91,48.39,0.0,0.07
1526669453.37843609,52470670,-0.61,-1.05,-0.79,202.090026855,-11.83,-12.22,350.9,48.31,0.0,0.07
1526669453.47839618,52570630,-0.56,-1.58,-0.77,437.767272949,-8.3,-11.98,350.9,47.78,0.0,0.08
1526669453.57835603,52670590,-0.34,-2.22,-0.71,1570.95117188,-6.09,-10.95,350.9,46.39,0.0,0.11
1526669453.67831612,52770550,0.02,-2.55,-0.58,3864.86889648,-4.84,-9.35,350.9,44.35,0.0,0.12
1526669453.77827621,52870510,0.51,-2.46,-0.34,6650.56494141,-4.01,-7.58,350.9,41.83,0.0,0.13
1526669453.87823606,52970470,1.08,-1.95,0.0,9003.19824219,-3.41,-5.92,350.9,38.88,0.0,0.13
1526669453.97819614,53070430,-0.67,-1.25,0.24,10360.4248047,-4.44,-4.7,350.9,35.6,0.0,0.12
1526669454.07898903,53171223,-2.17,-0.79,-0.02,10534.9648438,-5.74,-4.48,350.9,32.11,0.0,0.1
1526669454.17894912,53271183,-2.94,-0.72,-0.65,10063.5996094,-6.87,-5.02,350.9,28.46,0.0,0.02
1526669454.27890921,53371143,-3.39,-0.99,-1.45,9571.69824219,-8.0,-6.01,350.9,24.73,0.0,0.02
1526669454.37886906,53471103,-3.66,-1.41,-2.28,9337.84667969,-9.11,-7.17,350.9,20.86,0.0,0.02
1526669454.47882915,53571063,-3.71,-1.88,-3.02,9390.81054688,-10.15,-8.28,350.9,16.92,0.0,0.03
1526669454.57878900,53671023,-3.56,-2.25,-3.57,9675.79101562,-11.09,-9.32,350.9,12.93,0.0,0.03
1526669454.67874908,53770983,-3.15,-2.46,-3.85,10069.3691406,-11.9,-10.3,350.9,8.86,0.0,0.03
1526669454.77870917,53870943,-2.52,-2.48,-3.84,10461.9023438,-12.61,-11.11,350.9,4.77,0.0,0.03
1526669454.87866902,53970903,-1.64,-2.32,-3.51,10703.5869141,-13.16,-11.79,350.9,0.68,0.0,0.03
1526669454.97862911,54070863,-0.63,-1.92,-2.88,10734.1552734,-13.56,-12.3,350.9,356.68,0.0,0.02
1526669455.07858920,54170823,0.43,-1.21,-1.99,7509.2421875,-13.86,-12.62,350.9,352.95,0.0,0.01
1526669455.17854905,54270783,1.44,-0.24,-0.92,6416.94238281,-14.07,-12.78,350.9,349.86,0.0,0.07
1526669455.27850914,54370743,2.27,0.85,0.21,5705.61523438,-14.23,-12.87,350.9,347.6,0.0,0.06
1526669455.37846899,54470703,2.85,1.95,1.32,5288.17285156,-14.4,-13.02,350.9,346.19,0.0,0.04
1526669455.47842908,54570663,3.16,2.82,2.28,4913.24414062,-14.63,-13.27,350.9,345.61,0.0,0.04
1526669455.57838917,54670623,3.18,3.39,3.0,4457.62353516,-14.91,-13.6,350.9,345.77,0.0,0.04
1526669455.67834902,54770583,2.97,3.7,3.43,3973.90527344,-15.21,-14.02,350.9,346.46,0.0,0.04
1526669455.77830911,54870543,2.59,3.71,3.55,3531.36083984,-15.36,-14.48,350.9,347.49,0.0,0.04
1526669455.87826920,54970503,2.14,3.5,3.39,3157.31225586,-15.38,-14.95,350.9,348.58,0.0,0.05
1526669455.97822905,55070463,1.62,3.0,2.99,2846.09277344,-15.32,-15.34,350.9,349.67,0.0,0.06
1526669456.07902217,55171256,1.12,2.34,2.43,2589.96582031,-15.27,-15.64,350.9,350.64,0.0,0.07
1526669456.17898202,55271216,0.72,1.6,1.79,2393.09814453,-15.18,-15.75,350.9,351.39,0.0,0.01
1526669456.27894211,55371176,0.43,0.99,1.16,2242.47949219,-15.06,-15.69,350.9,351.93,0.0,0.0
1526669456.37890220,55471136,0.27,0.58,0.59,2090.36572266,-14.97,-15.68,350.9,352.19,0.0,0.01
1526669456.47886205,55571096,0.2,0.22,0.16,1951.63244629,-14.93,-15.58,350.9,352.2,0.0,0.0
1526669456.57882214,55671056,0.22,0.01,-0.11,1835.3449707,-14.9,-15.41,350.9,352.04,0.0,0.01
1526669456.67878199,55771016,0.29,-0.09,-0.24,1741.06140137,-14.9,-15.18,350.9,351.81,0.0,0.01
1526669456.77874207,55870976,0.39,-0.11,-0.24,1655.62719727,-14.93,-14.99,350.9,351.54,0.0,0.01
1526669456.87870216,55970936,0.54,0.0,-0.13,1579.14477539,-15.03,-14.86,350.9,351.12,0.0,0.01
1526669456.97866201,56070896,0.69,0.22,0.06,1509.31066895,-14.52,-14.76,350.9,350.74,0.0,0.02
1526669457.07862210,56170856,0.76,0.32,0.29,1443.93615723,-12.16,-14.46,350.9,350.43,0.0,0.02
1526669457.17858219,56270816,0.76,0.31,0.51,1384.05529785,-11.39,-13.73,350.9,350.19,0.0,0.01
1526669457.27854204,56370776,0.73,0.32,0.68,1363.55480957,-11.09,-12.9,350.9,349.99,0.0,0.05
1526669457.37850213,56470736,0.7,0.41,0.79,1369.2590332,-11.16,-12.16,350.9,349.85,0.0,0.05
1526669457.47846222,56570696,0.6,0.53,0.84,1363.59533691,-11.0,-11.63,350.9,349.82,0.0,0.05
1526669457.57842207,56670656,0.48,0.61,0.82,1341.5567627,-11.19,-11.28,350.9,349.93,0.0,0.05
1526669457.67838216,56770616,0.33,0.7,0.74,195.656524658,-11.44,-11.09,350.9,350.13,0.0,0.05
1526669457.77834201,56870576,0.16,0.77,0.6,137.664871216,-11.56,-11.11,350.9,350.32,0.0,0.05
1526669457.87830210,56970536,-0.01,0.76,0.42,331.281890869,-11.82,-11.27,350.9,350.46,0.0,0.05
1526669457.97826219,57070496,-0.22,0.65,0.22,620.813049316,-12.38,-11.49,350.9,350.61,0.0,0.05
1526669458.07822204,57170456,-0.41,0.48,0.01,915.520996094,-12.65,-11.78,350.9,350.75,0.0,0.05
1526669458.17901516,57271249,-0.61,0.23,-0.2,1111.2520752,-13.04,-12.12,350.9,350.95,0.0,0.05
1526669458.27897501,57371209,-0.79,-0.03,-0.42,1198.52490234,-13.3,-12.44,350.9,351.11,0.0,0.02
1526669458.37893510,57471169,-0.96,-0.31,-0.63,1215.50366211,-13.53,-12.73,350.9,351.27,0.0,0.02
1526669458.47889519,57571129,-1.07,-0.57,-0.82,1171.53479004,-13.45,-12.97,350.9,351.36,0.0,0.01
1526669458.57885504,57671089,-1.12,-0.76,-0.97,1105.84863281,-13.56,-13.12,350.9,351.36,0.0,0.02
1526669458.67881513,57771049,-1.15,-0.87,-1.09,1048.84069824,-13.71,-13.28,350.9,351.35,0.0,0.02
1526669458.77877522,57871009,-1.16,-0.95,-1.16,1001.36224365,-13.74,-13.42,350.9,351.38,0.0,0.02
1526669458.87873507,57970969,-1.14,-1.03,-1.19,951.244873047,-13.84,-13.57,350.9,351.38,0.0,0.02
1526669458.97869515,58070929,-1.1,-1.05,-1.18,899.936645508,-13.77,-13.72,350.9,351.29,0.0,0.02
1526669459.07865500,58170889,-1.07,-1.06,-1.15,850.481933594,-13.75,-13.86,350.9,351.24,0.0,0.02
1526669459.17861509,58270849,-1.01,-1.11,-1.1,799.213684082,-13.94,-13.98,350.9,351.17,0.0,0.02
1526669459.27857518,58370809,-0.94,-1.15,-1.03,755.146484375,-13.83,-14.05,350.9,351.05,0.0,0.02
1526669459.37853503,58470769,-0.84,-1.17,-0.96,728.114562988,-13.82,-14.02,350.9,350.9,0.0,0.04
1526669459.47849512,58570729,-0.73,-1.18,-0.87,726.116394043,-13.84,-13.91,350.9,350.75,0.0,0.05
1526669459.57845521,58670689,-0.67,-1.15,-0.77,748.39654541,-13.57,-13.79,350.9,350.66,0.0,0.04
1526669459.67841506,58770649,-0.57,-1.05,-0.68,776.778625488,-13.67,-13.66,350.9,350.56,0.0,0.04
1526669459.77837515,58870609,-0.44,-0.88,-0.59,790.783569336,-13.88,-13.61,350.9,350.36,0.0,0.04
1526669459.87833500,58970569,-0.57,-0.46,-0.5,771.602111816,-11.82,-13.46,150.51,350.38,0.0,0.03
1526669459.97829509,59070529,-0.95,-0.24,-0.49,754.008911133,-8.81,-12.74,150.51,351.16,0.0,0.03
1526669460.07825518,59170489,-1.33,-0.39,-0.6,746.915100098,-7.26,-11.49,150.51,352.68,0.0,0.03
1526669460.17821503,59270449,-1.7,-0.59,-0.82,736.621276855,-6.29,-10.09,150.51,354.71,0.0,0.03
1526669460.27900815,59371242,-2.06,-0.85,-1.13,673.94744873,-5.52,-8.72,150.51,357.25,0.0,0.02
1526669460.37896800,59471202,-2.42,-1.09,-1.5,930.691711426,-4.87,-7.52,150.51,0.05,0.0,0.05
1526669460.47892809,59571162,-2.77,-1.3,-1.91,1503.36914062,-4.31,-6.54,150.51,3.11,0.0,0.06
1526669460.57888818,59671122,-3.11,-1.58,-2.33,2330.88696289,-3.78,-5.73,150.51,6.4,0.0,0.06
1526669460.67884803,59771082,-3.44,-1.94,-2.74,3081.73144531,-3.27,-5.0,150.51,9.84,0.0,0.06
1526669460.77880812,59871042,-3.71,-2.3,-3.13,3692.93334961,-2.78,-4.36,150.51,13.33,0.0,0.06
1526669460.87876821,59971002,-3.93,-2.72,-3.47,4061.10180664,-2.3,-3.76,150.51,16.86,0.0,0.05
1526669460.97872806,60070962,-4.02,-3.08,-3.76,4186.39355469,-1.85,-3.22,150.51,20.42,0.0,0.06
1526669461.07868814,60170922,-4.01,-3.35,-3.96,4182.62109375,-1.34,-2.68,150.51,24.1,0.0,0.06
1526669461.17864799,60270882,-3.91,-3.53,-4.07,4089.21313477,-0.82,-2.15,150.51,27.9,0.0,0.06
1526669461.27860808,60370842,-3.73,-3.64,-4.07,3930.43774414,-0.31,-1.63,150.51,31.78,0.0,0.06
1526669461.37856817,60470802,-3.41,-3.66,-3.96,3718.82983398,0.15,-1.07,150.51,35.62,0.0,0.06
1526669461.47852802,60570762,-2.96,-3.56,-3.73,3473.33642578,0.55,-0.46,150.51,39.44,0.0,0.01
1526669461.57848811,60670722,-2.4,-3.33,-3.38,3236.8581543,0.88,0.07,150.51,43.23,0.0,0.01
1526669461.67844820,60770682,-1.7,-3.0,-2.9,3022.59863281,1.15,0.57,150.51,47.02,0.0,0.01
1526669461.77840805,60870642,-0.88,-2.47,-2.3,2844.45019531,1.31,0.99,150.51,50.86,0.0,0.01
1526669461.87836814,60970602,0.08,-1.79,-1.58,2699.11035156,1.3,1.28,150.51,54.72,0.0,0.02
1526669461.97832799,61070562,1.22,-0.98,-0.72,2580.91357422,1.17,1.46,150.51,58.57,0.0,0.03
1526669462.07828808,61170522,2.44,0.0,0.27,2482.52490234,0.82,1.52,150.51,62.45,0.0,0.03
1526669462.17824817,61270482,2.94,1.0,1.3,2400.42114258,0.31,1.35,150.51,66.31,0.0,0.04
1526669462.27820802,61370442,2.9,1.84,2.17,2335.07714844,-0.19,1.0,150.51,70.16,0.0,0.05
1526669462.37900114,61471235,2.58,2.41,2.75,2283.36987305,-0.62,0.51,150.51,73.95,0.0,0.05
1526669462.47896099,61571195,2.18,2.68,3.0,2235.11425781,-0.91,0.0,150.51,77.69,0.0,0.09
1526669462.57892108,61671155,1.72,2.65,2.92,2179.99145508,-1.08,-0.5,150.51,81.43,0.0,0.09
1526669462.67888117,61771115,1.55,2.44,2.62,2116.00634766,-1.3,-0.88,150.51,85.18,0.0,0.09
1526669462.77884102,61871075,1.54,2.15,2.23,2041.82421875,-1.55,-1.16,150.51,88.98,0.0,0.09
1526669462.87880111,61971035,1.6,1.93,1.85,19.9481925964,-1.8,-1.37,150.51,92.77,0.0,0.09
1526669462.97876120,62070995,1.71,1.76,1.54,132.499633789,-2.08,-1.55,150.51,96.58,0.0,0.09
1526669463.07872105,62170955,1.88,1.71,1.37,343.242645264,-2.41,-1.72,150.51,100.46,0.0,0.09
1526669463.17868114,62270915,2.05,1.76,1.32,638.576660156,-2.77,-1.9,150.51,104.32,0.0,0.08
1526669463.27864099,62370875,2.2,1.88,1.39,952.754516602,-3.16,-2.13,150.51,108.22,0.0,0.08
1526669463.37860107,62470835,2.29,2.03,1.54,1181.27197266,-3.64,-2.44,150.51,112.22,0.0,0.09
1526669463.47856116,62570795,2.27,2.16,1.73,1321.49963379,-4.16,-2.87,150.51,116.19,0.0,0.09
1526669463.57852101,62670755,2.15,2.25,1.89,1342.28198242,-4.71,-3.32,150.51,120.15,0.0,0.1
1526669463.67848110,62770715,1.99,2.32,1.99,1317.87145996,-5.25,-3.81,150.51,124.15,0.0,0.1
1526669463.77844119,62870675,1.67,2.32,2.0,1289.3770752,-5.68,-4.41,150.51,128.1,0.0,0.11
1526669463.87840104,62970635,1.17,2.16,1.88,1251.0222168,-5.79,-4.99,150.51,132.07,0.0,0.11
1526669463.97836113,63070595,0.65,1.78,1.61,1187.88098145,-5.81,-5.45,150.51,135.98,0.0,0.12
1526669464.07832122,63170555,0.15,1.37,1.22,1113.08850098,-5.84,-5.7,150.51,139.96,0.0,0.12
1526669464.17828107,63270515,-0.35,0.92,0.74,1052.04321289,-5.83,-5.91,150.51,143.88,0.0,0.12
1526669464.27824116,63370475,-0.84,0.36,0.21,1000.88830566,-5.84,-6.07,150.51,147.63,0.0,0.12
1526669464.37820101,63470435,-1.2,-0.28,-0.33,946.314758301,-5.84,-6.15,150.51,150.87,0.0,0.12
1526669464.47899413,63571228,-1.42,-0.85,-0.83,891.179138184,-5.84,-6.14,150.51,153.42,0.0,0.11
1526669464.57895422,63671188,-1.53,-1.35,-1.24,843.680236816,-5.91,-6.1,150.51,155.04,0.0,0.05
1526669464.67891407,63771148,-1.48,-1.73,-1.53,810.862426758,-6.03,-6.07,150.51,155.79,0.0,0.04
1526669464.77887416,63871108,-1.32,-1.93,-1.67,795.057006836,-6.2,-6.07,150.51,155.81,0.0,0.02
1526669464.87883401,63971068,-1.07,-1.95,-1.66,791.817016602,-6.43,-6.06,150.51,155.27,0.0,0.01
1526669464.97879410,64071028,-0.75,-1.76,-1.51,789.516357422,-6.66,-6.02,150.51,154.37,0.0,0.0
1526669465.07875419,64170988,-0.37,-1.45,-1.23,778.309082031,-6.89,-6.05,150.51,153.24,0.0,0.0
1526669465.17871404,64270948,-0.04,-1.01,-0.87,759.80847168,-7.2,-6.19,150.51,152.07,0.0,0.01
1526669465.27867413,64370908,0.23,-0.52,-0.46,733.973327637,-7.76,-6.41,150.51,150.99,0.0,0.01
1526669465.37863421,64470868,0.45,0.0,-0.06,706.26751709,-8.42,-6.79,150.51,150.01,0.0,0.0
1526669465.47859406,64570828,0.62,0.48,0.29,193.091217041,-9.06,-7.27,150.51,149.22,0.0,0.0
1526669465.57855415,64670788,0.68,0.85,0.59,346.592773438,-9.7,-7.87,150.51,148.74,0.0,0.05
1526669465.67851400,64770748,0.64,1.13,0.79,522.333740234,-10.33,-8.56,150.51,148.59,0.0,0.06
1526669465.77847409,64870708,0.49,1.24,0.87,711.353820801,-10.89,-9.28,150.51,148.69,0.0,0.06
1526669465.87843418,64970668,0.28,1.22,0.84,849.2890625,-11.37,-9.97,150.51,148.95,0.0,0.06
1526669465.97839403,65070628,0.03,1.03,0.7,919.669555664,-11.81,-10.62,150.51,149.34,0.0,0.07
1526669466.07835412,65170588,-0.21,0.75,0.48,912.236450195,-12.19,-11.24,150.51,149.82,0.0,0.07
1526669466.17831421,65270548,-0.46,0.42,0.2,871.948913574,-12.53,-11.77,150.51,150.34,0.0,0.07
1526669466.27827406,65370508,-0.66,0.08,-0.1,818.693481445,-12.83,-12.16,150.51,150.88,0.0,0.07
1526669466.37823415,65470468,-0.82,-0.26,-0.4,764.102355957,-13.1,-12.47,150.51,151.3,0.0,0.06
1526669466.47819400,65570428,-0.87,-0.55,-0.66,709.155456543,-13.35,-12.74,150.51,151.58,0.0,0.06
1526669466.57898712,65671221,-0.88,-0.82,-0.85,655.609985352,-13.61,-12.99,150.51,151.74,0.0,0.06
1526669466.67894721,65771181,-0.82,-1.02,-0.97,605.681030273,-13.83,-13.26,150.51,151.78,0.0,0.01
1526669466.77890706,65871141,-0.7,-1.1,-1.0,565.976013184,-13.87,-13.4,150.51,151.66,0.0,0.0
1526669466.87886715,65971101,-0.49,-1.08,-0.95,536.301269531,-13.83,-13.57,150.51,151.43,0.0,0.0
1526669466.97882700,66071061,-0.27,-1.01,-0.81,517.450866699,-13.78,-13.73,150.51,151.18,0.0,0.0
1526669467.07878709,66171021,-0.06,-0.96,-0.61,531.068115234,-13.75,-13.81,150.51,150.98,0.0,0.0
1526669467.17874718,66270981,0.11,-0.81,-0.37,589.613952637,-13.71,-13.77,150.51,150.76,0.0,0.0
1526669467.27870703,66370941,0.3,-0.65,-0.12,680.292053223,-13.69,-13.68,150.51,150.57,0.0,0.0
1526669467.37866712,66470901,0.46,-0.37,0.11,778.611633301,-13.72,-13.57,150.51,150.41,0.0,0.0
1526669467.47862720,66570861,0.58,-0.06,0.33,830.805419922,-13.79,-13.56,150.51,150.29,0.0,0.0
1526669467.57858706,66670821,0.65,0.16,0.52,859.72052002,-13.89,-13.61,150.51,150.28,0.0,0.0
1526669467.67854714,66770781,0.65,0.32,0.66,876.230957031,-14.0,-13.62,150.51,150.28,0.0,0.03
1526669467.77850699,66870741,0.64,0.45,0.73,881.89654541,-14.12,-13.7,150.51,150.31,0.0,0.04
1526669467.87846708,66970701,0.6,0.56,0.76,870.318237305,-14.25,-13.83,150.51,150.39,0.0,0.04
1526669467.97842717,67070661,0.5,0.64,0.73,845.96307373,-14.39,-14.01,150.51,150.49,0.0,0.04
1526669468.07838702,67170621,0.38,0.65,0.66,34.4109992981,-14.53,-14.23,150.51,150.57,0.0,0.04
1526669468.17834711,67270581,0.25,0.58,0.55,17.832988739,-14.65,-14.4,150.51,150.7,0.0,0.04
1526669468.27830720,67370541,0.12,0.5,0.41,22.1951065063,-14.77,-14.6,150.51,150.89,0.0,0.04
1526669468.37826705,67470501,0.0,0.38,0.26,43.9810714722,-14.86,-14.8,150.51,151.02,0.0,0.04
1526669468.47822714,67570461,-0.07,0.19,0.11,52.7608795166,-14.93,-14.99,150.51,151.06,0.0,0.04
1526669468.57902002,67671254,-0.12,0.06,-0.01,51.7565422058,-15.0,-15.15,150.51,151.03,0.0,0.04
1526669468.67898011,67771214,-0.12,-0.06,-0.11,51.3896751404,-15.04,-15.28,150.51,150.9,0.0,0.0
1526669468.77894020,67871174,-0.12,-0.2,-0.17,46.1088294983,-15.1,-15.35,150.51,150.87,0.0,0.0
1526669468.87890005,67971134,-0.03,-0.31,-0.2,46.6965713501,-15.16,-15.38,150.51,150.72,0.0,0.0
1526669468.97886014,68071094,0.04,-0.35,-0.18,61.8326225281,-15.22,-15.31,150.51,150.59,0.0,0.0
1526669469.07881999,68171054,0.13,-0.32,-0.12,85.2877731323,-15.31,-15.21,150.51,150.47,0.0,0.0
1526669469.17878008,68271014,0.21,-0.22,-0.03,111.887794495,-14.56,-15.12,150.51,150.47,0.0,0.0
1526669469.27874017,68370974,0.26,-0.16,0.06,135.392700195,-13.79,-14.95,150.51,150.47,0.0,0.0
1526669469.37870002,68470934,0.31,-0.15,0.16,173.718063354,-13.41,-14.66,150.51,150.51,0.0,0.0
1526669469.47866011,68570894,0.32,-0.2,0.25,262.527709961,-13.31,-14.24,150.51,150.61,0.0,0.0
1526669469.57862020,68670854,0.33,-0.14,0.32,382.140808105,-13.37,-13.87,150.51,150.62,0.0,0.01
1526669469.67858005,68770814,0.38,-0.05,0.36,475.910247803,-13.43,-13.61,150.51,150.54,0.0,0.01
1526669469.77854013,68870774,0.43,0.12,0.4,523.077026367,-13.58,-13.4,150.51,150.43,0.0,0.02
1526669469.87849998,68970734,0.46,0.35,0.44,516.324645996,-13.78,-13.34,150.51,150.35,0.0,0.03
1526669469.97846007,69070694,0.46,0.57,0.46,492.095306396,-14.02,-13.41,150.51,150.27,0.0,0.03
1526669470.07842016,69170654,0.43,0.67,0.47,480.862060547,-14.31,-13.55,150.51,150.26,0.0,0.03
1526669470.17838001,69270614,0.34,0.71,0.45,482.255859375,-14.55,-13.8,150.51,150.35,0.0,0.03
1526669470.27834010,69370574,0.22,0.72,0.41,495.318756104,-14.83,-14.13,150.51,150.49,0.0,0.03
1526669470.37830019,69470534,0.1,0.63,0.33,514.015014648,-15.05,-14.47,150.51,150.6,0.0,0.04
1526669470.47826004,69570494,-0.01,0.48,0.23,521.682556152,-15.22,-14.79,150.51,150.68,0.0,0.04
1526669470.57822013,69670454,-0.13,0.31,0.11,520.426269531,-15.37,-15.11,150.51,150.74,0.0,0.03
1526669470.67901301,69771247,-0.18,0.13,0.0,261.587188721,-15.54,-15.37,150.51,150.74,0.0,0.03
1526669470.77897310,69871207,-0.19,0.0,-0.1,191.895141602,-15.6,-15.54,150.51,150.67,0.0,0.01
1526669470.87893319,69971167,-0.15,-0.12,-0.17,153.82723999,-15.61,-15.63,150.51,150.6,0.0,0.01
1526669470.97889304,70071127,-0.11,-0.23,-0.21,118.30267334,-15.68,-15.68,150.51,150.5,0.0,0.01
1526669471.07885313,70171087,-0.06,-0.31,-0.2,105.025680542,-15.83,-15.7,150.51,150.45,0.0,0.01
1526669471.17881322,70271047,0.0,-0.38,-0.16,130.63269043,-15.83,-15.74,150.51,150.49,0.0,0.0
1526669471.27877307,70371007,0.03,-0.36,-0.11,195.223907471,-15.9,-15.7,150.51,150.58,0.0,0.01
1526669471.37873316,70470967,0.09,-0.27,-0.04,238.031661987,-15.93,-15.66,150.51,150.6,0.0,0.01
1526669471.47869301,70570927,0.16,-0.13,0.02,255.312301636,-15.83,-15.65,150.51,150.59,0.0,0.01
1526669471.57865310,70670887,0.19,0.0,0.1,246.174591064,-15.85,-15.69,150.51,150.64,0.0,0.01
1526669471.67861319,70770847,0.18,0.14,0.16,227.851959229,-15.77,-15.74,150.51,150.78,0.0,0.01
1526669471.77857304,70870807,0.17,0.19,0.2,209.333953857,-15.78,-15.85,150.51,150.9,0.0,0.0
1526669471.87853312,70970767,0.14,0.18,0.22,194.133407593,-15.78,-15.94,150.51,150.96,0.0,0.03
1526669471.97849321,71070727,0.13,0.2,0.22,181.062667847,-15.79,-15.97,150.51,150.86,0.0,0.03
1526669472.07845306,71170687,0.14,0.14,0.2,169.955780029,-15.82,-15.97,150.51,150.75,0.0,0.03
1526669472.17841315,71270647,0.22,0.09,0.19,165.194000244,-15.81,-15.92,150.51,150.46,0.0,0.02
1526669472.27837300,71370607,0.31,0.13,0.2,160.13168335,-15.82,-15.9,150.51,150.09,0.0,0.02
1526669472.37833309,71470567,0.36,0.13,0.23,155.811187744,-15.72,-15.86,150.51,149.91,0.0,0.02
1526669472.47829318,71570527,0.41,0.19,0.27,153.724578857,-15.65,-15.83,150.51,149.77,0.0,0.02
1526669472.57825303,71670487,0.47,0.27,0.33,148.910491943,-15.65,-15.81,150.51,149.64,0.0,0.02
1526669472.67821312,71770447,0.48,0.31,0.38,144.257705688,-15.72,-15.79,150.51,149.63,0.0,0.02
1526669472.77900600,71871240,0.46,0.34,0.43,141.169036865,-15.87,-15.76,150.51,149.7,0.0,0.02
1526669472.87896609,71971200,0.42,0.38,0.46,138.574691772,-15.8,-15.69,150.51,149.94,0.0,0.01
1526669472.97892618,72071160,0.34,0.43,0.45,133.753890991,-15.73,-15.64,150.51,150.25,0.0,0.01
1526669473.07888603,72171120,0.22,0.35,0.42,129.323959351,-15.77,-15.65,150.51,150.64,0.0,0.01
1526669473.17884612,72271080,0.11,0.25,0.35,127.965293884,-15.71,-15.68,150.51,151.02,0.0,0.0
1526669473.27880621,72371040,0.03,0.2,0.26,77.256729126,-15.81,-15.69,150.51,151.24,0.0,0.01
1526669473.37876606,72471000,-0.04,0.14,0.16,50.4563407898,-15.89,-15.77,150.51,151.36,0.0,0.01
1526669473.47872615,72570960,-0.05,0.06,0.06,33.9265937805,-15.91,-15.85,150.51,151.33,0.0,0.01
1526669473.57868600,72670920,-0.04,-0.02,-0.01,25.5450325012,-15.96,-15.91,150.51,151.2,0.0,0.01
1526669473.67864609,72770880,0.0,-0.1,-0.05,22.3692550659,-15.95,-15.87,150.51,151.05,0.0,0.01
1526669473.77860618,72870840,0.08,-0.14,-0.06,23.7299499512,-15.97,-15.85,150.51,150.87,0.0,0.01
1526669473.87856603,72970800,0.12,-0.14,-0.04,33.7006378174,-15.97,-15.84,150.51,150.76,0.0,0.01
1526669473.97852612,73070760,0.14,-0.09,0.0,42.8144226074,-16.05,-15.85,150.51,150.7,0.0,0.02
1526669474.07848620,73170720,0.18,0.04,0.06,42.5578460693,-16.1,-15.9,150.51,150.65,0.0,0.02
1526669474.17844605,73270680,0.21,0.2,0.11,40.6498451233,-16.0,-15.97,150.51,150.62,0.0,0.02
1526669474.27840614,73370640,0.26,0.35,0.17,52.9573898315,-15.91,-16.02,150.51,150.49,0.0,0.02
1526669474.37836599,73470600,0.31,0.48,0.23,86.5673370361,-15.97,-16.06,150.51,150.23,0.0,0.02
1526669474.47832608,73570560,0.35,0.57,0.28,135.182876587,-15.9,-16.14,150.51,150.01,0.0,0.02
1526669474.57828617,73670520,0.39,0.56,0.33,172.674804688,-15.92,-16.18,150.51,149.8,0.0,0.02
1526669474.67824602,73770480,0.42,0.52,0.38,182.958572388,-15.89,-16.15,150.51,149.72,0.0,0.02
1526669474.77820611,73870440,0.4,0.43,0.41,176.029891968,-15.96,-16.07,150.51,149.76,0.0,0.02
1526669474.87899899,73971233,0.36,0.36,0.42,166.768966675,-16.01,-16.05,150.51,149.84,0.0,0.02
1526669474.97895908,74071193,0.35,0.3,0.42,162.077926636,-16.04,-16.04,150.51,149.98,0.0,0.01
1526669475.07891917,74171153,0.3,0.24,0.4,163.848510742,-16.04,-15.96,150.51,150.14,0.0,0.01
1526669475.17887902,74271113,0.26,0.2,0.36,168.566040039,-16.04,-15.88,150.51,150.31,0.0,0.01
1526669475.27883911,74371073,0.23,0.17,0.32,173.224105835,-16.0,-15.81,150.51,150.5,0.0,0.01
1526669475.37879920,74471033,0.2,0.19,0.28,172.843322754,-16.01,-15.79,150.51,150.71,0.0,0.01
1526669475.47875905,74570993,0.19,0.31,0.23,166.858337402,-15.57,-15.76,328.02,150.89,0.0,0.01
1526669475.57871914,74670953,0.18,0.57,0.2,187.496871948,-11.92,-15.24,328.02,151.61,0.0,0.02
1526669475.67867899,74770913,-0.04,0.6,0.16,245.493637085,-10.12,-14.08,328.02,153.07,0.0,0.01
1526669475.77863908,74870873,-0.4,0.55,0.07,317.178527832,-9.14,-12.7,328.02,155.16,0.0,0.0
1526669475.87859917,74970833,-0.85,0.42,-0.1,2507.38720703,-8.53,-11.44,328.02,157.72,0.0,0.0
1526669475.97855902,75070793,-1.35,0.18,-0.38,2761.21459961,-8.1,-10.34,328.02,160.58,0.0,0.01
1526669476.07851911,75170753,-1.92,-0.12,-0.76,3053.16015625,-7.75,-9.54,328.02,163.7,0.0,0.07
1526669476.17847919,75270713,-2.55,-0.49,-1.24,3516.55810547,-7.43,-8.95,328.02,166.96,0.0,0.08
1526669476.27843904,75370673,-3.22,-0.99,-1.81,4052.78442383,-7.1,-8.45,328.02,170.46,0.0,0.09
1526669476.37839913,75470633,-3.86,-1.57,-2.44,4582.86230469,-6.72,-8.0,328.02,174.13,0.0,0.1
1526669476.47835922,75570593,-4.45,-2.2,-3.1,5039.94482422,-6.31,-7.52,328.02,177.88,0.0,0.1
1526669476.57831907,75670553,-4.97,-2.84,-3.77,5462.26660156,-5.85,-7.07,328.02,181.66,0.0,0.1
1526669476.67827916,75770513,-5.43,-3.49,-4.4,5781.99316406,-5.35,-6.61,328.02,185.46,0.0,0.11
1526669476.77823901,75870473,-5.79,-4.08,-4.96,6016.21630859,-4.78,-6.18,328.02,189.27,0.0,0.11
1526669476.87819910,75970433,-6.02,-4.61,-5.44,6142.09814453,-4.19,-5.69,328.02,193.07,0.0,0.1
1526669476.97899199,76071226,-6.15,-5.09,-5.82,6143.37158203,-3.58,-5.13,328.02,196.91,0.0,0.1
1526669477.07895207,76171186,-6.13,-5.48,-6.07,5998.5546875,-2.97,-4.49,328.02,200.81,0.0,0.04
1526669477.17891216,76271146,-6.01,-5.75,-6.19,5759.21630859,-2.37,-3.81,328.02,204.8,0.0,0.03
1526669477.27887201,76371106,-5.8,-5.89,-6.17,5466.29345703,-1.79,-3.08,328.02,208.82,0.0,0.03
1526669477.37883210,76471066,-5.49,-5.91,-6.04,5152.22460938,-1.27,-2.41,328.02,212.86,0.0,0.03
1526669477.47879219,76571026,-5.05,-5.77,-5.8,4853.35205078,-0.81,-1.81,328.02,216.91,0.0,0.02
1526669477.57875204,76670986,-4.6,-5.47,-5.44,4583.85742188,-0.48,-1.22,328.02,220.95,0.0,0.02
1526669477.67871213,76770946,-4.05,-5.07,-4.99,4344.23046875,-0.18,-0.72,328.02,225.0,0.0,0.02
1526669477.77867222,76870906,-3.41,-4.58,-4.45,4132.74365234,0.04,-0.35,328.02,228.98,0.0,0.01
1526669477.87863207,76970866,-2.68,-4.04,-3.84,3948.63818359,0.21,-0.04,328.02,232.89,0.0,0.01
1526669477.97859216,77070826,-1.88,-3.43,-3.16,3792.84765625,0.26,0.16,328.02,236.84,0.0,0.01
1526669478.07855201,77170786,-0.99,-2.76,-2.42,3667.58007812,0.22,0.31,328.02,240.72,0.0,0.06
1526669478.17851210,77270746,0.03,-1.95,-1.61,3561.23974609,0.07,0.37,328.02,244.65,0.0,0.06
1526669478.27847219,77370706,1.27,-1.06,-0.69,3467.13427734,-0.17,0.3,328.02,248.63,0.0,0.05
1526669478.37843204,77470666,2.74,-0.04,0.34,3387.75561523,-0.57,0.18,328.02,252.68,0.0,0.05
1526669478.47839212,77570626,3.44,1.07,1.47,1612.59594727,-1.03,-0.04,328.02,256.77,0.0,0.04
1526669478.57835221,77670586,3.41,2.02,2.43,1637.22473145,-1.38,-0.44,328.02,260.89,0.0,0.03
1526669478.67831206,77770546,3.08,2.65,3.09,1722.32824707,-1.62,-0.89,328.02,265.02,0.0,0.03
1526669478.77827215,77870506,2.55,2.96,3.38,1801.83618164,-1.77,-1.31,328.02,269.08,0.0,0.02
1526669478.87823200,77970466,1.89,2.98,3.29,1725.35388184,-1.82,-1.68,328.02,273.07,0.0,0.02
1526669478.97819209,78070426,1.19,2.69,2.87,1552.85180664,-1.74,-1.95,328.02,277.08,0.0,0.02
1526669479.07898521,78171219,0.64,2.23,2.22,1347.1550293,-1.63,-2.07,328.02,281.19,0.0,0.01
1526669479.17894506,78271179,0.43,1.71,1.48,1201.98547363,-1.73,-2.09,328.02,285.24,0.0,0.01
1526669479.27890515,78371139,0.39,1.29,0.8,1223.16638184,-1.93,-2.08,328.02,289.31,0.0,0.01
1526669479.37886500,78471099,0.4,0.94,0.28,1435.87341309,-2.2,-2.02,328.02,293.4,0.0,0.01
1526669479.47882509,78571059,0.41,0.73,-0.06,1798.6932373,-2.57,-1.98,328.02,297.44,0.0,0.01
1526669479.57878518,78671019,0.42,0.63,-0.24,2233.32397461,-3.0,-2.1,328.02,301.43,0.0,0.01
1526669479.67874503,78770979,0.37,0.63,-0.28,2692.17114258,-3.53,-2.35,328.02,305.35,0.0,0.01
1526669479.77870512,78870939,0.24,0.6,-0.25,3072.75,-4.04,-2.75,328.02,309.28,0.0,0.01
1526669479.87866521,78970899,0.03,0.51,-0.19,3275.24414062,-4.54,-3.2,328.02,313.22,0.0,0.01
1526669479.97862506,79070859,-0.22,0.39,-0.17,3327.18701172,-5.01,-3.67,328.02,317.19,0.0,0.01
1526669480.07858515,79170819,-0.54,0.22,-0.21,3282.88793945,-5.16,-4.13,328.02,321.2,0.0,0.01
1526669480.17854500,79270779,-0.87,-0.07,-0.34,3169.73852539,-5.19,-4.58,328.02,325.03,0.0,0.05
1526669480.27850509,79370739,-1.12,-0.46,-0.54,3023.5871582,-5.18,-4.95,328.02,328.34,0.0,0.06
1526669480.37846518,79470699,-1.35,-0.94,-0.78,2875.33666992,-5.19,-5.26,328.02,330.94,0.0,0.08
1526669480.47842503,79570659,-1.49,-1.46,-1.04,2781.9296875,-5.27,-5.39,328.02,332.73,0.0,0.09
1526669480.57838511,79670619,-1.52,-1.84,-1.28,2767.95556641,-5.35,-5.46,328.02,333.61,0.0,0.1
1526669480.67834520,79770579,-1.43,-2.06,-1.45,2800.17138672,-5.48,-5.4,328.02,333.73,0.0,0.1
1526669480.77830505,79870539,-1.23,-2.06,-1.53,2816.89892578,-5.66,-5.3,328.02,333.32,0.0,0.1
1526669480.87826514,79970499,-0.94,-1.89,-1.49,2787.56884766,-5.84,-5.27,328.02,332.44,0.0,0.1
1526669480.97822499,80070459,-0.64,-1.58,-1.34,2717.57348633,-6.06,-5.36,328.02,331.24,0.0,0.1
1526669481.07901812,80171252,-0.32,-1.19,-1.1,265.44821167,-6.31,-5.5,328.02,330.04,0.0,0.09
1526669481.17897820,80271212,-0.07,-0.71,-0.79,145.290130615,-6.56,-5.71,328.02,328.95,0.0,0.04
1526669481.27893806,80371172,0.09,-0.27,-0.46,177.603240967,-6.81,-5.95,328.02,328.05,0.0,0.03
1526669481.37889814,80471132,0.19,0.05,-0.16,249.982696533,-7.06,-6.25,328.02,327.33,0.0,0.03
1526669481.47885799,80571092,0.25,0.31,0.08,294.82824707,-7.33,-6.59,328.02,326.88,0.0,0.03
1526669481.57881808,80671052,0.21,0.48,0.26,334.258239746,-7.58,-6.99,328.02,326.7,0.0,0.03
1526669481.67877817,80771012,0.09,0.48,0.34,334.50894165,-7.8,-7.39,328.02,326.77,0.0,0.03
1526669481.77873802,80870972,-0.04,0.39,0.33,303.582824707,-8.12,-7.71,328.02,326.97,0.0,0.03
1526669481.87869811,80970932,-0.14,0.27,0.24,270.992340088,-8.58,-8.01,328.02,327.27,0.0,0.03
1526669481.97865820,81070892,-0.27,0.17,0.1,245.950744629,-9.09,-8.28,328.02,327.63,0.0,0.03
1526669482.07861805,81170852,-0.38,0.06,-0.05,230.561264038,-9.63,-8.56,328.02,327.98,0.0,0.03
1526669482.17857814,81270812,-0.5,-0.09,-0.23,225.34564209,-10.17,-8.93,328.02,328.29,0.0,0.03
1526669482.27853799,81370772,-0.6,-0.23,-0.4,228.561447144,-10.71,-9.36,328.02,328.53,0.0,0.08
1526669482.37849808,81470732,-0.67,-0.31,-0.56,246.09954834,-11.24,-9.84,328.02,328.66,0.0,0.08
1526669482.47845817,81570692,-0.68,-0.37,-0.68,285.529693604,-11.74,-10.36,328.02,328.65,0.0,0.08
1526669482.57841802,81670652,-0.69,-0.43,-0.76,336.765533447,-12.23,-10.87,328.02,328.57,0.0,0.08
1526669482.67837811,81770612,-0.66,-0.52,-0.8,373.975280762,-12.7,-11.37,328.02,328.53,0.0,0.08
1526669482.77833819,81870572,-0.63,-0.56,-0.8,390.658905029,-13.15,-11.88,328.02,328.48,0.0,0.08
1526669482.87829804,81970532,-0.6,-0.55,-0.77,397.193572998,-13.56,-12.35,328.02,328.47,0.0,0.08
1526669482.97825813,82070492,-0.62,-0.56,-0.73,398.231811523,-13.95,-12.84,328.02,328.51,0.0,0.07
1526669483.07821822,82170452,-0.63,-0.65,-0.68,385.470733643,-14.29,-13.28,328.02,328.54,0.0,0.08
1526669483.17901111,82271245,-0.62,-0.72,-0.65,368.60848999,-14.62,-13.65,328.02,328.48,0.0,0.07
1526669483.27897120,82371205,-0.57,-0.75,-0.62,356.967376709,-14.81,-14.0,328.02,328.39,0.0,0.03
1526669483.37893105,82471165,-0.49,-0.76,-0.58,352.92578125,-14.85,-14.34,328.02,328.2,0.0,0.02
1526669483.47889113,82571125,-0.38,-0.73,-0.53,353.919952393,-14.85,-14.56,328.02,328.0,0.0,0.02
1526669483.57885098,82671085,-0.28,-0.66,-0.46,355.30645752,-14.85,-14.71,328.02,327.84,0.0,0.02
1526669483.67881107,82771045,-0.19,-0.63,-0.38,474.278137207,-14.75,-14.77,328.02,327.81,0.0,0.02
1526669483.77877116,82871005,-0.17,-0.57,-0.3,549.711364746,-14.51,-14.77,328.02,327.85,0.0,0.01
1526669483.87873101,82970965,-0.19,-0.52,-0.24,611.804443359,-14.2,-14.75,328.02,327.97,0.0,0.01
1526669483.97869110,83070925,-0.2,-0.48,-0.19,661.804077148,-13.88,-14.68,328.02,328.1,0.0,0.01
1526669484.07865119,83170885,-0.2,-0.48,-0.17,692.028503418,-13.59,-14.56,328.02,328.27,0.0,0.01
1526669484.17861104,83270845,-0.21,-0.54,-0.17,763.783813477,-13.29,-14.39,328.02,328.41,0.0,0.01
1526669484.27857113,83370805,-0.21,-0.63,-0.17,896.081481934,-12.98,-14.12,328.02,328.55,0.0,0.01
1526669484.37853122,83470765,-0.18,-0.72,-0.19,1099.79321289,-12.69,-13.77,328.02,328.66,0.0,0.05
1526669484.47849107,83570725,-0.12,-0.67,-0.19,1268.63317871,-12.41,-13.46,328.02,328.7,0.0,0.06
1526669484.57845116,83670685,-0.08,-0.58,-0.18,1329.69689941,-12.14,-13.16,328.02,328.71,0.0,0.05
1526669484.67841101,83770645,-0.01,-0.46,-0.16,1321.06103516,-11.89,-12.86,328.02,328.67,0.0,0.05
1526669484.77837110,83870605,0.03,-0.35,-0.12,1264.2253418,-11.64,-12.58,328.02,328.57,0.0,0.05
1526669484.87833118,83970565,0.08,-0.33,-0.07,1207.66357422,-11.39,-12.27,328.02,328.52,0.0,0.05
1526669484.97829103,84070525,0.13,-0.3,-0.02,1170.03308105,-11.15,-11.98,328.02,328.46,0.0,0.05
1526669485.07825112,84170485,0.18,-0.22,0.03,1138.28430176,-10.9,-11.76,328.02,328.49,0.0,0.05
1526669485.17821121,84270445,0.2,-0.16,0.09,1108.75610352,-10.66,-11.57,328.02,328.56,0.0,0.05
1526669485.27900410,84371238,0.18,-0.14,0.13,1085.15283203,-10.39,-11.33,328.02,328.64,0.0,0.05
1526669485.37896419,84471198,0.2,-0.1,0.16,1066.68859863,-10.09,-11.05,328.02,328.63,0.0,0.0
1526669485.47892404,84571158,0.24,-0.06,0.18,1046.44299316,-9.76,-10.77,328.02,328.5,0.0,0.0
1526669485.57888412,84671118,0.3,-0.06,0.21,1026.87939453,-9.38,-10.47,328.02,328.34,0.0,0.0
1526669485.67884421,84771078,0.36,-0.05,0.24,1014.75238037,-8.98,-10.05,328.02,328.16,0.0,0.0
1526669485.77880406,84871038,0.4,-0.04,0.27,1011.25592041,-8.55,-9.58,328.02,328.04,0.0,0.0
1526669485.87876415,84970998,0.44,0.0,0.31,1011.2008667,-8.24,-9.09,328.02,327.92,0.0,0.0
1526669485.97872400,85070958,0.48,0.12,0.36,1001.98455811,-7.78,-8.7,328.02,327.88,0.0,0.0
1526669486.07868409,85170918,0.5,0.21,0.4,981.529785156,-7.16,-8.3,328.02,327.92,0.0,0.0
1526669486.17864418,85270878,0.53,0.28,0.44,956.000427246,-6.82,-7.88,328.02,327.97,0.0,0.0
1526669486.27860403,85370838,0.55,0.29,0.47,303.918457031,-6.59,-7.48,328.02,328.02,0.0,0.0
1526669486.37856412,85470798,0.54,0.27,0.5,386.735046387,-6.37,-7.06,328.02,328.14,0.0,0.0
1526669486.47852421,85570758,0.58,0.31,0.52,440.843383789,-6.18,-6.69,328.02,328.22,0.0,0.04
1526669486.57848406,85670718,0.6,0.4,0.54,418.514068604,-6.0,-6.42,328.02,328.24,0.0,0.04
1526669486.67844415,85770678,0.6,0.53,0.56,351.084533691,-5.83,-6.22,328.02,328.23,0.0,0.04
1526669486.77840400,85870638,0.57,0.64,0.56,294.729278564,-5.62,-6.04,328.02,328.22,0.0,0.04
1526669486.87836409,85970598,0.5,0.66,0.56,264.540649414,-5.37,-5.89,328.02,328.2,0.0,0.05
1526669486.97832417,86070558,0.44,0.62,0.53,242.015167236,-5.11,-5.73,328.02,328.15,0.0,0.05
1526669487.07828403,86170518,0.43,0.56,0.49,222.237289429,-4.82,-5.52,328.02,328.08,0.0,0.05
1526669487.17824411,86270478,0.38,0.47,0.45,201.457458496,-4.46,-5.21,328.02,328.05,0.0,0.05
1526669487.27820420,86370438,0.35,0.48,0.4,184.894836426,-4.09,-4.91,328.02,328.06,0.0,0.04
1526669487.37899709,86471231,0.32,0.47,0.36,176.834213257,-3.67,-4.59,328.02,328.06,0.0,0.04
1526669487.47895718,86571191,0.36,0.38,0.33,169.285003662,-3.21,-4.24,328.02,328.07,0.0,0.01
1526669487.57891703,86671151,0.41,0.28,0.32,157.797988892,-2.73,-3.8,328.02,328.09,0.0,0.01
1526669487.67887712,86771111,0.51,0.22,0.33,152.280685425,-2.12,-3.36,328.03,328.04,0.0,0.01
1526669487.77883720,86871071,0.53,0.0,0.37,176.597442627,3.38,-2.48,328.03,328.01,0.0,0.01
1526669487.87879705,86971031,0.61,-0.44,0.43,423.410583496,6.87,-0.35,328.03,328.01,0.0,0.02
1526669487.97875714,87070991,0.73,-0.6,0.51,992.349914551,7.98,2.31,328.03,328.0,0.0,0.04
1526669488.07871699,87170951,0.88,-0.33,0.61,1524.55395508,7.87,4.63,328.03,327.99,0.0,0.05
1526669488.17867708,87270911,1.0,0.24,0.73,1721.9095459,7.12,6.18,328.03,328.03,0.0,0.05
1526669488.27863717,87370871,1.08,0.9,0.85,1673.79943848,6.04,6.9,328.03,328.07,0.0,0.04
1526669488.37859702,87470831,1.03,1.47,0.96,1642.953125,4.74,6.86,328.03,328.14,0.0,0.03
1526669488.47855711,87570791,0.9,1.85,1.02,1776.07617188,3.32,6.21,328.03,328.19,0.0,0.04
1526669488.57851720,87670751,0.72,2.03,1.01,2063.7277832,1.98,5.21,328.03,328.22,0.0,0.05
1526669488.67847705,87770711,0.46,1.99,0.93,2419.83056641,0.82,4.0,328.03,328.22,0.0,0.06
1526669488.77843714,87870671,0.17,1.77,0.76,2737.00170898,-0.13,2.79,328.03,328.19,0.0,0.06
1526669488.87839699,87970631,-0.05,1.47,0.54,9391.35742188,-0.84,1.63,328.03,328.11,0.0,0.07
1526669488.97835708,88070591,-0.26,1.15,0.28,8754.62988281,-1.36,0.6,328.03,328.1,0.0,0.06
1526669489.07831717,88170551,-0.46,0.74,0.01,7969.38964844,-1.66,-0.17,328.03,328.16,0.0,0.06
1526669489.17827702,88270511,-0.6,0.37,-0.24,7112.55615234,-1.82,-0.76,328.03,328.26,0.0,0.05
1526669489.27823710,88370471,-0.65,0.03,-0.46,6308.91259766,-1.86,-1.22,328.03,328.38,0.0,0.05
1526669489.37819719,88470431,-0.63,-0.26,-0.62,5576.72314453,-1.83,-1.55,328.03,328.43,0.0,0.05
1526669489.47899008,88571224,-0.5,-0.48,-0.7,4904.87304688,-1.69,-1.74,328.03,328.43,0.0,0.04
1526669489.57895017,88671184,-0.36,-0.65,-0.69,4316.61962891,-1.49,-1.75,328.03,328.44,0.0,0.01
1526669489.67891002,88771144,-0.26,-0.69,-0.61,3838.73193359,-1.24,-1.64,328.03,328.44,0.0,0.01
1526669489.77887011,88871104,-0.11,-0.67,-0.48,3473.82739258,-0.99,-1.46,328.03,328.44,0.0,0.02
1526669489.87883019,88971064,0.08,-0.59,-0.31,3207.89477539,-0.73,-1.28,328.03,328.44,0.0,0.02
1526669489.97879004,89071024,0.24,-0.51,-0.11,3034.45385742,-0.53,-1.07,328.03,328.44,0.0,0.02
1526669490.07875013,89170984,0.4,-0.35,0.08,2936.64306641,-0.32,-0.83,328.03,328.38,0.0,0.02
1526669490.17871022,89270944,0.56,-0.19,0.28,2870.65869141,-0.16,-0.57,328.03,328.3,0.0,0.02
1526669490.27867007,89370904,0.63,-0.02,0.47,2840.23876953,-0.01,-0.32,328.03,328.2,0.0,0.02
1526669490.37863016,89470864,0.67,0.14,0.62,2812.09423828,0.07,-0.19,328.03,328.17,0.0,0.02
1526669490.47859001,89570824,0.7,0.29,0.72,2770.62963867,0.13,-0.11,328.03,328.2,0.0,0.02
1526669490.57855010,89670784,0.71,0.41,0.78,2710.44335938,0.18,-0.03,328.03,328.24,0.0,0.03
1526669490.67851019,89770744,0.72,0.51,0.81,2629.51782227,0.23,0.09,328.03,328.26,0.0,0.03
1526669490.77847004,89870704,0.71,0.64,0.81,2528.28369141,0.25,0.22,328.03,328.27,0.0,0.03
1526669490.87843013,89970664,0.67,0.7,0.79,2416.77001953,0.31,0.29,328.03,328.27,0.0,0.03
1526669490.97839022,90070624,0.6,0.73,0.74,2308.6953125,0.33,0.33,328.03,328.26,0.0,0.03
