timestamp,TimeUS,DesR,R,IR,IRErr,DesP,P,DesY,Y,ErrRP,ErrYaw
1526669547.40400004,26471907,0.0,0.9,0.0,7630.44238281,0.0,0.16,354.77,354.77,0.0,0.0
1526669547.50396013,26571867,0.0,0.91,0.0,7682.1796875,0.0,0.15,354.72,354.72,0.0,0.0
1526669547.60392022,26671827,0.0,0.92,0.0,7738.18115234,0.0,0.15,354.66,354.66,0.0,0.0
1526669547.70388007,26771787,0.0,0.9,0.0,7779.26708984,0.0,0.14,354.6,354.6,0.0,0.0
1526669547.80384016,26871747,0.0,0.86,0.0,7775.88232422,0.0,0.14,354.55,354.55,0.0,0.0
1526669547.90380025,26971707,0.0,0.82,0.0,7730.50488281,0.0,0.17,354.51,354.51,0.0,0.0
1526669548.00376010,27071667,0.0,0.79,0.0,7654.9453125,0.0,0.2,354.46,354.46,0.0,0.0
1526669548.10372019,27171627,0.0,0.77,0.0,7562.1015625,0.0,0.22,354.42,354.42,0.0,0.0
1526669548.20368004,27271587,0.0,0.73,0.0,7456.42480469,0.0,0.23,354.39,354.39,0.0,0.0
1526669548.30364013,27371547,0.0,0.7,0.0,7334.03027344,0.0,0.24,354.34,354.34,0.0,0.0
1526669548.40360022,27471507,0.0,0.68,0.0,7205.06396484,0.0,0.23,354.28,354.28,0.0,0.0
1526669548.50356007,27571467,0.0,0.69,0.0,7082.97119141,0.0,0.21,354.2,354.2,0.0,0.0
1526669548.60352015,27671427,0.0,0.71,0.0,6982.97851562,0.0,0.2,354.11,354.11,0.0,0.0
1526669548.70348024,27771387,0.0,0.75,0.0,6910.15527344,0.0,0.21,354.04,354.04,0.0,0.0
1526669548.80344009,27871347,0.0,0.77,0.0,6861.02197266,0.0,0.24,353.98,353.98,0.0,0.0
1526669548.90340018,27971307,0.0,0.78,0.0,6828.08105469,0.0,0.29,353.91,353.91,0.0,0.0
1526669549.00336003,28071267,0.0,0.81,0.0,6807.50390625,0.0,0.34,353.8,353.8,0.0,0.0
1526669549.10332012,28171227,0.0,0.83,0.0,6728.67480469,0.0,0.38,353.71,353.71,0.0,0.0
1526669549.20328021,28271187,0.0,0.85,0.0,6852.77490234,0.0,0.43,353.64,353.64,0.0,0.0
1526669549.30324006,28371147,0.0,0.88,0.0,7062.89990234,0.0,0.47,353.55,353.55,0.0,0.0
1526669549.40320015,28471107,0.0,0.91,0.0,7296.60644531,0.0,0.51,353.46,353.46,0.0,0.0
1526669550.35198712,29419894,0.0,1.04,0.0,8828.88671875,0.0,0.67,352.43,352.43,0.0,0.0
1526669550.45194721,29519854,0.0,1.07,0.0,8991.04785156,0.0,0.67,352.34,352.34,0.0,0.0
1526669550.55190706,29619814,0.0,1.1,0.0,9173.27636719,0.0,0.67,352.24,352.24,0.0,0.0
1526669550.65186715,29719774,0.0,1.14,0.0,9380.87304688,0.0,0.67,352.15,352.15,0.0,0.0
1526669550.75182724,29819734,0.0,1.16,0.0,9605.34375,0.0,0.67,352.02,352.02,0.0,0.0
1526669550.85178709,29919694,0.0,1.19,0.0,9840.40429688,0.0,0.69,351.91,351.91,0.0,0.0
1526669550.95174718,30019654,0.0,1.21,0.0,10082.9404297,0.0,0.7,351.78,351.78,0.0,0.0
1526669551.05170703,30119614,0.0,1.23,0.0,10322.7148438,0.0,0.71,351.65,351.65,0.0,0.0
1526669551.15166712,30219574,0.0,1.27,0.0,10577.3417969,0.0,0.71,351.53,351.53,0.0,0.0
1526669551.25162721,30319534,0.0,1.29,0.0,10841.3125,0.0,0.7,351.42,351.42,0.0,0.0
1526669551.35158706,30419494,0.0,1.3,0.0,11100.5107422,0.0,0.7,351.33,351.33,0.0,0.0
1526669551.45154715,30519454,0.0,1.3,0.0,11342.15625,0.0,0.68,351.23,351.23,0.0,0.0
1526669551.55150723,30619414,0.0,1.32,0.0,11574.6748047,0.0,0.67,351.13,351.13,0.0,0.0
1526669551.65146708,30719374,0.0,1.34,0.0,11814.4628906,0.0,0.67,351.04,351.04,0.0,0.0
1526669551.75142717,30819334,0.0,1.36,0.0,18205.0742188,0.0,0.67,350.98,350.98,0.0,0.0
1526669551.85138726,30919294,0.0,1.37,0.0,18401.7246094,0.0,0.67,350.93,350.93,0.0,0.0
1526669551.95134711,31019254,0.0,1.38,0.0,18588.3164062,0.0,0.7,350.9,350.9,0.0,0.0
1526669552.05130720,31119214,0.0,1.4,0.0,18768.0878906,0.0,0.72,350.87,350.87,0.0,0.0
1526669552.15126705,31219174,0.0,1.41,0.0,18954.140625,0.0,0.72,350.84,350.84,0.0,0.0
1526669552.25122714,31319134,0.0,1.43,0.0,19158.1992188,0.0,0.73,350.83,350.83,0.0,0.0
1526669552.35118723,31419094,0.0,1.44,0.0,19362.0742188,0.0,0.73,350.84,350.84,0.0,0.0
1526669552.45198011,31519887,0.0,1.45,0.0,19541.0410156,0.0,0.72,350.89,350.89,0.0,0.0
1526669552.55194020,31619847,0.0,1.44,0.0,19677.828125,0.0,0.69,350.95,350.95,0.0,0.0
1526669552.65190005,31719807,0.0,1.43,0.0,19754.9453125,0.0,0.65,350.99,350.99,0.0,0.0
1526669552.75186014,31819767,0.0,1.42,0.0,19812.2109375,0.0,0.65,351.05,351.05,0.0,0.0
1526669552.85182023,31919727,0.0,1.38,0.0,19798.7285156,0.0,0.65,351.12,351.12,0.0,0.0
1526669552.95178008,32019687,0.0,1.34,0.0,19696.5683594,0.0,0.66,351.19,351.19,0.0,0.0
1526669553.05174017,32119647,0.0,1.32,0.0,19538.9746094,0.0,0.67,351.25,351.25,0.0,0.0
1526669553.15170026,32219607,0.0,1.32,0.0,19397.9765625,0.0,0.67,351.34,351.34,0.0,0.0
1526669553.25166011,32319567,0.0,1.31,0.0,19269.2617188,0.0,0.67,351.44,351.44,0.0,0.0
1526669553.39993405,32467841,0.0,1.3,0.0,19135.6503906,0.0,0.65,351.6,351.6,0.0,0.0
1526669553.49989414,32567801,0.0,1.3,0.0,19011.4472656,0.0,0.64,351.71,351.71,0.0,0.0
1526669553.59985423,32667761,0.0,1.31,0.0,18908.2167969,0.0,0.62,351.8,351.8,0.0,0.0
1526669553.69981408,32767721,0.0,1.32,0.0,18823.4863281,0.0,0.61,351.89,351.89,0.0,0.0
1526669553.79977417,32867681,0.0,1.35,0.0,18770.4570312,0.0,0.61,351.98,351.98,0.0,0.0
1526669553.89973426,32967641,0.0,1.39,0.0,18769.2304688,0.0,0.59,352.08,352.08,0.0,0.0
1526669553.99969411,33067601,0.0,1.42,0.0,18808.4121094,0.0,0.58,352.18,352.18,0.0,0.0
1526669554.09965420,33167561,0.0,1.43,0.0,18868.4453125,0.0,0.56,352.25,352.25,0.0,0.0
1526669554.19961405,33267521,0.0,1.44,0.0,18932.4921875,0.0,0.55,352.32,352.32,0.0,0.0
1526669554.29957414,33367481,0.0,1.44,0.0,19001.8574219,0.0,0.55,352.4,352.4,0.0,0.0
1526669554.39953423,33467441,0.0,1.44,0.0,20736.0,0.0,0.54,352.51,352.51,0.0,0.0
1526669554.49949408,33567401,0.0,1.42,0.0,20610.6367188,0.0,0.53,352.64,352.64,0.0,0.0
1526669554.59945416,33667361,0.0,1.39,0.0,20341.9003906,0.0,0.5,352.76,352.76,0.0,0.0
1526669554.69941425,33767321,0.0,1.38,0.0,20036.46875,0.0,0.47,352.9,352.9,0.0,0.0
1526669554.79937410,33867281,0.0,1.37,0.0,19788.4746094,0.0,0.45,353.02,353.02,0.0,0.0
1526669554.89933419,33967241,0.0,1.37,0.0,19618.5625,0.0,0.41,353.15,353.15,0.0,0.0
1526669554.99929404,34067201,0.0,1.35,0.0,19469.9257812,0.0,0.36,353.28,353.28,0.0,0.0
1526669555.09925413,34167161,0.0,1.31,0.0,19265.828125,0.0,0.3,353.39,353.39,0.0,0.0
1526669555.19921422,34267121,0.0,1.29,0.0,18997.9785156,0.0,0.25,353.51,353.51,0.0,0.0
1526669555.29917407,34367081,0.0,1.27,0.0,18723.8359375,0.0,0.21,353.65,353.65,0.0,0.0
1526669555.39913416,34467041,0.0,1.27,0.0,18487.9414062,0.0,0.2,353.8,353.8,0.0,0.0
1526669555.49992704,34567834,0.0,1.26,0.0,18273.4414062,0.0,0.19,353.95,353.95,0.0,0.0
1526669555.59988713,34667794,0.0,1.27,0.0,18100.2128906,0.0,0.19,354.09,354.09,0.0,0.0
1526669555.69984722,34767754,0.0,1.26,0.0,17957.1542969,0.0,0.2,354.21,354.21,0.0,0.0
1526669555.79980707,34867714,0.0,1.26,0.0,17818.4101562,0.0,0.2,354.3,354.3,0.0,0.0
1526669555.89976716,34967674,0.0,1.27,0.0,17700.5664062,0.0,0.2,354.37,354.37,0.0,0.0
1526669555.99972725,35067634,0.0,1.28,0.0,17620.1210938,0.0,0.22,354.41,354.41,0.0,0.0
1526669556.09968710,35167594,0.0,1.28,0.0,17550.03125,0.0,0.21,354.43,354.43,0.0,0.0
1526669556.19964719,35267554,0.0,1.29,0.0,17492.0429688,0.0,0.21,354.43,354.43,0.0,0.0
1526669556.34792113,35415828,0.0,1.29,0.0,17449.4921875,0.0,0.24,354.42,354.42,0.0,0.0
1526669556.44788122,35515788,0.0,1.28,0.0,17406.7089844,0.0,0.26,354.44,354.44,0.0,0.0
1526669556.54784107,35615748,0.0,1.28,0.0,17360.2207031,0.0,0.27,354.47,354.47,0.0,0.0
1526669556.64780116,35715708,0.0,1.28,0.0,17317.7773438,0.0,0.3,354.51,354.51,0.0,0.0
1526669556.74776125,35815668,0.0,1.28,0.0,17278.8691406,0.0,0.34,354.56,354.56,0.0,0.0
1526669556.84772110,35915628,0.0,1.26,0.0,17236.1835938,0.0,0.38,354.61,354.61,0.0,0.0
1526669556.94768119,36015588,0.0,1.24,0.0,17177.0917969,0.0,0.41,354.67,354.67,0.0,0.0
1526669557.04764104,36115548,0.0,1.24,0.0,15432.0253906,0.0,0.43,354.72,354.72,0.0,0.0
1526669557.14760113,36215508,0.0,1.24,0.0,15404.0126953,0.0,0.45,354.77,354.77,0.0,0.0
1526669557.24756122,36315468,0.0,1.25,0.0,15434.0996094,0.0,0.44,354.82,354.82,0.0,0.0
1526669557.34752107,36415428,0.0,1.27,0.0,15571.4814453,0.0,0.42,354.86,354.86,0.0,0.0
1526669557.44748116,36515388,0.0,1.26,0.0,15674.1298828,0.0,0.43,354.89,354.89,0.0,0.0
1526669557.54744124,36615348,0.0,1.26,0.0,15707.7753906,0.0,0.45,354.92,354.92,0.0,0.0
1526669557.64740109,36715308,0.0,1.26,0.0,15731.8076172,0.0,0.43,354.94,354.94,0.0,0.0
1526669557.74736118,36815268,0.0,1.25,0.0,15720.8095703,0.0,0.4,354.95,354.95,0.0,0.0
1526669557.84732103,36915228,0.0,1.24,0.0,15684.5722656,0.0,0.38,354.97,354.97,0.0,0.0
1526669557.94728112,37015188,0.0,1.23,0.0,15643.8349609,0.0,0.36,354.99,354.99,0.0,0.0
1526669558.04724121,37115148,0.0,1.22,0.0,15576.4296875,0.0,0.35,354.99,354.99,0.0,0.0
1526669558.14720106,37215108,0.0,1.21,0.0,15513.6650391,0.0,0.33,354.98,354.98,0.0,0.0
1526669558.24716115,37315068,0.0,1.18,0.0,15424.3945312,0.0,0.32,354.99,354.99,0.0,0.0
1526669558.34712124,37415028,0.0,1.15,0.0,15286.75,0.0,0.32,354.98,354.98,0.0,0.0
1526669558.44791412,37515821,0.0,1.12,0.0,15129.1679688,0.0,0.34,354.97,354.97,0.0,0.0
1526669558.54787421,37615781,0.0,1.08,0.0,14935.1298828,0.0,0.35,354.97,354.97,0.0,0.0
1526669558.64783406,37715741,0.0,1.04,0.0,14713.8867188,0.0,0.35,354.96,354.96,0.0,0.0
1526669558.74779415,37815701,0.0,1.0,0.0,14469.4238281,0.0,0.35,354.96,354.96,0.0,0.0
1526669558.84775424,37915661,0.0,0.98,0.0,14220.8759766,0.0,0.34,354.96,354.96,0.0,0.0
1526669558.94771409,38015621,0.0,0.98,0.0,13990.0322266,0.0,0.31,354.94,354.94,0.0,0.0
1526669559.04767418,38115581,0.0,0.98,0.0,13781.1738281,0.0,0.3,354.9,354.9,0.0,0.0
1526669559.14763403,38215541,0.0,0.99,0.0,13600.2568359,0.0,0.27,354.88,354.88,0.0,0.0
1526669559.24759412,38315501,0.0,1.01,0.0,13442.6572266,0.0,0.24,354.87,354.87,0.0,0.0
1526669559.39586806,38463775,0.0,1.0,0.0,13309.2910156,0.0,0.2,354.85,354.85,0.0,0.0
1526669559.49582815,38563735,0.0,0.97,0.0,13164.4541016,0.0,0.2,354.87,354.87,0.0,0.0
1526669559.59578824,38663695,0.0,0.96,0.0,13019.0859375,0.0,0.18,354.88,354.88,0.0,0.0
1526669559.69574809,38763655,0.0,0.96,0.0,9216.0,0.0,0.16,354.93,354.93,0.0,0.0
1526669559.79570818,38863615,0.0,0.97,0.0,9254.59960938,0.0,0.12,354.96,354.96,0.0,0.0
1526669559.89566803,38963575,0.0,0.96,0.0,9278.72460938,0.0,0.07,355.0,355.0,0.0,0.0
1526669559.99562812,39063535,0.0,0.93,0.0,9185.875,0.0,0.02,355.05,355.05,0.0,0.0
1526669560.09558821,39163495,0.0,0.9,0.0,9012.38964844,0.0,-0.01,355.13,355.13,0.0,0.0
1526669560.19554806,39263455,0.0,0.87,0.0,8813.5625,0.0,-0.04,355.21,355.21,0.0,0.0
1526669560.29550815,39363415,0.0,0.86,0.0,8626.5,0.0,-0.05,355.29,355.29,0.0,0.0
1526669562.34385514,41411762,0.0,1.05,0.0,10904.8251953,0.0,0.0,356.5,356.5,0.0,0.0
1526669562.44381523,41511722,0.0,1.08,0.0,11078.8496094,0.0,0.0,356.51,356.51,0.0,0.0
1526669562.54377508,41611682,0.0,1.12,0.0,11419.6162109,0.0,0.01,356.51,356.51,0.0,0.0
1526669562.64373517,41711642,0.0,1.14,0.0,11741.5566406,0.0,0.02,356.51,356.51,0.0,0.0
1526669562.74369526,41811602,0.0,1.17,0.0,12042.9951172,0.0,0.02,356.47,356.47,0.0,0.0
1526669562.84365511,41911562,0.0,1.21,0.0,12398.2792969,0.0,0.01,356.43,356.43,0.0,0.0
1526669562.94361520,42011522,0.0,1.25,0.0,12798.2646484,0.0,-0.01,356.4,356.4,0.0,0.0
1526669563.04357505,42111482,0.0,1.28,0.0,13197.2753906,0.0,-0.02,356.37,356.37,0.0,0.0
1526669563.14353514,42211442,0.0,1.3,0.0,13577.1162109,0.0,-0.03,356.34,356.34,0.0,0.0
1526669563.24349523,42311402,0.0,1.31,0.0,13932.8945312,0.0,-0.02,356.31,356.31,0.0,0.0
1526669563.34345508,42411362,0.0,1.31,0.0,14223.9863281,0.0,-0.02,356.26,356.26,0.0,0.0
1526669563.44341516,42511322,0.0,1.31,0.0,14468.7373047,0.0,-0.01,356.22,356.22,0.0,0.0
1526669563.54337525,42611282,0.0,1.31,0.0,14675.8349609,0.0,0.01,356.16,356.16,0.0,0.0
1526669563.64333510,42711242,0.0,1.31,0.0,14853.3466797,0.0,0.03,356.09,356.09,0.0,0.0
1526669563.74329519,42811202,0.0,1.31,0.0,15007.1904297,0.0,0.04,356.03,356.03,0.0,0.0
1526669563.84325504,42911162,0.0,1.29,0.0,15125.9013672,0.0,0.03,355.97,355.97,0.0,0.0
1526669563.94321513,43011122,0.0,1.29,0.0,15215.0253906,0.0,0.01,355.94,355.94,0.0,0.0
1526669564.04317522,43111082,0.0,1.27,0.0,15277.8515625,0.0,0.0,355.89,355.89,0.0,0.0
1526669564.14313507,43211042,0.0,1.25,0.0,15313.3330078,0.0,0.0,355.82,355.82,0.0,0.0
1526669564.24309516,43311002,0.0,1.22,0.0,15312.7988281,0.0,0.0,355.72,355.72,0.0,0.0
1526669564.34305525,43410962,0.0,1.22,0.0,15292.3798828,0.0,0.0,355.62,355.62,0.0,0.0
1526669564.44384813,43511755,0.0,1.22,0.0,15273.8173828,0.0,0.0,355.53,355.53,0.0,0.0
1526669564.54380822,43611715,0.0,1.21,0.0,15252.3779297,0.0,0.0,355.44,355.44,0.0,0.0
1526669564.64376807,43711675,0.0,1.21,0.0,15226.9042969,0.0,-0.02,355.37,355.37,0.0,0.0
1526669564.74372816,43811635,0.0,1.22,0.0,15207.3564453,0.0,-0.05,355.33,355.33,0.0,0.0
1526669564.84368825,43911595,0.0,1.21,0.0,15191.8818359,0.0,-0.08,355.31,355.31,0.0,0.0
1526669564.94364810,44011555,0.0,1.18,0.0,14185.9501953,0.0,-0.08,355.3,355.3,0.0,0.0
1526669565.04360819,44111515,0.0,1.15,0.0,13873.5751953,0.0,-0.09,355.3,355.3,0.0,0.0
1526669565.14356804,44211475,0.0,1.13,0.0,13558.4501953,0.0,-0.09,355.28,355.28,0.0,0.0
1526669565.24352813,44311435,0.0,1.11,0.0,13295.1064453,0.0,-0.09,355.28,355.28,0.0,0.0
1526669565.39180207,44459709,0.0,1.09,0.0,13075.9951172,0.0,-0.11,355.28,355.28,0.0,0.0
1526669565.49176216,44559669,0.0,1.06,0.0,12839.9082031,0.0,-0.11,355.29,355.29,0.0,0.0
1526669565.59172225,44659629,0.0,1.03,0.0,12562.7998047,0.0,-0.1,355.27,355.27,0.0,0.0
1526669565.69168210,44759589,0.0,1.0,0.0,12280.984375,0.0,-0.11,355.23,355.23,0.0,0.0
1526669565.79164219,44859549,0.0,0.99,0.0,12009.8525391,0.0,-0.14,355.19,355.19,0.0,0.0
1526669565.89160204,44959509,0.0,0.98,0.0,11783.0576172,0.0,-0.16,355.15,355.15,0.0,0.0
1526669565.99156213,45059469,0.0,0.98,0.0,11584.9609375,0.0,-0.16,355.08,355.08,0.0,0.0
1526669566.09152222,45159429,0.0,0.99,0.0,11428.5,0.0,-0.14,355.0,355.0,0.0,0.0
1526669566.19148207,45259389,0.0,0.99,0.0,11296.109375,0.0,-0.15,354.91,354.91,0.0,0.0
1526669566.29144216,45359349,0.0,1.02,0.0,11211.8359375,0.0,-0.15,354.81,354.81,0.0,0.0
1526669566.39140224,45459309,0.0,1.05,0.0,11185.1445312,0.0,-0.15,354.69,354.69,0.0,0.0
1526669566.49136209,45559269,0.0,1.07,0.0,11188.3515625,0.0,-0.13,354.59,354.59,0.0,0.0
1526669566.59132218,45659229,0.0,1.07,0.0,11203.6835938,0.0,-0.11,354.47,354.47,0.0,0.0
1526669566.69128203,45759189,0.0,1.06,0.0,11205.7753906,0.0,-0.08,354.34,354.34,0.0,0.0
1526669566.79124212,45859149,0.0,1.05,0.0,11207.0878906,0.0,-0.08,354.22,354.22,0.0,0.0
1526669566.89120221,45959109,0.0,1.06,0.0,11203.2587891,0.0,-0.07,354.11,354.11,0.0,0.0
1526669566.99116206,46059069,0.0,1.08,0.0,11210.4082031,0.0,-0.05,354.05,354.05,0.0,0.0
1526669567.09112215,46159029,0.0,1.11,0.0,11244.3984375,0.0,-0.06,354.01,354.01,0.0,0.0
1526669567.19108224,46258989,0.0,1.13,0.0,11301.1699219,0.0,-0.04,353.96,353.96,0.0,0.0
1526669567.29104209,46358949,0.0,1.14,0.0,11363.7480469,0.0,-0.03,353.95,353.95,0.0,0.0
1526669567.39100218,46458909,0.0,1.14,0.0,11429.0380859,0.0,0.0,353.94,353.94,0.0,0.0
1526669567.49179506,46559702,0.0,1.11,0.0,11477.1308594,0.0,0.02,353.94,353.94,0.0,0.0
1526669567.59175515,46659662,0.0,1.11,0.0,12321.0,0.0,0.04,353.95,353.95,0.0,0.0
1526669567.69171524,46759622,0.0,1.13,0.0,12429.9628906,0.0,0.05,353.95,353.95,0.0,0.0
1526669567.79167509,46859582,0.0,1.17,0.0,12678.0664062,0.0,0.06,353.94,353.94,0.0,0.0
1526669567.89163518,46959542,0.0,1.2,0.0,13031.2626953,0.0,0.07,353.93,353.93,0.0,0.0
1526669567.99159503,47059502,0.0,1.22,0.0,13376.3046875,0.0,0.09,353.93,353.93,0.0,0.0
1526669568.09155512,47159462,0.0,1.21,0.0,13596.2001953,0.0,0.11,353.93,353.93,0.0,0.0
1526669568.19151521,47259422,0.0,1.2,0.0,13744.5966797,0.0,0.12,353.94,353.94,0.0,0.0
1526669568.33978915,47407696,0.0,1.2,0.0,13834.8066406,0.0,0.13,353.96,353.96,0.0,0.0
1526669568.43974924,47507656,0.0,1.17,0.0,13859.8974609,0.0,0.14,353.98,353.98,0.0,0.0
1526669568.53970909,47607616,0.0,1.14,0.0,13814.9677734,0.0,0.13,354.01,354.01,0.0,0.0
1526669568.63966918,47707576,0.0,1.11,0.0,13713.2822266,0.0,0.11,354.04,354.04,0.0,0.0
1526669568.73962903,47807536,0.0,1.08,0.0,13567.0537109,0.0,0.11,354.06,354.06,0.0,0.0
1526669568.83958912,47907496,0.0,1.05,0.0,13395.1386719,0.0,0.11,354.08,354.08,0.0,0.0
1526669568.93954921,48007456,0.0,1.04,0.0,13216.1396484,0.0,0.14,354.09,354.09,0.0,0.0
1526669569.03950906,48107416,0.0,1.06,0.0,13067.9902344,0.0,0.17,354.09,354.09,0.0,0.0
1526669569.13946915,48207376,0.0,1.07,0.0,12960.4794922,0.0,0.17,354.1,354.1,0.0,0.0
1526669569.23942924,48307336,0.0,1.1,0.0,12887.4394531,0.0,0.15,354.12,354.12,0.0,0.0
1526669569.33938909,48407296,0.0,1.11,0.0,12850.1386719,0.0,0.12,354.13,354.13,0.0,0.0
1526669569.43934917,48507256,0.0,1.12,0.0,12827.2773438,0.0,0.1,354.13,354.13,0.0,0.0
1526669569.53930902,48607216,0.0,1.09,0.0,12802.8349609,0.0,0.09,354.13,354.13,0.0,0.0
1526669569.63926911,48707176,0.0,1.04,0.0,12736.2109375,0.0,0.11,354.15,354.15,0.0,0.0
1526669569.73922920,48807136,0.0,1.0,0.0,12625.4140625,0.0,0.12,354.17,354.17,0.0,0.0
1526669569.83918905,48907096,0.0,1.0,0.0,12510.6162109,0.0,0.14,354.2,354.2,0.0,0.0
1526669569.93914914,49007056,0.0,1.01,0.0,12408.5195312,0.0,0.15,354.24,354.24,0.0,0.0
1526669570.03910923,49107016,0.0,1.01,0.0,12323.6699219,0.0,0.19,354.27,354.27,0.0,0.0
1526669570.13906908,49206976,0.0,1.0,0.0,12240.2890625,0.0,0.21,354.3,354.3,0.0,0.0
1526669570.23902917,49306936,0.0,0.96,0.0,9664.20019531,0.0,0.23,354.29,354.29,0.0,0.0
1526669570.33898926,49406896,0.0,0.94,0.0,9340.125,0.0,0.24,354.28,354.28,0.0,0.0
1526669570.43978214,49507689,0.0,0.93,0.0,9128.45019531,0.0,0.25,354.26,354.26,0.0,0.0
1526669570.53974223,49607649,0.0,0.91,0.0,8965.88085938,0.0,0.24,354.23,354.23,0.0,0.0
1526669570.63970208,49707609,0.0,0.88,0.0,8777.59960938,0.0,0.24,354.17,354.17,0.0,0.0
1526669570.73966217,49807569,0.0,0.84,0.0,8541.1875,0.0,0.24,354.09,354.09,0.0,0.0
1526669570.83962226,49907529,0.0,0.81,0.0,8289.30761719,0.0,0.23,354.01,354.01,0.0,0.0
1526669570.93958211,50007489,0.0,0.81,0.0,8073.26855469,0.0,0.24,353.91,353.91,0.0,0.0
1526669571.03954220,50107449,0.0,0.79,0.0,7879.84179688,0.0,0.25,353.84,353.84,0.0,0.0
1526669571.13950205,50207409,0.0,0.76,0.0,7693.35742188,0.0,0.27,353.77,353.77,0.0,0.0
1526669571.23946214,50307369,0.0,0.73,0.0,7497.25244141,0.0,0.3,353.72,353.72,0.0,0.0
1526669571.38773608,50455643,0.0,0.71,0.0,7299.44189453,0.0,0.34,353.63,353.63,0.0,0.0
1526669571.48769617,50555603,0.0,0.71,0.0,7125.71533203,0.0,0.35,353.54,353.54,0.0,0.0
1526669574.33572316,53403630,0.0,0.56,0.0,2831.41992188,0.0,0.37,353.17,353.17,0.0,0.0
1526669574.43568325,53503590,0.0,0.57,0.0,2851.33911133,0.0,0.37,353.13,353.13,0.0,0.0
1526669574.53564310,53603550,0.0,0.58,0.0,2874.89990234,0.0,0.38,353.07,353.07,0.0,0.0
1526669574.63560319,53703510,0.0,0.58,0.0,2902.07226562,0.0,0.38,353.01,353.01,0.0,0.0
1526669574.73556304,53803470,0.0,0.6,0.0,2931.79614258,0.0,0.39,352.94,352.94,0.0,0.0
1526669574.83552313,53903430,0.0,0.61,0.0,2970.5,0.0,0.42,352.86,352.86,0.0,0.0
1526669574.93548322,54003390,0.0,0.62,0.0,3011.36303711,0.0,0.43,352.8,352.8,0.0,0.0
1526669575.03544307,54103350,0.0,0.63,0.0,3054.18188477,0.0,0.45,352.75,352.75,0.0,0.0
1526669575.13540316,54203310,0.0,0.61,0.0,3091.37939453,0.0,0.45,352.72,352.72,0.0,0.0
1526669575.23536325,54303270,0.0,0.59,0.0,3113.58862305,0.0,0.43,352.72,352.72,0.0,0.0
1526669575.33532310,54403230,0.0,0.57,0.0,3123.86303711,0.0,0.43,352.72,352.72,0.0,0.0
1526669575.43528318,54503190,0.0,0.58,0.0,3131.7722168,0.0,0.43,352.73,352.73,0.0,0.0
1526669575.53524303,54603150,0.0,0.58,0.0,3364.0,0.0,0.42,352.76,352.76,0.0,0.0
1526669575.63520312,54703110,0.0,0.58,0.0,3364.0,0.0,0.42,352.8,352.8,0.0,0.0
1526669575.73516321,54803070,0.0,0.6,0.0,3413.94165039,0.0,0.43,352.85,352.85,0.0,0.0
1526669575.83512306,54903030,0.0,0.63,0.0,3494.6875,0.0,0.45,352.9,352.9,0.0,0.0
1526669575.93508315,55002990,0.0,0.68,0.0,3646.39990234,0.0,0.47,352.95,352.95,0.0,0.0
1526669576.03504324,55102950,0.0,0.73,0.0,3862.67504883,0.0,0.48,352.99,352.99,0.0,0.0
1526669576.13500309,55202910,0.0,0.77,0.0,4113.59277344,0.0,0.46,353.03,353.03,0.0,0.0
1526669576.23496318,55302870,0.0,0.76,0.0,4340.04052734,0.0,0.45,353.07,353.07,0.0,0.0
1526669576.33492303,55402830,0.0,0.79,0.0,4521.40576172,0.0,0.45,353.12,353.12,0.0,0.0
1526669576.43571615,55503623,0.0,0.85,0.0,4741.95996094,0.0,0.39,353.16,353.16,0.0,0.0
1526669576.53567624,55603583,0.0,0.88,0.0,4992.75439453,0.0,0.36,353.18,353.18,0.0,0.0
1526669576.63563609,55703543,0.0,0.91,0.0,5251.02099609,0.0,0.35,353.21,353.21,0.0,0.0
1526669576.73559618,55803503,0.0,0.93,0.0,5503.86523438,0.0,0.36,353.25,353.25,0.0,0.0
1526669576.83555603,55903463,0.0,0.94,0.0,5733.86083984,0.0,0.37,353.28,353.28,0.0,0.0
1526669576.93551612,56003423,0.0,0.94,0.0,5940.66992188,0.0,0.37,353.28,353.28,0.0,0.0
1526669577.03547621,56103383,0.0,0.95,0.0,6126.94384766,0.0,0.39,353.29,353.29,0.0,0.0
1526669577.13543606,56203343,0.0,0.96,0.0,6303.87792969,0.0,0.4,353.29,353.29,0.0,0.0
1526669577.23539615,56303303,0.0,0.96,0.0,6465.66259766,0.0,0.42,353.29,353.29,0.0,0.0
1526669577.38367009,56451577,0.0,0.94,0.0,6599.40917969,0.0,0.45,353.23,353.23,0.0,0.0
1526669577.48363018,56551537,0.0,0.92,0.0,6700.50146484,0.0,0.46,353.19,353.19,0.0,0.0
1526669577.58359003,56651497,0.0,0.9,0.0,6774.71191406,0.0,0.47,353.17,353.17,0.0,0.0
1526669577.68355012,56751457,0.0,0.9,0.0,6834.95214844,0.0,0.48,353.17,353.17,0.0,0.0
1526669577.78351021,56851417,0.0,0.91,0.0,6891.72509766,0.0,0.5,353.16,353.16,0.0,0.0
1526669577.88347006,56951377,0.0,0.94,0.0,6958.22509766,0.0,0.51,353.14,353.14,0.0,0.0
1526669577.98343015,57051337,0.0,0.96,0.0,7040.54003906,0.0,0.53,353.13,353.13,0.0,0.0
1526669578.08339024,57151297,0.0,0.97,0.0,7129.40771484,0.0,0.55,353.1,353.1,0.0,0.0
1526669578.18335009,57251257,0.0,0.96,0.0,9355.92480469,0.0,0.56,353.11,353.11,0.0,0.0
1526669578.28331017,57351217,0.0,0.94,0.0,9212.125,0.0,0.57,353.13,353.13,0.0,0.0
1526669578.38327003,57451177,0.0,0.91,0.0,8990.73339844,0.0,0.58,353.17,353.17,0.0,0.0
1526669578.48323011,57551137,0.0,0.86,0.0,8688.47460938,0.0,0.59,353.22,353.22,0.0,0.0
1526669578.58319020,57651097,0.0,0.81,0.0,8335.62011719,0.0,0.62,353.26,353.26,0.0,0.0
1526669578.68315005,57751057,0.0,0.79,0.0,8012.45410156,0.0,0.63,353.31,353.31,0.0,0.0
1526669578.78311014,57851017,0.0,0.79,0.0,7759.38916016,0.0,0.65,353.39,353.39,0.0,0.0
1526669578.88307023,57950977,0.0,0.78,0.0,7554.87207031,0.0,0.65,353.5,353.5,0.0,0.0
1526669578.98303008,58050937,0.0,0.78,0.0,7391.44189453,0.0,0.64,353.58,353.58,0.0,0.0
1526669579.08299017,58150897,0.0,0.81,0.0,7287.59228516,0.0,0.62,353.69,353.69,0.0,0.0
1526669579.18295026,58250857,0.0,0.84,0.0,7247.66113281,0.0,0.59,353.81,353.81,0.0,0.0
1526669579.28291011,58350817,0.0,0.85,0.0,7238.73144531,0.0,0.57,353.92,353.92,0.0,0.0
1526669579.38287020,58450777,0.0,0.86,0.0,7249.18457031,0.0,0.57,354.03,354.03,0.0,0.07
1526669579.48366308,58551570,0.0,0.85,0.0,7253.86962891,0.0,0.59,354.12,354.12,0.0,0.08
1526669579.58362317,58651530,0.0,0.84,0.0,7244.05810547,0.0,0.6,354.23,354.23,0.0,0.0
1526669579.68358326,58751490,0.0,0.83,0.0,7222.12792969,0.0,0.63,354.33,354.33,0.0,0.0
1526669579.78354311,58851450,0.0,0.82,0.0,7196.46630859,0.0,0.63,354.38,354.38,0.0,0.0
1526669579.88350320,58951410,0.0,0.83,0.0,7179.15576172,0.0,0.63,354.42,354.42,0.0,0.0
1526669579.98346305,59051370,0.0,0.83,0.0,7163.88427734,0.0,0.62,354.45,354.45,0.0,0.0
1526669580.08342314,59151330,0.0,0.8,0.0,7142.55371094,0.0,0.6,354.47,354.47,0.0,0.0
1526669580.18338323,59251290,0.0,0.79,0.0,7101.70458984,0.0,0.56,354.47,354.47,0.0,0.0
1526669580.33165717,59399564,0.0,0.75,0.0,7052.11914062,0.0,0.54,354.47,354.47,0.0,0.0
1526669580.43161726,59499524,0.0,0.75,0.0,6986.02197266,0.0,0.55,354.46,354.46,0.0,0.0
1526669580.53157711,59599484,0.0,0.76,0.0,6932.30126953,0.0,0.58,354.46,354.46,0.0,0.0
1526669580.63153720,59699444,0.0,0.78,0.0,6892.48095703,0.0,0.6,354.47,354.47,0.0,0.0
1526669580.73149705,59799404,0.0,0.78,0.0,6861.38574219,0.0,0.64,354.49,354.49,0.0,0.0
1526669580.83145714,59899364,0.0,0.78,0.0,6084.0,0.0,0.67,354.49,354.49,0.0,0.0
1526669580.93141723,59999324,0.0,0.76,0.0,6027.91259766,0.0,0.69,354.48,354.48,0.0,0.0
1526669581.03137708,60099284,0.0,0.76,0.0,5943.94189453,0.0,0.7,354.45,354.45,0.0,0.0
1526669581.13133717,60199244,0.0,0.77,0.0,5928.73144531,0.0,0.69,354.44,354.44,0.0,0.0
1526669581.23129725,60299204,0.0,0.8,0.0,5980.34521484,0.0,0.67,354.47,354.47,0.0,0.0
1526669581.33125710,60399164,0.0,0.84,0.0,6107.21240234,0.0,0.64,354.5,354.5,0.0,0.0
1526669581.43121719,60499124,0.0,0.86,0.0,6270.625,0.0,0.62,354.52,354.52,0.0,0.0
1526669581.53117704,60599084,0.0,0.88,0.0,6431.35009766,0.0,0.61,354.53,354.53,0.0,0.0
1526669581.63113713,60699044,0.0,0.87,0.0,6570.39453125,0.0,0.6,354.52,354.52,0.0,0.0
1526669581.73109722,60799004,0.0,0.84,0.0,6642.34765625,0.0,0.59,354.5,354.5,0.0,0.0
1526669581.83105707,60898964,0.0,0.81,0.0,6653.20458984,0.0,0.58,354.49,354.49,0.0,0.0
1526669581.93101716,60998924,0.0,0.78,0.0,6627.49560547,0.0,0.56,354.48,354.48,0.0,0.0
1526669582.03097725,61098884,0.0,0.76,0.0,6574.09814453,0.0,0.57,354.47,354.47,0.0,0.0
1526669582.13093710,61198844,0.0,0.75,0.0,6511.96777344,0.0,0.58,354.45,354.45,0.0,0.0
1526669582.23089719,61298804,0.0,0.74,0.0,6448.86328125,0.0,0.59,354.43,354.43,0.0,0.0
1526669582.33085704,61398764,0.0,0.73,0.0,6383.92480469,0.0,0.6,354.39,354.39,0.0,0.0
1526669582.43165016,61499557,0.0,0.72,0.0,6314.62060547,0.0,0.6,354.32,354.32,0.0,0.0
1526669582.53161025,61599517,0.0,0.72,0.0,6251.80810547,0.0,0.61,354.23,354.23,0.0,0.0
1526669582.63157010,61699477,0.0,0.72,0.0,6195.60791016,0.0,0.6,354.13,354.13,0.0,0.0
1526669582.73153019,61799437,0.0,0.72,0.0,6145.02734375,0.0,0.6,354.02,354.02,0.0,0.0
1526669582.83149004,61899397,0.0,0.71,0.0,6094.49755859,0.0,0.59,353.91,353.91,0.0,0.0
1526669582.93145013,61999357,0.0,0.7,0.0,6041.64453125,0.0,0.59,353.78,353.78,0.0,0.0
1526669583.03141022,62099317,0.0,0.69,0.0,5990.34570312,0.0,0.56,353.66,353.66,0.0,0.0
1526669583.13137007,62199277,0.0,0.7,0.0,5941.43945312,0.0,0.54,353.54,353.54,0.0,0.0
1526669583.23133016,62299237,0.0,0.7,0.0,5899.78222656,0.0,0.53,353.42,353.42,0.0,0.0
1526669583.37960410,62447511,0.0,0.7,0.0,5861.32861328,0.0,0.53,353.27,353.27,0.0,0.0
1526669583.47956419,62547471,0.0,0.71,0.0,4988.125,0.0,0.51,353.19,353.19,0.0,0.0
1526669583.57952404,62647431,0.0,0.71,0.0,4995.17480469,0.0,0.5,353.1,353.1,0.0,0.0
1526669583.67948413,62747391,0.0,0.72,0.0,5035.47509766,0.0,0.5,353.03,353.03,0.0,0.0
1526669586.32759118,65395498,0.0,1.13,0.0,11867.3496094,0.0,0.36,350.22,350.22,0.0,0.0
1526669586.42755103,65495458,0.0,1.14,0.0,12105.53125,0.0,0.38,350.15,350.15,0.0,0.0
1526669586.52751112,65595418,0.0,1.14,0.0,12273.4101562,0.0,0.4,350.07,350.07,0.0,0.0
1526669586.62747121,65695378,0.0,1.13,0.0,12368.3037109,0.0,0.41,350.01,350.01,0.0,0.0
1526669586.72743106,65795338,0.0,1.11,0.0,12385.453125,0.0,0.4,349.95,349.95,0.0,0.0
1526669586.82739115,65895298,0.0,1.1,0.0,12362.8935547,0.0,0.41,349.88,349.88,0.0,0.0
1526669586.92735124,65995258,0.0,1.11,0.0,12336.7529297,0.0,0.4,349.79,349.79,0.0,0.0
1526669587.02731109,66095218,0.0,1.11,0.0,12335.1777344,0.0,0.38,349.72,349.72,0.0,0.0
1526669587.12727118,66195178,0.0,1.1,0.0,12326.8564453,0.0,0.36,349.66,349.66,0.0,0.0
1526669587.22723103,66295138,0.0,1.09,0.0,12298.8271484,0.0,0.35,349.59,349.59,0.0,0.0
1526669587.32719111,66395098,0.0,1.06,0.0,12237.6484375,0.0,0.35,349.53,349.53,0.0,0.0
1526669587.42715120,66495058,0.0,1.05,0.0,12152.9140625,0.0,0.37,349.46,349.46,0.0,0.0
1526669587.52711105,66595018,0.0,1.06,0.0,12088.9736328,0.0,0.36,349.39,349.39,0.0,0.0
1526669587.62707114,66694978,0.0,1.06,0.0,12035.6621094,0.0,0.36,349.35,349.35,0.0,0.0
1526669587.72703123,66794938,0.0,1.03,0.0,11967.9365234,0.0,0.38,349.3,349.3,0.0,0.0
1526669587.82699108,66894898,0.0,1.01,0.0,11877.1181641,0.0,0.39,349.25,349.25,0.0,0.0
1526669587.92695117,66994858,0.0,0.99,0.0,11775.1826172,0.0,0.39,349.21,349.21,0.0,0.0
1526669588.02691126,67094818,0.0,0.98,0.0,11671.0566406,0.0,0.39,349.18,349.18,0.0,0.0
1526669588.12687111,67194778,0.0,0.97,0.0,11568.6787109,0.0,0.37,349.15,349.15,0.0,0.0
1526669588.22683120,67294738,0.0,0.95,0.0,11458.4873047,0.0,0.36,349.14,349.14,0.0,0.0
1526669588.32679105,67394698,0.0,0.96,0.0,11354.1367188,0.0,0.35,349.15,349.15,0.0,0.0
1526669588.42758417,67495491,0.0,0.96,0.0,11265.0478516,0.0,0.34,349.16,349.16,0.0,0.0
1526669588.52754426,67595451,0.0,0.94,0.0,11174.7001953,0.0,0.31,349.16,349.16,0.0,0.0
1526669588.62750411,67695411,0.0,0.95,0.0,11087.6572266,0.0,0.28,349.15,349.15,0.0,0.0
1526669588.72746420,67795371,0.0,0.95,0.0,9025.0,0.0,0.24,349.13,349.13,0.0,0.0
1526669588.82742405,67895331,0.0,0.95,0.0,9025.0,0.0,0.19,349.13,349.13,0.0,0.0
1526669588.92738414,67995291,0.0,0.94,0.0,8990.34960938,0.0,0.14,349.1,349.1,0.0,0.0
1526669589.02734423,68095251,0.0,0.93,0.0,8922.54394531,0.0,0.12,349.07,349.07,0.0,0.0
1526669589.12730408,68195211,0.0,0.91,0.0,8829.09472656,0.0,0.12,349.05,349.05,0.0,0.0
1526669589.22726417,68295171,0.0,0.9,0.0,8712.85839844,0.0,0.12,349.04,349.04,0.0,0.0
1526669589.37553811,68443445,0.0,0.92,0.0,8641.48925781,0.0,0.12,349.03,349.03,0.0,0.0
1526669589.47549820,68543405,0.0,0.91,0.0,8602.71875,0.0,0.11,349.06,349.06,0.0,0.0
1526669589.57545805,68643365,0.0,0.89,0.0,8542.41992188,0.0,0.12,349.06,349.06,0.0,0.0
1526669589.67541814,68743325,0.0,0.88,0.0,8475.41015625,0.0,0.11,349.04,349.04,0.0,0.0
1526669589.77537823,68843285,0.0,0.86,0.0,8387.13378906,0.0,0.13,349.0,349.0,0.0,0.0
1526669589.87533808,68943245,0.0,0.86,0.0,8297.41503906,0.0,0.15,348.96,348.96,0.0,0.0
1526669589.97529817,69043205,0.0,0.86,0.0,8228.07519531,0.0,0.16,348.91,348.91,0.0,0.0
1526669590.07525826,69143165,0.0,0.85,0.0,8166.50341797,0.0,0.18,348.86,348.86,0.0,0.0
1526669590.17521811,69243125,0.0,0.83,0.0,8094.46826172,0.0,0.2,348.83,348.83,0.0,0.0
1526669590.27517819,69343085,0.0,0.84,0.0,8021.21386719,0.0,0.19,348.82,348.82,0.0,0.0
1526669590.37513804,69443045,0.0,0.85,0.0,7971.39550781,0.0,0.18,348.8,348.8,0.0,0.0
1526669590.47509813,69543005,0.0,0.84,0.0,7925.93896484,0.0,0.16,348.79,348.79,0.0,0.0
1526669590.57505822,69642965,0.0,0.83,0.0,7879.71337891,0.0,0.12,348.77,348.77,0.0,0.0
1526669590.67501807,69742925,0.0,0.82,0.0,7827.49609375,0.0,0.08,348.75,348.75,0.0,0.0
1526669590.77497816,69842885,0.0,0.8,0.0,7769.91064453,0.0,0.04,348.7,348.7,0.0,0.0
1526669590.87493825,69942845,0.0,0.79,0.0,7705.29296875,0.0,0.03,348.65,348.65,0.0,0.0
1526669590.97489810,70042805,0.0,0.77,0.0,7634.32080078,0.0,0.02,348.59,348.59,0.0,0.0
1526669591.07485819,70142765,0.0,0.74,0.0,7550.63427734,0.0,0.01,348.54,348.54,0.0,0.0
1526669591.17481804,70242725,0.0,0.7,0.0,7455.29394531,0.0,0.0,348.51,348.51,0.0,0.0
1526669591.27477813,70342685,0.0,0.67,0.0,7349.18554688,0.0,-0.02,348.5,348.5,0.0,0.0
1526669591.37473822,70442645,0.0,0.65,0.0,4419.22509766,0.0,-0.02,348.48,348.48,0.0,0.0
1526669591.47553110,70543438,0.0,0.64,0.0,4283.41259766,0.0,-0.02,348.45,348.45,0.0,0.0
1526669591.57549119,70643398,0.0,0.64,0.0,4220.94189453,0.0,-0.02,348.42,348.42,0.0,0.0
1526669591.67545104,70743358,0.0,0.67,0.0,4233.60644531,0.0,-0.03,348.43,348.43,0.0,0.0
1526669591.77541113,70843318,0.0,0.7,0.0,4322.02001953,0.0,-0.05,348.45,348.45,0.0,0.0
1526669591.87537122,70943278,0.0,0.72,0.0,4438.95410156,0.0,-0.07,348.48,348.48,0.0,0.0
1526669591.97533107,71043238,0.0,0.74,0.0,4558.37158203,0.0,-0.08,348.47,348.47,0.0,0.0
1526669592.07529116,71143198,0.0,0.74,0.0,4673.07519531,0.0,-0.08,348.45,348.45,0.0,0.0
1526669592.17525125,71243158,0.0,0.7,0.0,4735.61132812,0.0,-0.07,348.39,348.39,0.0,0.0
1526669592.32352519,71391432,0.0,0.67,0.0,4736.16015625,0.0,-0.07,348.21,348.21,0.0,0.0
1526669592.42348504,71491392,0.0,0.64,0.0,4697.79296875,0.0,-0.09,348.12,348.12,0.0,0.0
1526669592.52344513,71591352,0.0,0.63,0.0,4639.70605469,0.0,-0.12,348.0,348.0,0.0,0.0
1526669592.62340522,71691312,0.0,0.61,0.0,4575.66357422,0.0,-0.17,347.86,347.86,0.0,0.0
1526669592.72336507,71791272,0.0,0.59,0.0,4506.64306641,0.0,-0.22,347.74,347.74,0.0,0.0
1526669592.82332516,71891232,0.0,0.58,0.0,4433.39160156,0.0,-0.25,347.61,347.61,0.0,0.0
1526669592.92328525,71991192,0.0,0.58,0.0,4365.296875,0.0,-0.26,347.52,347.52,0.0,0.0
1526669593.02324510,72091152,0.0,0.59,0.0,4310.18212891,0.0,-0.27,347.45,347.45,0.0,0.0
1526669593.12320518,72191112,0.0,0.57,0.0,4257.80957031,0.0,-0.28,347.41,347.41,0.0,0.0
1526669593.22316504,72291072,0.0,0.56,0.0,4200.70019531,0.0,-0.29,347.39,347.39,0.0,0.0
1526669593.32312512,72391032,0.0,0.55,0.0,4145.93896484,0.0,-0.29,347.35,347.35,0.0,0.0
1526669593.42308521,72490992,0.0,0.54,0.0,4092.04174805,0.0,-0.31,347.31,347.31,0.0,0.0
1526669593.52304506,72590952,0.0,0.51,0.0,4033.64306641,0.0,-0.33,347.25,347.25,0.0,0.0
1526669593.62300515,72690912,0.0,0.48,0.0,3964.85229492,0.0,-0.34,347.19,347.19,0.0,0.0
1526669593.72296524,72790872,0.0,0.43,0.0,3885.30517578,0.0,-0.32,347.12,347.12,0.0,0.0
1526669593.82292509,72890832,0.0,0.39,0.0,3797.52709961,0.0,-0.32,347.06,347.06,0.0,0.0
1526669593.92288518,72990792,0.0,0.35,0.0,3703.3125,0.0,-0.32,347.02,347.02,0.0,0.06
1526669594.02284503,73090752,0.0,0.34,0.0,1178.42504883,0.0,-0.32,347.0,347.0,0.0,0.07
1526669594.12280512,73190712,0.0,0.37,0.0,1206.44995117,0.0,-0.34,346.98,346.98,0.0,0.07
1526669594.22276521,73290672,0.0,0.4,0.0,1295.49169922,0.0,-0.36,346.96,346.96,0.0,0.07
1526669594.32272506,73390632,0.0,0.43,0.0,1399.24377441,0.0,-0.36,346.9,346.9,0.0,0.07
1526669594.42351818,73491425,0.0,0.45,0.0,1505.40002441,0.0,-0.37,346.8,346.8,0.0,0.06
1526669594.52347803,73591385,0.0,0.48,0.0,1616.95422363,0.0,-0.4,346.69,346.69,0.0,0.01
1526669594.62343812,73691345,0.0,0.48,0.0,1715.10351562,0.0,-0.42,346.56,346.56,0.0,0.0
1526669594.72339821,73791305,0.0,0.48,0.0,1788.71557617,0.0,-0.43,346.44,346.44,0.0,0.0
1526669594.82335806,73891265,0.0,0.46,0.0,1834.94165039,0.0,-0.43,346.33,346.33,0.0,0.0
1526669594.92331815,73991225,0.0,0.45,0.0,1855.76745605,0.0,-0.44,346.22,346.22,0.0,0.0
1526669595.02327824,74091185,0.0,0.44,0.0,1865.08410645,0.0,-0.46,346.11,346.11,0.0,0.0
1526669595.12323809,74191145,0.0,0.42,0.0,1860.73327637,0.0,-0.45,346.0,346.0,0.0,0.0
1526669595.22319818,74291105,0.0,0.39,0.0,1845.22119141,0.0,-0.43,345.89,345.89,0.0,0.0
1526669595.37147212,74439379,0.0,0.38,0.0,1817.25,0.0,-0.4,345.75,345.75,0.0,0.0
1526669595.47143221,74539339,0.0,0.38,0.0,1792.36669922,0.0,-0.39,345.68,345.68,0.0,0.0
1526669595.57139206,74639299,0.0,0.36,0.0,1766.17810059,0.0,-0.4,345.61,345.61,0.0,0.0
1526669595.67135215,74739259,0.0,0.33,0.0,1730.5411377,0.0,-0.4,345.55,345.55,0.0,0.0
1526669595.77131224,74839219,0.0,0.31,0.0,1689.71386719,0.0,-0.39,345.5,345.5,0.0,0.0
1526669595.87127209,74939179,0.0,0.3,0.0,1649.59472656,0.0,-0.4,345.45,345.45,0.0,0.0
1526669598.31945920,77387366,0.0,0.54,0.0,2490.82348633,0.0,-0.34,344.45,344.45,0.0,0.0
1526669598.41941905,77487326,0.0,0.55,0.0,2517.47216797,0.0,-0.32,344.44,344.44,0.0,0.0
1526669598.51937914,77587286,0.0,0.55,0.0,2544.18432617,0.0,-0.3,344.44,344.44,0.0,0.0
1526669598.61933923,77687246,0.0,0.54,0.0,2564.54614258,0.0,-0.28,344.46,344.46,0.0,0.0
1526669598.71929908,77787206,0.0,0.51,0.0,2573.57861328,0.0,-0.27,344.49,344.49,0.0,0.0
1526669598.81925917,77887166,0.0,0.49,0.0,2569.35229492,0.0,-0.23,344.5,344.5,0.0,0.0
1526669598.91921926,77987126,0.0,0.47,0.0,2558.13598633,0.0,-0.21,344.48,344.48,0.0,0.0
1526669599.01917911,78087086,0.0,0.46,0.0,2541.55419922,0.0,-0.18,344.48,344.48,0.0,0.0
1526669599.11913919,78187046,0.0,0.46,0.0,2524.53198242,0.0,-0.15,344.5,344.5,0.0,0.0
1526669599.21909904,78287006,0.0,0.45,0.0,2506.28173828,0.0,-0.14,344.5,344.5,0.0,0.0
1526669599.31905913,78386966,0.0,0.45,0.0,2025.0,0.0,-0.14,344.52,344.52,0.0,0.0
1526669599.41901922,78486926,0.0,0.43,0.0,1986.11254883,0.0,-0.12,344.54,344.54,0.0,0.0
1526669599.51897907,78586886,0.0,0.4,0.0,1906.77502441,0.0,-0.1,344.54,344.54,0.0,0.0
1526669599.61893916,78686846,0.0,0.37,0.0,1803.27502441,0.0,-0.08,344.54,344.54,0.0,0.0
1526669599.71889925,78786806,0.0,0.35,0.0,1701.22998047,0.0,-0.08,344.49,344.49,0.0,0.0
1526669599.81885910,78886766,0.0,0.33,0.0,1612.99584961,0.0,-0.08,344.45,344.45,0.0,0.0
1526669599.91881919,78986726,0.0,0.31,0.0,1525.51428223,0.0,-0.09,344.4,344.4,0.0,0.0
1526669600.01877904,79086686,0.0,0.3,0.0,1452.09057617,0.0,-0.08,344.35,344.35,0.0,0.0
1526669600.11873913,79186646,0.0,0.3,0.0,1390.74719238,0.0,-0.07,344.31,344.31,0.0,0.0
1526669600.21869922,79286606,0.0,0.3,0.0,1341.67248535,0.0,-0.06,344.26,344.26,0.0,0.0
1526669600.31865907,79386566,0.0,0.32,0.0,1309.36132812,0.0,-0.07,344.19,344.19,0.0,0.0
1526669600.41945219,79487359,0.0,0.34,0.0,1292.82922363,0.0,-0.11,344.14,344.14,0.0,0.0
1526669600.51941204,79587319,0.0,0.33,0.0,1280.62890625,0.0,-0.15,344.08,344.08,0.0,0.0
1526669600.61937213,79687279,0.0,0.31,0.0,1262.21069336,0.0,-0.21,344.01,344.01,0.0,0.0
1526669600.71933222,79787239,0.0,0.29,0.0,1237.99829102,0.0,-0.23,343.94,343.94,0.0,0.0
1526669600.81929207,79887199,0.0,0.28,0.0,1212.74060059,0.0,-0.22,343.9,343.9,0.0,0.0
1526669600.91925216,79987159,0.0,0.27,0.0,1186.14562988,0.0,-0.22,343.84,343.84,0.0,0.0
1526669601.01921225,80087119,0.0,0.26,0.0,1157.80419922,0.0,-0.24,343.76,343.76,0.0,0.0
1526669601.11917210,80187079,0.0,0.25,0.0,1130.03027344,0.0,-0.26,343.7,343.7,0.0,0.0
1526669601.21913218,80287039,0.0,0.28,0.0,1109.33874512,0.0,-0.26,343.65,343.65,0.0,0.0
1526669601.36740613,80435313,0.0,0.31,0.0,1099.63098145,0.0,-0.25,343.58,343.58,0.0,0.0
1526669601.46736622,80535273,0.0,0.33,0.0,1096.1307373,0.0,-0.27,343.54,343.54,0.0,0.0
1526669601.56732607,80635233,0.0,0.36,0.0,1099.44567871,0.0,-0.31,343.51,343.51,0.0,0.0
1526669601.66728616,80735193,0.0,0.37,0.0,1109.84057617,0.0,-0.38,343.48,343.48,0.0,0.0
1526669601.76724625,80835153,0.0,0.36,0.0,1117.87097168,0.0,-0.45,343.48,343.48,0.0,0.0
1526669601.86720610,80935113,0.0,0.34,0.0,1121.74328613,0.0,-0.51,343.47,343.47,0.0,0.0
1526669601.96716619,81035073,0.0,0.33,0.0,1092.34997559,0.0,-0.58,343.46,343.46,0.0,0.0
1526669602.06712604,81135033,0.0,0.32,0.0,1072.80004883,0.0,-0.61,343.46,343.46,0.0,0.0
1526669602.16708612,81234993,0.0,0.29,0.0,1023.54998779,0.0,-0.62,343.46,343.46,0.0,0.0
1526669602.26704621,81334953,0.0,0.24,0.0,942.275024414,0.0,-0.64,343.45,343.45,0.0,0.0
1526669602.36700606,81434913,0.0,0.21,0.0,855.075012207,0.0,-0.64,343.44,343.44,0.0,0.0
1526669602.46696615,81534873,0.0,0.18,0.0,774.787475586,0.0,-0.64,343.4,343.4,0.0,0.0
1526669602.56692624,81634833,0.0,0.15,0.0,703.714294434,0.0,-0.63,343.33,343.33,0.0,0.0
1526669602.66688609,81734793,0.0,0.11,0.0,636.931274414,0.0,-0.62,343.29,343.29,0.0,0.0
1526669602.76684618,81834753,0.0,0.06,0.0,574.219421387,0.0,-0.62,343.24,343.24,0.0,0.0
1526669602.86680603,81934713,0.0,0.04,0.0,519.412475586,0.0,-0.62,343.21,343.21,0.0,0.0
1526669602.96676612,82034673,0.0,0.04,0.0,473.647735596,0.0,-0.61,343.19,343.19,0.0,0.0
1526669603.06672621,82134633,0.0,0.0,0.0,434.645843506,0.0,-0.61,343.19,343.19,0.0,0.0
1526669603.16668606,82234593,0.0,-0.04,0.0,401.463470459,0.0,-0.61,343.18,343.18,0.0,0.0
1526669603.26664615,82334553,0.0,-0.09,0.0,376.017852783,0.0,-0.61,343.15,343.15,0.0,0.0
1526669603.36660624,82434513,0.0,-0.16,0.0,361.971679688,0.0,-0.63,343.09,343.09,0.0,0.0
1526669603.46739912,82535306,0.0,-0.2,0.0,359.649993896,0.0,-0.64,343.03,343.03,0.0,0.0
1526669603.56735921,82635266,0.0,-0.22,0.0,365.398529053,0.0,-0.65,342.94,342.94,0.0,0.0
1526669603.66731906,82735226,0.0,-0.24,0.0,375.270843506,0.0,-0.65,342.87,342.87,0.0,0.0
1526669603.76727915,82835186,0.0,-0.27,0.0,390.16973877,0.0,-0.63,342.81,342.81,0.0,0.0
1526669603.86723924,82935146,0.0,-0.27,0.0,407.111236572,0.0,-0.61,342.77,342.77,0.0,0.0
1526669603.96719909,83035106,0.0,-0.28,0.0,424.600006104,0.0,-0.59,342.74,342.74,0.0,0.0
1526669604.06715918,83135066,0.0,-0.26,0.0,437.968170166,0.0,-0.56,342.72,342.72,0.0,0.0
1526669604.16711903,83235026,0.0,-0.25,0.0,447.375,0.0,-0.55,342.71,342.71,0.0,0.0
1526669604.31539321,83383300,0.0,-0.26,0.0,455.201049805,0.0,-0.53,342.7,342.7,0.0,0.0
1526669604.41535306,83483260,0.0,-0.28,0.0,466.721008301,0.0,-0.52,342.71,342.71,0.0,0.0
1526669604.51531315,83583220,0.0,-0.27,0.0,478.289428711,0.0,-0.52,342.71,342.71,0.0,0.0
1526669604.61527324,83683180,0.0,-0.24,0.0,633.099975586,0.0,-0.51,342.72,342.72,0.0,0.0
1526669604.71523309,83783140,0.0,-0.2,0.0,560.450012207,0.0,-0.49,342.72,342.72,0.0,0.0
1526669604.81519318,83883100,0.0,-0.17,0.0,483.424987793,0.0,-0.46,342.72,342.72,0.0,0.0
1526669604.91515303,83983060,0.0,-0.16,0.0,426.981262207,0.0,-0.42,342.73,342.73,0.0,0.0
1526669605.01511312,84083020,0.0,-0.16,0.0,392.785003662,0.0,-0.39,342.75,342.75,0.0,0.0
1526669605.11507320,84182980,0.0,-0.13,0.0,363.383331299,0.0,-0.4,342.8,342.8,0.0,0.0
1526669605.21503305,84282940,0.0,-0.08,0.0,328.27142334,0.0,-0.43,342.86,342.86,0.0,0.0
1526669605.31499314,84382900,0.0,-0.04,0.0,292.15625,0.0,-0.46,342.94,342.94,0.0,0.0
1526669605.41495323,84482860,0.0,0.0,0.0,260.338897705,0.0,-0.47,343.01,343.01,0.0,0.0
1526669605.51491308,84582820,0.0,0.02,0.0,234.425003052,0.0,-0.5,343.04,343.04,0.0,0.0
1526669605.61487317,84682780,0.0,0.04,0.0,214.152267456,0.0,-0.54,343.07,343.07,0.0,0.0
1526669605.71483326,84782740,0.0,0.04,0.0,197.845840454,0.0,-0.55,343.08,343.08,0.0,0.0
1526669605.81479311,84882700,0.0,0.01,0.0,183.225006104,0.0,-0.55,343.1,343.1,0.0,0.0
1526669605.91475320,84982660,0.0,-0.01,0.0,170.175003052,0.0,-0.55,343.11,343.11,0.0,0.0
1526669606.01471305,85082620,0.0,-0.03,0.0,159.258331299,0.0,-0.56,343.13,343.13,0.0,0.0
1526669606.11467314,85182580,0.0,-0.03,0.0,149.8671875,0.0,-0.57,343.17,343.17,0.0,0.0
1526669606.21463323,85282540,0.0,-0.03,0.0,141.580886841,0.0,-0.58,343.2,343.2,0.0,0.0
1526669606.31459308,85382500,0.0,-0.05,0.0,134.449996948,0.0,-0.6,343.23,343.23,0.0,0.0
1526669606.41538620,85483293,0.0,-0.09,0.0,129.971054077,0.0,-0.61,343.28,343.28,0.0,0.0
1526669606.51534605,85583253,0.0,-0.13,0.0,130.089996338,0.0,-0.62,343.32,343.32,0.0,0.0
1526669606.61530614,85683213,0.0,-0.15,0.0,133.208328247,0.0,-0.64,343.35,343.35,0.0,0.0
1526669606.71526623,85783173,0.0,-0.14,0.0,136.227279663,0.0,-0.65,343.36,343.36,0.0,0.0
1526669606.81522608,85883133,0.0,-0.13,0.0,138.385864258,0.0,-0.65,343.38,343.38,0.0,0.0
1526669606.91518617,85983093,0.0,-0.14,0.0,140.083328247,0.0,-0.65,343.39,343.39,0.0,0.0
1526669607.01514626,86083053,0.0,-0.15,0.0,143.276992798,0.0,-0.65,343.39,343.39,0.0,0.0
1526669607.11510611,86183013,0.0,-0.15,0.0,146.420196533,0.0,-0.66,343.39,343.39,0.0,0.0
1526669607.21506619,86282973,0.0,-0.16,0.0,249.800003052,0.0,-0.65,343.39,343.39,0.0,0.0
1526669607.36334014,86431247,0.0,-0.12,0.0,219.1875,0.0,-0.62,343.39,343.39,0.0,0.0
1526669607.46330023,86531207,0.0,-0.1,0.0,185.716659546,0.0,-0.6,343.4,343.4,0.0,0.0
1526669607.56326008,86631167,0.0,-0.11,0.0,165.862503052,0.0,-0.58,343.41,343.41,0.0,0.0
1526669607.66322017,86731127,0.0,-0.13,0.0,160.86000061,0.0,-0.56,343.41,343.41,0.0,0.0
1526669607.76318026,86831087,0.0,-0.15,0.0,165.408340454,0.0,-0.59,343.4,343.4,0.0,0.0
1526669607.86314011,86931047,0.0,-0.18,0.0,181.75,0.0,-0.61,343.39,343.39,0.0,0.0
1526669607.96310019,87031007,0.0,-0.18,0.0,199.53125,0.0,-0.63,343.38,343.38,0.0,0.0
1526669608.06306005,87130967,0.0,-0.18,0.0,213.361114502,0.0,-0.64,343.37,343.37,0.0,0.0
1526669610.31132722,89379234,0.0,0.12,0.0,120.580001831,0.0,-0.59,343.59,343.59,0.0,0.01
1526669610.41128707,89479194,0.0,0.13,0.0,126.254165649,0.0,-0.63,343.63,343.63,0.0,0.01
1526669610.51124716,89579154,0.0,0.14,0.0,133.132141113,0.0,-0.66,343.69,343.69,0.0,0.01
1526669610.61120725,89679114,0.0,0.15,0.0,141.353118896,0.0,-0.69,343.75,343.75,0.0,0.01
1526669610.71116710,89779074,0.0,0.16,0.0,150.991668701,0.0,-0.68,343.8,343.8,0.0,0.01
1526669610.81112719,89879034,0.0,0.18,0.0,164.347503662,0.0,-0.67,343.85,343.85,0.0,0.01
1526669610.91108704,89978994,0.0,0.19,0.0,181.047729492,0.0,-0.66,343.9,343.9,0.0,0.01
1526669611.01104712,90078954,0.0,0.19,0.0,196.043746948,0.0,-0.66,343.95,343.95,0.0,0.01
1526669611.11100721,90178914,0.0,0.21,0.0,210.1615448,0.0,-0.67,344.0,344.0,0.0,0.01
1526669611.21096706,90278874,0.0,0.23,0.0,229.05178833,0.0,-0.68,344.06,344.06,0.0,0.01
1526669611.31092715,90378834,0.0,0.26,0.0,253.048339844,0.0,-0.71,344.13,344.13,0.0,0.01
1526669611.41088724,90478794,0.0,0.28,0.0,281.559387207,0.0,-0.73,344.2,344.2,0.0,0.01
1526669611.51084709,90578754,0.0,0.31,0.0,315.992645264,0.0,-0.74,344.28,344.28,0.0,0.01
1526669611.61080718,90678714,0.0,0.32,0.0,353.401397705,0.0,-0.78,344.38,344.38,0.0,0.01
1526669611.71076703,90778674,0.0,0.33,0.0,388.867095947,0.0,-0.82,344.47,344.47,0.0,0.01
1526669611.81072712,90878634,0.0,0.34,0.0,425.632507324,0.0,-0.87,344.56,344.56,0.0,0.01
1526669611.91068721,90978594,0.0,0.35,0.0,462.383331299,0.0,-0.89,344.65,344.65,0.0,0.01
1526669612.01064706,91078554,0.0,0.35,0.0,497.047729492,0.0,-0.9,344.75,344.75,0.0,0.01
1526669612.11060715,91178514,0.0,0.36,0.0,530.395629883,0.0,-0.93,344.83,344.83,0.0,0.01
1526669612.21056724,91278474,0.0,0.36,0.0,560.964599609,0.0,-0.95,344.9,344.9,0.0,0.01
1526669612.31052709,91378434,0.0,0.36,0.0,590.366027832,0.0,-0.99,345.0,345.0,0.0,0.01
1526669612.41132021,91479227,0.0,0.38,0.0,620.174987793,0.0,-1.01,345.12,345.12,0.0,0.01
1526669612.51128006,91579187,0.0,0.38,0.0,1444.0,0.0,-0.99,345.23,345.23,0.0,0.01
1526669612.61124015,91679147,0.0,0.36,0.0,1413.23754883,0.0,-0.98,345.34,345.34,0.0,0.01
1526669612.71120024,91779107,0.0,0.35,0.0,1367.05834961,0.0,-0.97,345.49,345.49,0.0,0.01
1526669612.81116009,91879067,0.0,0.33,0.0,1319.97497559,0.0,-0.97,345.65,345.65,0.0,0.01
1526669612.91112018,91979027,0.0,0.31,0.0,1256.43994141,0.0,-0.97,345.82,345.82,0.0,0.01
1526669613.01108003,92078987,0.0,0.3,0.0,1206.18334961,0.0,-0.97,345.98,345.98,0.0,0.01
1526669613.11104012,92178947,0.0,0.29,0.0,1159.28210449,0.0,-0.97,346.15,346.15,0.0,0.01
1526669613.21100020,92278907,0.0,0.28,0.0,1113.796875,0.0,-0.99,346.34,346.34,0.0,0.01
1526669613.35927415,92427181,0.0,0.3,0.0,1085.65551758,0.0,-1.02,346.58,346.58,0.0,0.01
1526669613.45923424,92527141,0.0,0.34,0.0,1077.8425293,0.0,-1.01,346.74,346.74,0.0,0.01
1526669613.55919409,92627101,0.0,0.38,0.0,1096.17041016,0.0,-1.01,346.89,346.89,0.0,0.01
1526669613.65915418,92727061,0.0,0.4,0.0,1131.44995117,0.0,-0.99,347.03,347.03,0.0,0.01
1526669613.75911403,92827021,0.0,0.4,0.0,1167.49230957,0.0,-0.95,347.2,347.2,0.0,0.01
1526669613.85907412,92926981,0.0,0.37,0.0,1189.91601562,0.0,-0.9,347.37,347.37,0.0,0.01
1526669613.95903420,93026941,0.0,0.33,0.0,1191.63171387,0.0,-0.87,347.54,347.54,0.0,0.01
1526669614.05899405,93126901,0.0,0.3,0.0,1179.22338867,0.0,-0.86,347.71,347.71,0.0,0.01
1526669614.15895414,93226861,0.0,0.29,0.0,1160.36914062,0.0,-0.88,347.87,347.87,0.0,0.01
1526669614.25891423,93326821,0.0,0.27,0.0,1139.62915039,0.0,-0.87,348.03,348.03,0.0,0.01
1526669614.35887408,93426781,0.0,0.27,0.0,1118.01708984,0.0,-0.88,348.17,348.17,0.0,0.01
1526669614.45883417,93526741,0.0,0.26,0.0,1098.23498535,0.0,-0.89,348.28,348.28,0.0,0.0
1526669614.55879426,93626701,0.0,0.25,0.0,1076.73217773,0.0,-0.91,348.36,348.36,0.0,0.0
1526669614.65875411,93726661,0.0,0.24,0.0,1054.08300781,0.0,-0.94,348.43,348.43,0.0,0.0
1526669614.75871420,93826621,0.0,0.22,0.0,1031.52172852,0.0,-0.96,348.48,348.48,0.0,0.0
1526669614.85867405,93926581,0.0,0.2,0.0,1007.421875,0.0,-0.99,348.53,348.53,0.0,0.0
1526669614.95863414,94026541,0.0,0.17,0.0,981.218994141,0.0,-1.02,348.56,348.56,0.0,0.0
1526669615.05859423,94126501,0.0,0.15,0.0,953.74420166,0.0,-1.07,348.58,348.58,0.0,0.0
1526669615.15855408,94226461,0.0,0.13,0.0,200.125,0.0,-1.11,348.59,348.59,0.0,0.0
1526669615.25851417,94326421,0.0,0.11,0.0,174.925003052,0.0,-1.14,348.6,348.6,0.0,0.0
1526669615.35847425,94426381,0.0,0.12,0.0,164.425003052,0.0,-1.15,348.64,348.64,0.0,0.0
1526669615.45926714,94527174,0.0,0.14,0.0,164.743743896,0.0,-1.14,348.69,348.69,0.0,0.0
1526669615.55922723,94627134,0.0,0.13,0.0,170.725006104,0.0,-1.15,348.74,348.74,0.0,0.0
1526669615.65918708,94727094,0.0,0.12,0.0,169.083328247,0.0,-1.16,348.81,348.81,0.0,0.0
1526669615.75914717,94827054,0.0,0.09,0.0,160.710708618,0.0,-1.16,348.89,348.89,0.0,0.0
1526669615.85910726,94927014,0.0,0.06,0.0,148.115631104,0.0,-1.14,348.98,348.98,0.0,0.0
1526669615.95906711,95026974,0.0,0.03,0.0,134.280548096,0.0,-1.15,349.06,349.06,0.0,0.0
1526669616.05902719,95126934,0.0,0.0,0.0,121.214996338,0.0,-1.17,349.13,349.13,0.0,0.0
1526669616.15898705,95226894,0.0,-0.01,0.0,110.24772644,0.0,-1.19,349.19,349.19,0.0,0.0
1526669616.30726123,95375168,0.0,-0.03,0.0,101.229164124,0.0,-1.22,349.28,349.28,0.0,0.0
1526669616.40722108,95475128,0.0,-0.05,0.0,94.75,0.0,-1.23,349.34,349.34,0.0,0.0
1526669616.50718117,95575088,0.0,-0.09,0.0,91.6089248657,0.0,-1.23,349.36,349.36,0.0,0.0
1526669616.60714126,95675048,0.0,-0.13,0.0,93.7099990845,0.0,-1.23,349.37,349.37,0.0,0.0
1526669616.70710111,95775008,0.0,-0.15,0.0,100.300003052,0.0,-1.22,349.37,349.37,0.0,0.0
1526669616.80706120,95874968,0.0,-0.14,0.0,107.208824158,0.0,-1.19,349.37,349.37,0.0,0.0
1526669616.90702105,95974928,0.0,-0.16,0.0,113.68611145,0.0,-1.18,349.4,349.4,0.0,0.0
1526669617.00698113,96074888,0.0,-0.18,0.0,122.006576538,0.0,-1.18,349.42,349.42,0.0,0.0
1526669617.10694122,96174848,0.0,-0.19,0.0,133.262496948,0.0,-1.16,349.44,349.44,0.0,0.0
1526669617.20690107,96274808,0.0,-0.18,0.0,143.666671753,0.0,-1.14,349.47,349.47,0.0,0.0
1526669617.30686116,96374768,0.0,-0.14,0.0,148.329544067,0.0,-1.12,349.5,349.5,0.0,0.0
1526669617.40682125,96474728,0.0,-0.12,0.0,148.971740723,0.0,-1.12,349.52,349.52,0.0,0.0
1526669617.50678110,96574688,0.0,-0.1,0.0,147.685409546,0.0,-1.13,349.53,349.53,0.0,0.0
1526669617.60674119,96674648,0.0,-0.08,0.0,144.934005737,0.0,-1.13,349.54,349.54,0.0,0.0
1526669617.70670104,96774608,0.0,-0.05,0.0,140.933654785,0.0,-1.13,349.57,349.57,0.0,0.0
1526669617.80666113,96874568,0.0,-0.04,0.0,22.5249996185,0.0,-1.13,349.59,349.59,0.0,0.0
1526669617.90662122,96974528,0.0,-0.03,0.0,17.3374996185,0.0,-1.14,349.59,349.59,0.0,0.0
1526669618.00658107,97074488,0.0,-0.03,0.0,14.5583333969,0.0,-1.15,349.6,349.6,0.0,0.0
1526669618.10654116,97174448,0.0,-0.01,0.0,12.15625,0.0,-1.17,349.6,349.6,0.0,0.0
1526669618.20650125,97274408,0.0,0.0,0.0,9.79500007629,0.0,-1.19,349.63,349.63,0.0,0.0
1526669618.30646110,97374368,0.0,0.02,0.0,8.33333301544,0.0,-1.18,349.65,349.65,0.0,0.0
1526669618.40725422,97475161,0.0,0.04,0.0,8.41428565979,0.0,-1.21,349.67,349.67,0.0,0.0
1526669618.50721407,97575121,0.0,0.05,0.0,10.234375,0.0,-1.25,349.66,349.66,0.0,0.0
1526669618.60717416,97675081,0.0,0.07,0.0,13.3666667938,0.0,-1.26,349.65,349.65,0.0,0.0
1526669618.70713425,97775041,0.0,0.08,0.0,17.6049995422,0.0,-1.25,349.62,349.62,0.0,0.0
1526669618.80709410,97875001,0.0,0.09,0.0,21.9386367798,0.0,-1.25,349.58,349.58,0.0,0.0
1526669618.90705419,97974961,0.0,0.09,0.0,26.8604164124,0.0,-1.25,349.55,349.55,0.0,0.0
1526669619.00701404,98074921,0.0,0.1,0.0,31.0615386963,0.0,-1.28,349.5,349.5,0.0,0.0
1526669619.10697412,98174881,0.0,0.11,0.0,36.5107154846,0.0,-1.3,349.47,349.47,0.0,0.0
1526669619.20693421,98274841,0.0,0.14,0.0,43.7966651917,0.0,-1.31,349.43,349.43,0.0,0.0
1526669619.35520816,98423115,0.0,0.15,0.0,55.7281265259,0.0,-1.31,349.38,349.38,0.0,0.0
1526669619.45516825,98523075,0.0,0.13,0.0,63.810295105,0.0,-1.3,349.34,349.34,0.0,0.0
1526669619.55512810,98623035,0.0,0.1,0.0,67.2152786255,0.0,-1.28,349.29,349.29,0.0,0.0
1526669619.65508819,98722995,0.0,0.07,0.0,67.5289459229,0.0,-1.26,349.25,349.25,0.0,0.0
1526669619.75504804,98822955,0.0,0.06,0.0,66.1474990845,0.0,-1.24,349.25,349.25,0.0,0.0
1526669619.85500813,98922915,0.0,0.04,0.0,64.1999969482,0.0,-1.23,349.25,349.25,0.0,0.0
1526669619.95496821,99022875,0.0,0.0,0.0,61.5499992371,0.0,-1.23,349.26,349.26,0.0,0.0
1526669620.05492806,99122835,0.0,-0.04,0.0,59.2130432129,0.0,-1.22,349.26,349.26,0.0,0.0
1526669620.15488815,99222795,0.0,-0.07,0.0,58.1677093506,0.0,-1.2,349.27,349.27,0.0,0.0
1526669620.25484824,99322755,0.0,-0.1,0.0,58.9539985657,0.0,-1.18,349.31,349.31,0.0,0.0
1526669622.30319524,101371102,0.0,-0.15,0.0,565.627624512,0.0,-1.1,350.03,350.03,0.0,0.0
1526669622.40315509,101471062,0.0,-0.15,0.0,547.21875,0.0,-1.12,350.05,350.05,0.0,0.0
1526669622.50311518,101571022,0.0,-0.14,0.0,530.597595215,0.0,-1.13,350.07,350.07,0.0,0.0
1526669622.60307503,101670982,0.0,-0.16,0.0,516.896606445,0.0,-1.15,350.1,350.1,0.0,0.0
1526669622.70303512,101770942,0.0,-0.18,0.0,507.869567871,0.0,-1.17,350.15,350.15,0.0,0.0
1526669622.80299520,101870902,0.0,-0.19,0.0,501.210418701,0.0,-1.18,350.2,350.2,0.0,0.0
1526669622.90295506,101970862,0.0,-0.21,0.0,496.700012207,0.0,-1.2,350.26,350.26,0.0,0.0
1526669623.00291514,102070822,0.0,-0.22,0.0,495.177886963,0.0,-1.22,350.32,350.32,0.0,0.0
1526669623.10287523,102170782,0.0,-0.24,0.0,537.625,0.0,-1.24,350.39,350.39,0.0,0.06
1526669623.20283508,102270742,0.0,-0.25,0.0,572.125,0.0,-1.26,350.44,350.44,0.0,0.07
1526669623.30279517,102370702,0.0,-0.24,0.0,588.525024414,0.0,-1.28,350.5,350.5,0.0,0.07
1526669623.40275526,102470662,0.0,-0.22,0.0,576.668762207,0.0,-1.29,350.53,350.53,0.0,0.06
1526669623.50271511,102570622,0.0,-0.19,0.0,543.534973145,0.0,-1.29,350.55,350.55,0.0,0.06
1526669623.60267520,102670582,0.0,-0.17,0.0,504.045837402,0.0,-1.29,350.63,350.63,0.0,0.06
1526669623.70263505,102770542,0.0,-0.14,0.0,466.128570557,0.0,-1.27,350.72,350.72,0.0,0.06
1526669623.80259514,102870502,0.0,-0.12,0.0,428.490631104,0.0,-1.26,350.79,350.79,0.0,0.06
1526669623.90255523,102970462,0.0,-0.1,0.0,394.2527771,0.0,-1.25,350.86,350.86,0.0,0.06
1526669624.00251508,103070422,0.0,-0.09,0.0,363.545013428,0.0,-1.24,350.95,350.95,0.0,0.06
1526669624.10247517,103170382,0.0,-0.05,0.0,335.447723389,0.0,-1.24,351.04,351.04,0.0,0.06
1526669624.20243526,103270342,0.0,-0.03,0.0,308.964569092,0.0,-1.25,351.14,351.14,0.0,0.06
1526669624.30239511,103370302,0.0,0.0,0.0,285.457702637,0.0,-1.24,351.23,351.23,0.0,0.05
1526669624.40318823,103471095,0.0,0.01,0.0,265.08392334,0.0,-1.21,351.31,351.31,0.0,0.05
1526669624.50314808,103571055,0.0,0.02,0.0,247.60333252,0.0,-1.18,351.39,351.39,0.0,0.02
1526669624.60310817,103671015,0.0,0.04,0.0,232.743743896,0.0,-1.15,351.47,351.47,0.0,0.01
1526669624.70306826,103770975,0.0,0.06,0.0,220.430877686,0.0,-1.11,351.56,351.56,0.0,0.01
1526669624.80302811,103870935,0.0,0.08,0.0,211.168060303,0.0,-1.09,351.63,351.63,0.0,0.01
1526669624.90298820,103970895,0.0,0.1,0.0,204.602630615,0.0,-1.08,351.68,351.68,0.0,0.01
1526669625.00294805,104070855,0.0,0.13,0.0,201.25,0.0,-1.08,351.72,351.72,0.0,0.01
1526669625.10290813,104170815,0.0,0.16,0.0,201.96546936,0.0,-1.09,351.77,351.77,0.0,0.01
1526669625.20286822,104270775,0.0,0.17,0.0,205.734085083,0.0,-1.09,351.82,351.82,0.0,0.05
1526669625.35114217,104419049,0.0,0.13,0.0,206.492385864,0.0,-1.11,351.87,351.87,0.0,0.06
1526669625.45110226,104519009,0.0,0.08,0.0,202.515625,0.0,-1.11,351.92,351.92,0.0,0.02
1526669625.55106211,104618969,0.0,0.04,0.0,195.957000732,0.0,-1.1,351.97,351.97,0.0,0.01
1526669625.65102220,104718929,0.0,0.02,0.0,188.792312622,0.0,-1.1,352.01,352.01,0.0,0.01
1526669625.75098205,104818889,0.0,0.02,0.0,4.0,0.0,-1.1,352.08,352.08,0.0,0.01
1526669625.85094213,104918849,0.0,0.01,0.0,3.47499990463,0.0,-1.07,352.15,352.15,0.0,0.01
1526669625.95090222,105018809,0.0,0.0,0.0,2.35833334923,0.0,-1.05,352.23,352.23,0.0,0.01
1526669626.05086207,105118769,0.0,-0.01,0.0,1.83749997616,0.0,-1.02,352.3,352.3,0.0,0.01
1526669626.15082216,105218729,0.0,-0.05,0.0,3.78999996185,0.0,-1.0,352.37,352.37,0.0,0.01
1526669626.25078225,105318689,0.0,-0.06,0.0,8.42500019073,0.0,-0.96,352.42,352.42,0.0,0.01
1526669626.35074210,105418649,0.0,-0.09,0.0,15.1214284897,0.0,-0.96,352.48,352.48,0.0,0.01
1526669626.45070219,105518609,0.0,-0.11,0.0,26.1343746185,0.0,-0.97,352.54,352.54,0.0,0.01
1526669626.55066204,105618569,0.0,-0.11,0.0,36.6749992371,0.0,-0.97,352.61,352.61,0.0,0.01
1526669626.65062213,105718529,0.0,-0.12,0.0,46.4300003052,0.0,-0.99,352.65,352.65,0.0,0.01
1526669626.75058222,105818489,0.0,-0.11,0.0,54.2022743225,0.0,-1.01,352.73,352.73,0.0,0.01
1526669626.85054207,105918449,0.0,-0.1,0.0,58.9812507629,0.0,-1.03,352.82,352.82,0.0,0.01
1526669626.95050216,106018409,0.0,-0.08,0.0,60.465385437,0.0,-1.06,352.91,352.91,0.0,0.01
1526669627.05046225,106118369,0.0,-0.07,0.0,60.182144165,0.0,-1.1,352.98,352.98,0.0,0.01
1526669627.15042210,106218329,0.0,-0.07,0.0,59.4150009155,0.0,-1.1,353.04,353.04,0.0,0.01
1526669627.25038218,106318289,0.0,-0.08,0.0,59.7015609741,0.0,-1.09,353.08,353.08,0.0,0.01
1526669627.35034204,106418249,0.0,-0.08,0.0,59.954410553,0.0,-1.1,353.13,353.13,0.0,0.01
1526669627.45113516,106519042,0.0,-0.08,0.0,59.8666648865,0.0,-1.1,353.18,353.18,0.0,0.01
1526669627.55109525,106619002,0.0,-0.08,0.0,60.0842094421,0.0,-1.08,353.21,353.21,0.0,0.01
1526669627.65105510,106718962,0.0,-0.08,0.0,60.2799987793,0.0,-1.07,353.22,353.22,0.0,0.01
1526669627.75101519,106818922,0.0,-0.08,0.0,60.4571418762,0.0,-1.05,353.21,353.21,0.0,0.01
1526669627.85097504,106918882,0.0,-0.12,0.0,62.3715896606,0.0,-1.03,353.2,353.2,0.0,0.01
1526669627.95093513,107018842,0.0,-0.15,0.0,67.6652145386,0.0,-0.99,353.2,353.2,0.0,0.01
1526669628.05089521,107118802,0.0,-0.18,0.0,76.9510421753,0.0,-0.97,353.19,353.19,0.0,0.01
1526669628.15085506,107218762,0.0,-0.19,0.0,88.31300354,0.0,-0.93,353.18,353.18,0.0,0.01
1526669628.29912925,107367036,0.0,-0.19,0.0,99.3634643555,0.0,-0.89,353.17,353.17,0.0,0.01
1526669628.39908910,107466996,0.0,-0.18,0.0,344.350006104,0.0,-0.86,353.17,353.17,0.0,0.01
1526669628.49904919,107566956,0.0,-0.16,0.0,309.737487793,0.0,-0.84,353.17,353.17,0.0,0.01
1526669628.59900904,107666916,0.0,-0.17,0.0,292.100006104,0.0,-0.83,353.19,353.19,0.0,0.01
1526669628.69896913,107766876,0.0,-0.18,0.0,295.700012207,0.0,-0.82,353.22,353.22,0.0,0.01
1526669628.79892921,107866836,0.0,-0.18,0.0,301.359985352,0.0,-0.82,353.24,353.24,0.0,0.01
1526669628.89888906,107966796,0.0,-0.19,0.0,308.216674805,0.0,-0.81,353.28,353.28,0.0,0.01
1526669628.99884915,108066756,0.0,-0.17,0.0,310.91784668,0.0,-0.81,353.31,353.31,0.0,0.01
1526669629.09880924,108166716,0.0,-0.18,0.0,309.381256104,0.0,-0.82,353.35,353.35,0.0,0.01
1526669629.19876909,108266676,0.0,-0.2,0.0,316.547210693,0.0,-0.83,353.39,353.39,0.0,0.01
1526669629.29872918,108366636,0.0,-0.22,0.0,328.904998779,0.0,-0.86,353.43,353.43,0.0,0.01
1526669629.39868903,108466596,0.0,-0.24,0.0,346.002258301,0.0,-0.87,353.5,353.5,0.0,0.01
1526669629.49864912,108566556,0.0,-0.27,0.0,372.195831299,0.0,-0.86,353.54,353.54,0.0,0.01
1526669629.59860921,108666516,0.0,-0.31,0.0,407.351928711,0.0,-0.86,353.54,353.54,0.0,0.01
1526669629.69856906,108766476,0.0,-0.36,0.0,459.08392334,0.0,-0.88,353.55,353.55,0.0,0.01
1526669629.79852915,108866436,0.0,-0.41,0.0,530.255004883,0.0,-0.89,353.57,353.57,0.0,0.01
1526669629.89848924,108966396,0.0,-0.44,0.0,608.192199707,0.0,-0.86,353.62,353.62,0.0,0.01
1526669629.99844909,109066356,0.0,-0.46,0.0,693.032348633,0.0,-0.8,353.66,353.66,0.0,0.01
1526669630.09840918,109166316,0.0,-0.48,0.0,777.926391602,0.0,-0.78,353.7,353.7,0.0,0.01
1526669630.19836903,109266276,0.0,-0.47,0.0,854.496032715,0.0,-0.75,353.74,353.74,0.0,0.01
1526669630.29832911,109366236,0.0,-0.46,0.0,917.91998291,0.0,-0.73,353.8,353.8,0.0,0.01
1526669630.39912224,109467029,0.0,-0.45,0.0,974.321411133,0.0,-0.71,353.84,353.84,0.0,0.01
1526669630.49908209,109566989,0.0,-0.43,0.0,1018.15570068,0.0,-0.69,353.87,353.87,0.0,0.01
1526669630.59904218,109666949,0.0,-0.43,0.0,1054.27929688,0.0,-0.71,353.9,353.9,0.0,0.01
1526669630.69900203,109766909,0.0,-0.43,0.0,1087.3927002,0.0,-0.73,353.92,353.92,0.0,0.01
1526669630.79896212,109866869,0.0,-0.43,0.0,1117.85705566,0.0,-0.75,353.95,353.95,0.0,0.01
1526669630.89892220,109966829,0.0,-0.44,0.0,1147.8182373,0.0,-0.76,353.99,353.99,0.0,0.01
1526669630.99888206,110066789,0.0,-0.44,0.0,1936.0,0.0,-0.76,354.03,354.03,0.0,0.01
1526669631.09884214,110166749,0.0,-0.43,0.0,1934.91247559,0.0,-0.74,354.08,354.08,0.0,0.01
1526669631.19880223,110266709,0.0,-0.43,0.0,1906.27502441,0.0,-0.71,354.12,354.12,0.0,0.01
1526669631.34707618,110414983,0.0,-0.41,0.0,1872.375,0.0,-0.69,354.15,354.15,0.0,0.01
1526669631.44703603,110514943,0.0,-0.41,0.0,1834.09997559,0.0,-0.68,354.18,354.18,0.0,0.01
1526669634.29506326,113362970,0.0,-0.5,0.0,2185.72851562,0.0,-0.73,352.82,352.82,0.0,0.0
