timestamp,TimeUS,DesR,R,IR,IRErr,DesP,P,DesY,Y,ErrRP,ErrYaw
1526670054.99900007,31871413,0.0,1.23,0.0,15545.9042969,0.0,0.39,352.17,352.17,0.0,0.0
1526670055.09896016,31971373,0.0,1.19,0.0,15473.6308594,0.0,0.4,352.21,352.21,0.0,0.0
1526670055.19892001,32071333,0.0,1.15,0.0,15337.9248047,0.0,0.4,352.25,352.25,0.0,0.0
1526670055.29888010,32171293,0.0,1.15,0.0,15197.0634766,0.0,0.41,352.28,352.28,0.0,0.0
1526670055.39884019,32271253,0.0,1.15,0.0,15073.8095703,0.0,0.41,352.35,352.35,0.0,0.0
1526670055.49880004,32371213,0.0,1.13,0.0,14951.9277344,0.0,0.41,352.43,352.43,0.0,0.0
1526670055.59876013,32471173,0.0,1.12,0.0,14823.7792969,0.0,0.39,352.51,352.51,0.0,0.0
1526670055.69871998,32571133,0.0,1.12,0.0,14703.7910156,0.0,0.38,352.59,352.59,0.0,0.0
1526670055.79868007,32671093,0.0,1.13,0.0,14602.2695312,0.0,0.37,352.65,352.65,0.0,0.0
1526670055.89864016,32771053,0.0,1.13,0.0,14514.9716797,0.0,0.35,352.71,352.71,0.0,0.0
1526670055.99860001,32871013,0.0,1.16,0.0,14453.7548828,0.0,0.36,352.78,352.78,0.0,0.0
1526670056.09856009,32970973,0.0,1.2,0.0,14433.6162109,0.0,0.34,352.86,352.86,0.0,0.0
1526670056.19852018,33070933,0.0,1.23,0.0,14445.5605469,0.0,0.33,352.93,352.93,0.0,0.0
1526670056.29848003,33170893,0.0,1.23,0.0,14472.8984375,0.0,0.31,352.98,352.98,0.0,0.0
1526670056.39844012,33270853,0.0,1.24,0.0,14507.6328125,0.0,0.3,353.03,353.03,0.0,0.0
1526670056.49839997,33370813,0.0,1.24,0.0,15376.0,0.0,0.3,353.1,353.1,0.0,0.0
1526670056.59836006,33470773,0.0,1.24,0.0,15376.0,0.0,0.29,353.19,353.19,0.0,0.07
1526670056.69832015,33570733,0.0,1.22,0.0,15279.4580078,0.0,0.28,353.29,353.29,0.0,0.08
1526670056.79828000,33670693,0.0,1.19,0.0,15073.3125,0.0,0.26,353.4,353.4,0.0,0.08
1526670056.89824009,33770653,0.0,1.17,0.0,14825.8251953,0.0,0.23,353.52,353.52,0.0,0.08
1526670056.99820018,33870613,0.0,1.16,0.0,14607.2294922,0.0,0.21,353.63,353.63,0.0,0.07
1526670057.09899306,33971406,0.0,1.16,0.0,14442.7675781,0.0,0.17,353.75,353.75,0.0,0.07
1526670057.19895315,34071366,0.0,1.14,0.0,14292.0595703,0.0,0.12,353.86,353.86,0.0,0.01
1526670057.29891300,34171326,0.0,1.09,0.0,14095.5634766,0.0,0.06,353.96,353.96,0.0,0.0
1526670057.39887309,34271286,0.0,1.06,0.0,13848.7050781,0.0,0.02,354.07,354.07,0.0,0.0
1526670057.49883318,34371246,0.0,1.05,0.0,13599.1972656,0.0,-0.01,354.19,354.19,0.0,0.0
1526670057.59879303,34471206,0.0,1.04,0.0,13369.8769531,0.0,-0.02,354.33,354.33,0.0,0.0
1526670057.69875312,34571166,0.0,1.03,0.0,13172.2304688,0.0,-0.03,354.46,354.46,0.0,0.0
1526670057.79871297,34671126,0.0,1.04,0.0,12998.7539062,0.0,-0.02,354.59,354.59,0.0,0.0
1526670057.89867306,34771086,0.0,1.03,0.0,12849.4414062,0.0,-0.02,354.69,354.69,0.0,0.0
1526670057.99863315,34871046,0.0,1.02,0.0,12700.125,0.0,-0.01,354.77,354.77,0.0,0.0
1526670058.09859300,34971006,0.0,1.03,0.0,12569.5810547,0.0,-0.01,354.82,354.82,0.0,0.0
1526670058.19855309,35070966,0.0,1.04,0.0,12470.7226562,0.0,0.0,354.85,354.85,0.0,0.0
1526670058.29851317,35170926,0.0,1.03,0.0,12377.6396484,0.0,0.0,354.87,354.87,0.0,0.0
1526670058.39847302,35270886,0.0,1.04,0.0,12294.9003906,0.0,0.0,354.85,354.85,0.0,0.0
1526670058.49843311,35370846,0.0,1.04,0.0,12224.4765625,0.0,0.01,354.83,354.83,0.0,0.0
1526670058.59839296,35470806,0.0,1.03,0.0,12159.2783203,0.0,0.03,354.83,354.83,0.0,0.0
1526670058.69835305,35570766,0.0,1.03,0.0,12089.8691406,0.0,0.05,354.84,354.84,0.0,0.07
1526670058.79831314,35670726,0.0,1.03,0.0,12028.1669922,0.0,0.07,354.88,354.88,0.0,0.07
1526670058.89827299,35770686,0.0,1.03,0.0,11971.4003906,0.0,0.11,354.92,354.92,0.0,0.07
1526670058.99823308,35870646,0.0,1.02,0.0,11915.4521484,0.0,0.15,354.96,354.96,0.0,0.07
1526670059.09819317,35970606,0.0,0.99,0.0,10125.9248047,0.0,0.19,355.0,355.0,0.0,0.07
1526670059.19898605,36071399,0.0,0.99,0.0,9963.46289062,0.0,0.22,355.05,355.05,0.0,0.07
1526670059.29894614,36171359,0.0,0.98,0.0,9891.25,0.0,0.23,355.1,355.1,0.0,0.01
1526670059.39890599,36271319,0.0,0.99,0.0,9847.75585938,0.0,0.24,355.14,355.14,0.0,0.0
1526670059.49886608,36371279,0.0,1.01,0.0,9865.30957031,0.0,0.23,355.18,355.18,0.0,0.0
1526670059.59882617,36471239,0.0,1.01,0.0,9921.25878906,0.0,0.23,355.21,355.21,0.0,0.0
1526670059.69878602,36571199,0.0,1.0,0.0,9942.55761719,0.0,0.25,355.23,355.23,0.0,0.0
1526670059.79874611,36671159,0.0,1.0,0.0,9949.73730469,0.0,0.24,355.24,355.24,0.0,0.0
1526670059.89870620,36771119,0.0,0.98,0.0,9943.171875,-0.4,0.19,355.25,355.25,0.0,0.0
1526670059.99866605,36871079,-0.16,0.72,-0.01,9693.6796875,-0.4,-0.07,355.25,355.25,0.0,0.0
1526670060.09862614,36971039,-0.25,0.44,-0.06,9160.62402344,-0.4,-0.27,355.25,355.27,0.0,0.0
1526670060.19858599,37070999,-0.29,0.2,-0.12,8537.50292969,-0.38,-0.41,355.25,355.28,0.0,0.0
1526670060.29854608,37170959,-0.34,0.02,-0.19,7939.02001953,-0.35,-0.5,355.25,355.27,0.0,0.0
1526670060.39850616,37270919,-0.36,-0.15,-0.26,7393.21630859,-0.3,-0.53,355.25,355.26,0.0,0.0
1526670060.49846601,37370879,-0.34,-0.32,-0.31,6903.01416016,-0.26,-0.5,355.25,355.26,0.0,0.0
1526670060.59842610,37470839,-0.31,-0.43,-0.34,6472.69824219,-0.2,-0.38,355.25,355.23,0.0,0.0
1526670060.69838619,37570799,-0.27,-0.51,-0.35,6100.67382812,-0.15,-0.27,355.25,355.23,0.0,0.0
1526670060.79834604,37670759,-0.19,-0.54,-0.33,5779.90380859,-0.09,-0.18,355.25,355.21,0.0,0.06
1526670060.89830613,37770719,-0.1,-0.51,-0.28,5500.61181641,-0.03,-0.06,355.25,355.22,0.0,0.07
1526670060.99826598,37870679,0.01,-0.44,-0.21,5251.27246094,0.01,0.01,355.25,355.22,0.0,0.07
1526670061.09822607,37970639,0.13,-0.31,-0.11,5022.56787109,0.04,0.04,355.25,355.19,0.0,0.07
1526670061.19901919,38071432,0.28,-0.2,0.0,4813.65771484,0.07,0.06,355.25,355.12,0.0,0.07
1526670061.29897904,38171392,0.37,-0.07,0.13,4621.37158203,0.07,0.08,355.25,355.02,0.0,0.01
1526670061.39893913,38271352,0.44,0.04,0.26,4448.02929688,0.07,0.05,355.25,355.05,0.0,0.01
1526670061.49889898,38371312,0.45,0.18,0.36,4287.10498047,0.09,0.01,355.25,355.1,0.0,0.01
1526670061.59885907,38471272,0.44,0.18,0.44,4141.35791016,0.16,0.04,355.25,355.15,0.0,0.01
1526670061.69881916,38571232,0.39,0.19,0.48,851.620605469,0.2,0.15,355.25,355.28,0.0,0.01
1526670061.79877901,38671192,0.34,0.25,0.48,768.262145996,0.2,0.17,355.25,355.4,0.0,0.01
1526670061.89873910,38771152,0.27,0.3,0.44,635.25213623,0.17,0.14,355.25,355.58,0.0,0.01
1526670061.99869919,38871112,0.24,0.38,0.39,495.054351807,0.17,0.06,355.25,355.67,0.0,0.01
1526670062.09865904,38971072,0.18,0.31,0.32,396.22277832,0.15,-0.01,355.25,355.76,0.0,0.0
1526670062.19861913,39071032,0.11,0.19,0.24,331.918914795,0.17,-0.05,355.25,355.81,0.0,0.0
1526670062.29857898,39170992,0.08,0.08,0.16,292.882873535,0.17,-0.01,355.25,355.92,0.0,0.0
1526670062.39853907,39270952,0.08,0.01,0.1,267.446533203,0.2,0.03,355.25,355.95,0.0,0.0
1526670062.49849916,39370912,0.1,-0.01,0.05,244.882659912,0.26,0.14,355.25,355.92,0.0,0.0
1526670062.59845901,39470872,0.14,0.02,0.04,222.77432251,0.3,0.3,355.25,355.83,0.0,0.0
1526670062.69841909,39570832,0.15,0.09,0.04,203.013549805,0.28,0.4,356.12,356.59,0.0,0.0
1526670062.79837918,39670792,0.13,0.2,0.06,192.939758301,0.22,0.46,356.12,356.43,0.0,0.06
1526670062.89833903,39770752,0.07,0.3,0.07,204.653579712,0.13,0.45,356.12,356.33,0.0,0.07
1526670062.99829912,39870712,0.05,0.36,0.08,236.184432983,0.05,0.42,356.12,356.2,0.0,0.07
1526670063.09825897,39970672,0.0,0.42,0.07,286.988647461,-0.05,0.33,356.12,356.12,0.0,0.07
1526670063.19821906,40070632,-0.06,0.43,0.05,355.149353027,-0.16,0.14,356.12,355.98,0.0,0.07
1526670063.29901218,40171425,-0.14,0.37,0.01,413.761901855,-0.19,-0.01,356.12,355.89,0.0,0.07
1526670063.39897203,40271385,-0.2,0.29,-0.04,456.8515625,-0.17,-0.1,356.12,355.92,0.0,0.01
1526670063.49893212,40371345,-0.29,0.2,-0.11,487.232696533,-0.17,-0.18,356.12,355.96,0.0,0.01
1526670063.59889197,40471305,-0.31,0.1,-0.18,505.541625977,-0.15,-0.29,356.12,355.96,0.0,0.01
1526670063.69885206,40571265,-0.35,0.0,-0.25,516.026123047,-0.06,-0.36,356.12,355.95,0.0,0.0
1526670063.79881215,40671225,-0.39,-0.15,-0.31,513.151855469,0.05,-0.37,356.12,355.93,0.0,0.0
1526670063.89877200,40771185,-0.39,-0.28,-0.35,496.89932251,0.16,-0.31,356.12,355.92,0.0,0.0
1526670063.99873209,40871145,-0.33,-0.41,-0.38,476.979980469,0.25,-0.23,356.12,355.91,0.0,0.0
1526670064.09869218,40971105,-0.24,-0.55,-0.37,462.583587646,0.3,-0.09,356.12,355.9,0.0,0.0
1526670064.19865203,41071065,-0.11,-0.58,-0.33,464.409545898,0.34,0.09,356.12,355.85,0.0,0.0
1526670064.29861212,41171025,0.03,-0.53,-0.24,699.095153809,0.39,0.27,356.12,355.82,0.0,0.01
1526670064.39857197,41270985,0.19,-0.4,-0.12,713.570373535,0.4,0.46,355.96,355.67,0.0,0.01
1526670064.49853206,41370945,0.28,-0.19,0.0,666.59564209,0.34,0.65,355.96,355.67,0.0,0.01
1526670064.59849215,41470905,0.34,0.05,0.14,556.973388672,0.26,0.68,355.96,355.63,0.0,0.01
1526670064.69845200,41570865,0.32,0.32,0.26,450.406646729,0.15,0.62,355.96,355.6,0.0,0.01
1526670064.79841208,41670825,0.24,0.47,0.33,394.597015381,0.01,0.48,355.96,355.57,0.0,0.01
1526670064.89837217,41770785,0.12,0.54,0.34,377.265808105,-0.1,0.3,355.96,355.5,0.0,0.06
1526670064.99833202,41870745,-0.01,0.55,0.3,390.706878662,-0.17,0.05,355.96,355.42,0.0,0.06
1526670065.09829211,41970705,-0.17,0.46,0.2,420.776489258,-0.2,-0.19,355.96,355.41,0.0,0.07
1526670065.19825196,42070665,-0.31,0.25,0.06,428.61227417,-0.17,-0.36,355.96,355.45,0.0,0.07
1526670065.29821205,42170625,-0.4,0.01,-0.09,409.540496826,-0.11,-0.43,355.96,355.54,0.0,0.07
1526670065.39900517,42271418,-0.42,-0.16,-0.24,384.210266113,-0.03,-0.38,355.96,355.64,0.0,0.07
1526670065.49896502,42371378,-0.39,-0.39,-0.36,356.16897583,0.07,-0.32,355.96,355.71,0.0,0.01
1526670065.59892511,42471338,-0.33,-0.52,-0.43,333.108123779,0.16,-0.19,355.96,355.78,0.0,0.01
1526670065.69888496,42571298,-0.24,-0.57,-0.45,318.580688477,0.24,-0.01,355.96,355.77,0.0,0.01
1526670065.79884505,42671258,-0.12,-0.57,-0.41,311.244842529,0.29,0.16,355.96,355.78,0.0,0.01
1526670065.89880514,42771218,0.03,-0.51,-0.32,310.156646729,0.34,0.31,355.96,355.76,0.0,0.01
1526670065.99876499,42871178,0.2,-0.41,-0.18,315.961791992,0.34,0.43,355.96,355.78,0.0,0.01
1526670066.09872508,42971138,0.3,-0.27,-0.02,327.049224854,0.28,0.42,355.96,355.87,0.0,0.01
1526670066.19868517,43071098,0.37,-0.16,0.13,347.171051025,0.23,0.44,355.96,355.97,0.0,0.01
1526670066.29864502,43171058,0.42,-0.02,0.27,371.948730469,0.16,0.5,355.96,355.97,0.0,0.01
1526670066.39860511,43271018,0.44,0.09,0.39,395.611480713,0.07,0.52,355.96,355.88,0.0,0.01
1526670066.49856520,43370978,0.42,0.27,0.46,407.5909729,-0.03,0.5,355.96,355.76,0.0,0.01
1526670066.59852505,43470938,0.38,0.47,0.5,396.612182617,-0.12,0.39,355.96,355.67,0.0,0.01
1526670066.69848514,43570898,0.32,0.56,0.49,381.188293457,-0.23,0.22,355.96,355.66,0.0,0.01
1526670066.79844499,43670858,0.22,0.61,0.44,371.874633789,-0.32,0.0,355.96,355.69,0.0,0.01
1526670066.89840508,43770818,0.14,0.6,0.37,427.056976318,-0.35,-0.22,355.96,355.81,0.0,0.01
1526670066.99836516,43870778,0.0,0.48,0.26,474.425872803,-0.34,-0.43,355.96,356.04,0.0,0.06
1526670067.09832501,43970738,-0.12,0.24,0.13,409.930114746,-0.26,-0.5,355.96,356.25,0.0,0.07
1526670067.19828510,44070698,-0.22,0.06,0.0,321.855041504,-0.14,-0.51,355.96,356.44,0.0,0.07
1526670067.29824519,44170658,-0.33,-0.13,-0.12,258.918579102,-0.03,-0.46,355.96,356.53,0.0,0.07
1526670067.39820504,44270618,-0.38,-0.26,-0.25,215.86177063,0.08,-0.37,355.96,356.56,0.0,0.06
1526670067.49899817,44371411,-0.43,-0.36,-0.35,185.138626099,0.19,-0.28,355.96,356.61,0.0,0.06
1526670067.59895802,44471371,-0.42,-0.48,-0.42,162.885101318,0.3,-0.19,355.96,356.59,0.0,0.01
1526670067.69891810,44571331,-0.33,-0.62,-0.46,157.089935303,0.39,0.0,355.96,356.51,0.0,0.01
1526670067.79887819,44671291,-0.23,-0.64,-0.44,173.740722656,0.44,0.21,355.96,356.33,0.0,0.01
1526670067.89883804,44771251,-0.13,-0.59,-0.38,194.041534424,0.43,0.38,355.96,356.09,0.0,0.01
1526670067.99879813,44871211,0.0,-0.47,-0.28,207.666748047,0.37,0.43,355.96,355.86,0.0,0.01
1526670068.09875798,44971171,0.12,-0.35,-0.16,216.340499878,0.29,0.48,355.96,355.7,0.0,0.01
1526670068.19871807,45071131,0.24,-0.17,-0.02,220.024490356,0.19,0.56,355.96,355.47,0.0,0.01
1526670068.29867816,45171091,0.33,0.05,0.11,211.814147949,0.1,0.58,355.96,355.3,0.0,0.01
1526670068.39863801,45271051,0.32,0.25,0.23,199.643325806,0.0,0.49,355.96,355.16,0.0,0.01
1526670068.49859810,45371011,0.3,0.47,0.32,192.441879272,-0.09,0.36,355.96,355.07,0.0,0.01
1526670068.59855819,45470971,0.24,0.57,0.36,199.977111816,-0.16,0.2,355.96,355.0,0.0,0.01
1526670068.69851804,45570931,0.15,0.6,0.36,215.997467041,-0.19,0.07,355.96,355.1,0.0,0.01
1526670068.79847813,45670891,0.07,0.54,0.31,231.836166382,-0.22,-0.02,355.96,355.2,0.0,0.01
1526670068.89843798,45770851,0.02,0.47,0.23,245.00050354,-0.2,-0.09,355.96,355.3,0.0,0.01
1526670068.99839807,45870811,-0.05,0.38,0.14,260.459747314,-0.18,-0.21,355.96,355.48,0.0,0.01
1526670069.09835815,45970771,-0.11,0.3,0.04,274.272460938,-0.14,-0.27,355.96,355.72,0.0,0.06
1526670069.19831800,46070731,-0.1,0.24,-0.04,292.802398682,-0.06,-0.3,121.91,356.07,0.0,0.06
1526670069.29827809,46170691,0.52,0.16,-0.05,309.011535645,0.45,-0.27,121.91,356.97,0.0,0.05
1526670069.39823818,46270651,1.39,0.18,0.14,304.35925293,1.07,0.01,121.91,358.61,0.0,0.04
1526670069.49819803,46370611,2.05,0.44,0.55,52.015586853,1.43,0.49,121.91,0.92,0.0,0.03
1526670069.59899116,46471404,2.65,0.9,1.11,170.405151367,1.6,1.0,121.91,3.72,0.0,0.02
1526670069.69895101,46571364,3.3,1.46,1.77,358.076721191,1.66,1.33,121.91,6.86,0.0,0.06
1526670069.79891109,46671324,3.95,2.17,2.49,517.123046875,1.59,1.54,121.91,10.25,0.0,0.07
1526670069.89887118,46771284,4.58,2.9,3.23,627.802307129,1.42,1.59,121.91,13.76,0.0,0.08
1526670069.99883103,46871244,5.19,3.6,3.96,734.320373535,1.18,1.54,121.91,17.38,0.0,0.08
1526670070.09879112,46971204,5.79,4.23,4.67,872.295898438,0.83,1.4,121.91,21.1,0.0,0.08
1526670070.19875097,47071164,6.33,4.83,5.33,1052.32495117,0.39,1.21,121.91,24.92,0.0,0.08
1526670070.29871106,47171124,6.82,5.42,5.93,1245.42053223,-0.12,0.92,121.91,28.79,0.0,0.08
1526670070.39867115,47271084,7.23,5.99,6.47,1369.5090332,-0.7,0.51,121.91,32.7,0.0,0.08
1526670070.49863100,47371044,7.56,6.51,6.93,1434.58007812,-1.31,0.03,121.91,36.65,0.0,0.08
1526670070.59859109,47471004,7.8,6.92,7.3,1454.234375,-1.97,-0.49,121.91,40.62,0.0,0.08
1526670070.69855118,47570964,7.87,7.25,7.59,1449.25976562,-2.67,-1.11,121.91,44.58,0.0,0.08
1526670070.79851103,47670924,7.66,7.46,7.75,1423.82080078,-3.32,-1.77,121.91,48.58,0.0,0.08
1526670070.89847112,47770884,7.31,7.5,7.75,1382.71337891,-3.89,-2.4,121.91,52.58,0.0,0.08
1526670070.99843097,47870844,6.91,7.46,7.59,1321.92810059,-4.45,-3.02,121.91,56.53,0.0,0.07
1526670071.09839106,47970804,6.5,7.33,7.29,1247.83422852,-4.99,-3.56,121.91,60.51,0.0,0.07
1526670071.19835114,48070764,6.05,7.17,6.9,1194.13146973,-5.48,-4.14,121.91,64.45,0.0,0.02
1526670071.29831100,48170724,5.6,6.88,6.44,1200.81884766,-5.95,-4.77,121.91,68.41,0.0,0.02
1526670071.39827108,48270684,5.28,6.51,5.95,1264.76806641,-6.53,-5.4,121.91,72.4,0.0,0.02
1526670071.49823117,48370644,5.03,6.09,5.49,1363.50280762,-7.18,-6.01,121.91,76.4,0.0,0.02
1526670071.59902406,48471437,4.79,5.64,5.1,1446.37390137,-7.88,-6.56,121.91,80.43,0.0,0.03
1526670071.69898415,48571397,4.55,5.22,4.77,1490.94958496,-8.57,-7.03,121.91,84.42,0.0,0.07
1526670071.79894400,48671357,4.26,4.88,4.49,1501.56323242,-9.29,-7.53,121.91,88.46,0.0,0.07
1526670071.89890409,48771317,3.74,4.59,4.23,1493.48205566,-9.81,-8.11,121.91,92.52,0.0,0.08
1526670071.99886417,48871277,3.05,4.28,3.92,1483.9050293,-10.12,-8.74,121.91,96.59,0.0,0.08
1526670072.09882402,48971237,2.3,3.85,3.51,1237.81604004,-10.36,-9.33,121.91,100.69,0.0,0.08
1526670072.19878411,49071197,0.72,3.16,2.92,1084.51074219,-8.31,-9.69,121.91,104.81,0.0,0.08
1526670072.29874396,49171157,-0.42,2.06,2.06,777.13861084,-6.72,-9.35,121.91,108.93,0.0,0.06
1526670072.39870405,49271117,-1.11,0.96,1.08,603.965209961,-6.04,-8.53,121.91,112.94,0.0,0.05
1526670072.49866414,49371077,-1.6,0.04,0.12,510.162658691,-5.66,-7.67,121.91,116.85,0.0,0.04
1526670072.59862399,49471037,-1.95,-0.7,-0.74,427.430450439,-5.4,-6.95,121.91,120.42,0.0,0.04
1526670072.69858408,49570997,-2.13,-1.32,-1.44,377.81149292,-5.3,-6.38,121.91,123.33,0.0,0.04
1526670072.79854417,49670957,-2.19,-1.85,-1.93,344.957092285,-5.33,-5.97,121.91,125.38,0.0,0.03
1526670072.89850402,49770917,-2.13,-2.25,-2.22,309.621673584,-5.41,-5.66,121.91,126.55,0.0,0.02
1526670072.99846411,49870877,-1.97,-2.46,-2.3,289.627258301,-5.56,-5.42,121.91,126.95,0.0,0.01
1526670073.09842420,49970837,-1.69,-2.42,-2.2,295.775268555,-5.82,-5.28,121.91,126.69,0.0,0.0
1526670073.19838405,50070797,-1.36,-2.21,-1.96,314.238006592,-6.1,-5.26,121.91,126.03,0.0,0.0
1526670073.29834414,50170757,-0.99,-1.88,-1.6,342.026977539,-6.35,-5.33,121.91,125.12,0.0,0.0
1526670073.39830399,50270717,-0.63,-1.48,-1.18,378.482513428,-6.54,-5.49,121.91,124.12,0.0,0.0
1526670073.49826407,50370677,-0.27,-1.02,-0.72,412.146209717,-6.77,-5.71,121.91,123.13,0.0,0.0
1526670073.59822416,50470637,0.0,-0.55,-0.28,434.204650879,-7.05,-6.0,121.91,122.22,0.0,0.0
1526670073.69901705,50571430,0.23,-0.12,0.1,443.926757812,-7.29,-6.33,121.91,121.39,0.0,0.0
1526670073.79897714,50671390,0.36,0.19,0.43,450.02835083,-7.39,-6.63,121.91,120.84,0.0,0.0
1526670073.89893699,50771350,0.4,0.39,0.66,461.845306396,-7.53,-6.87,121.91,120.59,0.0,0.0
1526670073.99889708,50871310,0.39,0.47,0.79,486.280456543,-7.58,-7.06,121.91,120.62,0.0,0.0
1526670074.09885716,50971270,0.32,0.53,0.82,513.912597656,-7.64,-7.2,121.91,120.78,0.0,0.0
1526670074.19881701,51071230,0.22,0.54,0.78,522.823486328,-7.77,-7.35,121.91,121.0,0.0,0.0
1526670074.29877710,51171190,0.14,0.42,0.66,526.894104004,-7.95,-7.53,121.91,121.29,0.0,0.01
1526670074.39873719,51271150,0.03,0.32,0.51,526.188354492,-7.98,-7.66,121.91,121.64,0.0,0.01
1526670074.49869704,51371110,-0.04,0.16,0.35,519.74822998,-8.09,-7.75,121.91,122.06,0.0,0.01
1526670074.59865713,51471070,-0.11,0.07,0.18,510.390319824,-8.11,-7.84,121.91,122.43,0.0,0.01
1526670074.69861698,51571030,-0.2,0.02,0.04,54.3807907104,-8.22,-7.99,121.91,122.75,0.0,0.01
1526670074.79857707,51670990,-0.25,-0.03,-0.08,31.9032859802,-8.26,-8.14,121.91,122.91,0.0,0.0
1526670074.89853716,51770950,-0.26,-0.1,-0.17,36.0342979431,-8.32,-8.26,121.91,122.96,0.0,0.0
1526670074.99849701,51870910,-0.27,-0.15,-0.23,44.6259231567,-8.34,-8.37,121.91,123.0,0.0,0.0
1526670075.09845710,51970870,-0.24,-0.18,-0.26,51.5320396423,-8.31,-8.46,121.91,122.98,0.0,0.0
1526670075.19841719,52070830,-0.2,-0.25,-0.26,48.3140182495,-8.3,-8.55,121.91,122.9,0.0,0.0
1526670075.29837704,52170790,-0.17,-0.3,-0.23,43.8160362244,-8.22,-8.61,121.91,122.77,0.0,0.01
1526670075.39833713,52270750,-0.13,-0.37,-0.18,59.6933288574,-8.16,-8.62,121.91,122.61,0.0,0.0
1526670075.49829698,52370710,-0.05,-0.45,-0.12,127.002754211,-8.2,-8.57,121.91,122.41,0.0,0.0
1526670075.59825706,52470670,0.02,-0.47,-0.06,252.169219971,-8.19,-8.44,121.91,122.25,0.0,0.0
1526670075.69821715,52570630,0.14,-0.39,0.02,393.054229736,-8.24,-8.3,121.91,122.04,0.0,0.0
1526670075.79901004,52671423,0.26,-0.2,0.11,474.373901367,-8.27,-8.19,121.91,121.8,0.0,0.0
1526670075.89897013,52771383,0.39,0.02,0.22,486.746124268,-8.25,-8.14,121.91,121.63,0.0,0.0
1526670075.99892998,52871343,0.46,0.23,0.33,468.518463135,-8.27,-8.13,121.91,121.55,0.0,0.0
1526670076.09889007,52971303,0.5,0.39,0.43,440.740325928,-8.32,-8.12,121.91,121.45,0.0,0.0
1526670076.19885015,53071263,0.49,0.52,0.5,413.341247559,-8.37,-8.16,121.91,121.36,0.0,0.0
1526670076.29881001,53171223,0.46,0.56,0.55,389.047302246,-8.38,-8.18,121.91,121.33,0.0,0.0
1526670076.39877009,53271183,0.41,0.61,0.56,367.722473145,-8.45,-8.19,121.91,121.35,0.0,0.0
1526670076.49873018,53371143,0.33,0.64,0.54,351.640625,-8.54,-8.27,121.91,121.45,0.0,0.0
1526670076.59869003,53471103,0.25,0.65,0.48,344.091918945,-8.51,-8.41,121.91,121.54,0.0,0.0
1526670076.69865012,53571063,0.16,0.61,0.4,345.20892334,-8.55,-8.51,121.91,121.62,0.0,0.0
1526670076.79860997,53671023,0.06,0.54,0.3,353.220336914,-8.6,-8.63,121.91,121.72,0.0,0.0
1526670076.89857006,53770983,-0.01,0.43,0.19,361.550994873,-8.56,-8.73,121.91,121.78,0.0,0.0
1526670076.99853015,53870943,-0.09,0.33,0.08,371.473358154,-8.62,-8.76,121.91,121.84,0.0,0.0
1526670077.09849000,53970903,-0.1,0.22,0.0,378.797485352,-8.59,-8.77,121.91,121.9,0.0,0.0
1526670077.19845009,54070863,-0.13,0.1,-0.07,380.279541016,-8.62,-8.78,121.91,122.02,0.0,0.0
1526670077.29841018,54170823,-0.13,-0.02,-0.12,237.845870972,-8.64,-8.81,121.91,122.16,0.0,0.0
1526670077.39837003,54270783,-0.16,-0.18,-0.15,135.106750488,-8.63,-8.86,121.91,122.34,0.0,0.01
1526670077.49833012,54370743,-0.15,-0.33,-0.17,124.065666199,-8.68,-8.86,121.91,122.5,0.0,0.01
1526670077.59828997,54470703,-0.12,-0.39,-0.17,186.161315918,-8.65,-8.82,121.91,122.59,0.0,0.0
1526670077.69825006,54570663,-0.05,-0.41,-0.14,267.411499023,-8.68,-8.82,121.91,122.65,0.0,0.0
1526670077.79821014,54670623,0.02,-0.43,-0.1,369.89855957,-8.61,-8.77,121.91,122.69,0.0,0.0
1526670077.89900303,54771416,0.12,-0.38,-0.03,478.515014648,-8.67,-8.72,121.91,122.69,0.0,0.0
1526670077.99896312,54871376,0.22,-0.31,0.04,573.110961914,-8.68,-8.65,121.91,122.68,0.0,0.0
1526670078.09892297,54971336,0.31,-0.12,0.13,618.703125,-8.69,-8.57,121.91,122.56,0.0,0.0
1526670078.19888306,55071296,0.37,0.07,0.23,601.982299805,-8.66,-8.53,121.91,122.43,0.0,0.0
1526670078.29884315,55171256,0.4,0.24,0.32,562.517211914,-8.71,-8.6,121.91,122.29,0.0,0.0
1526670078.39880300,55271216,0.41,0.31,0.39,520.032775879,-8.75,-8.68,121.91,122.13,0.0,0.0
1526670078.49876308,55371176,0.42,0.36,0.44,487.722595215,-8.75,-8.68,121.91,122.02,0.0,0.0
1526670078.59872317,55471136,0.43,0.48,0.47,454.198150635,-8.71,-8.8,121.91,121.91,0.0,0.0
1526670078.69868302,55571096,0.43,0.5,0.48,424.089416504,-8.77,-8.92,121.91,121.79,0.0,0.0
1526670078.79864311,55671056,0.42,0.52,0.48,397.891571045,-8.77,-8.96,121.91,121.71,0.0,0.0
1526670078.89860296,55771016,0.42,0.5,0.46,375.078125,-8.74,-8.91,121.91,121.71,0.0,0.0
1526670078.99856305,55870976,0.4,0.47,0.45,354.37612915,-8.73,-8.86,121.91,121.76,0.0,0.0
1526670079.09852314,55970936,0.41,0.46,0.43,336.119689941,-8.81,-8.84,121.91,121.7,0.0,0.0
1526670079.19848299,56070896,0.42,0.45,0.41,319.597045898,-8.82,-8.8,121.91,121.69,0.0,0.0
1526670079.29844308,56170856,0.38,0.47,0.4,305.661651611,-8.83,-8.77,121.91,121.71,0.0,0.0
1526670079.39840317,56270816,0.35,0.47,0.38,294.451812744,-8.89,-8.73,121.91,121.73,0.0,0.0
1526670079.49836302,56370776,0.29,0.44,0.36,284.422515869,-8.94,-8.71,121.91,121.72,0.0,0.0
1526670079.59832311,56470736,0.26,0.41,0.32,275.015960693,-9.02,-8.71,121.91,121.68,0.0,0.0
1526670079.69828320,56570696,0.2,0.38,0.29,267.155792236,-8.97,-8.74,121.91,121.67,0.0,0.0
1526670079.79824305,56670656,0.14,0.34,0.24,259.47177124,-8.98,-8.79,121.91,121.75,0.0,0.0
1526670079.89820313,56770616,0.12,0.33,0.2,115.303543091,-9.0,-8.82,121.91,121.87,0.0,0.0
1526670079.99899602,56871409,0.08,0.33,0.15,163.346588135,-8.97,-8.87,121.91,121.96,0.0,0.0
1526670080.09895611,56971369,0.06,0.33,0.11,233.119827271,-8.98,-8.97,121.91,122.02,0.0,0.0
1526670080.19891620,57071329,0.03,0.28,0.08,279.526000977,-9.07,-9.04,121.91,122.08,0.0,0.0
1526670080.29887605,57171289,0.02,0.2,0.05,286.078033447,-9.09,-9.08,121.91,122.12,0.0,0.0
1526670080.39883614,57271249,0.01,0.08,0.03,255.481521606,-9.13,-9.13,121.91,122.24,0.0,0.0
1526670080.49879599,57371209,0.01,-0.04,0.01,220.358795166,-9.14,-9.16,121.91,122.33,0.0,0.0
1526670080.59875607,57471169,0.0,-0.19,0.01,214.690139771,-9.17,-9.15,121.91,122.45,0.0,0.0
1526670080.69871616,57571129,0.0,-0.33,0.0,277.051269531,-9.11,-9.12,121.91,122.5,0.0,0.0
1526670080.79867601,57671089,0.04,-0.36,0.01,380.824951172,-9.1,-9.04,121.91,122.49,0.0,0.0
1526670080.89863610,57771049,0.1,-0.33,0.02,470.038208008,-9.13,-9.01,121.91,122.48,0.0,0.0
1526670080.99859619,57871009,0.16,-0.25,0.06,521.536743164,-9.13,-8.97,121.91,122.53,0.0,0.0
1526670081.09855604,57970969,0.23,-0.18,0.11,551.040344238,-9.18,-8.97,121.91,122.55,0.0,0.0
1526670081.19851613,58070929,0.28,-0.08,0.16,566.556762695,-9.17,-9.01,121.91,122.5,0.0,0.0
1526670081.29847598,58170889,0.35,0.05,0.23,559.797790527,-9.17,-9.07,121.91,122.48,0.0,0.0
1526670081.39843607,58270849,0.39,0.16,0.29,540.36114502,-9.24,-9.15,121.91,122.44,0.0,0.0
1526670081.49839616,58370809,0.42,0.24,0.35,518.489562988,-9.19,-9.2,121.91,122.35,0.0,0.0
1526670081.59835601,58470769,0.46,0.3,0.41,496.586120605,-8.84,-9.19,121.91,122.21,0.0,0.0
1526670081.69831610,58570729,0.48,0.29,0.45,480.639923096,-8.29,-9.09,121.91,122.08,0.0,0.0
1526670081.79827619,58670689,0.51,0.23,0.49,479.886901855,-7.65,-8.87,121.91,121.99,0.0,0.0
1526670081.89823604,58770649,0.55,0.19,0.51,497.458007812,-6.94,-8.48,121.91,121.87,0.0,0.0
1526670081.99819613,58870609,0.61,0.18,0.54,531.087768555,-6.17,-7.97,121.91,121.67,0.0,0.0
1526670082.09898901,58971402,0.68,0.18,0.58,572.524414062,-5.28,-7.33,121.91,121.53,0.0,0.0
1526670082.19894910,59071362,0.81,0.18,0.63,624.720336914,-4.39,-6.56,121.91,121.44,0.0,0.02
1526670082.29890919,59171322,0.93,0.17,0.7,700.206054688,-3.46,-5.73,121.91,121.37,0.0,0.02
1526670082.39886904,59271282,1.03,0.26,0.79,787.26348877,-2.51,-4.85,121.91,121.31,0.0,0.02
1526670082.49882913,59371242,1.11,0.36,0.89,2911.11181641,-1.28,-3.91,121.91,121.36,0.0,0.02
1526670082.59878898,59471202,1.21,0.48,1.0,2938.39428711,0.0,-2.81,279.32,121.46,0.0,0.03
1526670082.69874907,59571162,1.26,0.73,1.1,2629.8918457,0.88,-1.64,279.32,122.11,0.0,0.03
1526670082.79870915,59671122,1.29,0.94,1.19,2210.91943359,1.6,-0.59,279.32,123.61,0.0,0.01
1526670082.89866900,59771082,1.3,1.12,1.25,1846.05761719,2.28,0.33,279.32,125.74,0.0,0.0
1526670082.99862909,59871042,1.27,1.25,1.3,1554.20141602,2.98,1.12,279.32,128.28,0.0,0.0
1526670083.09858918,59971002,1.21,1.31,1.3,1333.11657715,3.43,1.85,279.32,131.13,0.0,0.0
1526670083.19854903,60070962,1.37,1.37,1.3,1167.45922852,3.56,2.43,279.32,134.2,0.0,0.01
1526670083.29850912,60170922,1.68,1.52,1.35,1053.08618164,3.55,2.87,279.32,137.52,0.0,0.01
1526670083.39846897,60270882,2.03,1.75,1.47,997.412353516,3.42,3.12,279.32,141.09,0.0,0.02
1526670083.49842906,60370842,2.41,2.01,1.67,991.351379395,3.16,3.21,279.32,144.79,0.0,0.02
1526670083.59838915,60470802,2.79,2.28,1.96,1001.34552002,2.85,3.22,279.32,148.53,0.0,0.02
1526670083.69834900,60570762,3.15,2.53,2.3,975.885437012,2.54,3.19,279.32,152.27,0.0,0.08
1526670083.79830909,60670722,3.53,2.78,2.69,925.805725098,2.18,3.1,279.32,156.02,0.0,0.09
1526670083.89826918,60770682,3.92,3.03,3.1,865.28729248,1.8,2.96,279.32,159.76,0.0,0.09
1526670083.99822903,60870642,4.32,3.4,3.52,817.995117188,1.36,2.72,279.32,163.59,0.0,0.09
1526670084.09902215,60971435,4.71,3.79,3.95,783.202087402,0.88,2.36,279.32,167.46,0.0,0.1
1526670084.19898200,61071395,5.07,4.18,4.36,757.187255859,0.43,1.96,279.32,171.31,0.0,0.02
1526670084.29894209,61171355,5.45,4.58,4.76,736.939453125,-0.01,1.53,279.32,175.17,0.0,0.02
1526670084.39890218,61271315,5.78,4.96,5.14,716.976318359,-0.48,1.06,279.32,179.04,0.0,0.02
1526670084.49886203,61371275,6.08,5.29,5.5,702.233276367,-0.95,0.58,279.32,182.9,0.0,0.02
1526670084.59882212,61471235,6.15,5.6,5.81,692.259155273,-1.38,0.08,279.32,186.67,0.0,0.02
1526670084.69878197,61571195,5.94,5.85,6.01,680.639587402,-1.77,-0.39,279.32,190.41,0.0,0.02
1526670084.79874206,61671155,5.69,5.99,6.06,658.652893066,-2.11,-0.92,279.32,194.16,0.0,0.02
1526670084.89870214,61771115,5.43,6.0,5.98,633.21697998,-2.47,-1.43,279.32,197.89,0.0,0.02
1526670084.99866199,61871075,5.19,5.86,5.8,609.600646973,-2.79,-1.92,279.32,201.69,0.0,0.02
1526670085.09862208,61971035,4.99,5.65,5.54,69.105430603,-3.03,-2.34,279.32,205.45,0.0,0.02
1526670085.19858217,62070995,4.82,5.42,5.26,136.930648804,-3.29,-2.72,279.32,209.27,0.0,0.02
1526670085.29854202,62170955,4.71,5.18,4.99,183.253616333,-3.53,-3.04,279.32,213.15,0.0,0.02
1526670085.39850211,62270915,4.63,4.96,4.75,231.260223389,-3.8,-3.3,279.32,217.02,0.0,0.02
1526670085.49846196,62370875,4.6,4.76,4.57,257.100006104,-4.11,-3.47,279.32,220.93,0.0,0.02
1526670085.59842205,62470835,4.75,4.66,4.48,261.175415039,-4.65,-3.66,279.32,224.96,0.0,0.02
1526670085.69838214,62570795,4.91,4.65,4.49,262.969299316,-5.37,-3.97,279.32,228.94,0.0,0.02
1526670085.79834199,62670755,4.97,4.75,4.57,261.500488281,-6.17,-4.38,279.32,232.92,0.0,0.09
1526670085.89830208,62770715,4.94,4.92,4.69,273.449890137,-6.95,-4.92,279.32,236.92,0.0,0.09
1526670085.99826217,62870675,4.77,5.05,4.79,308.849914551,-7.78,-5.67,279.32,240.87,0.0,0.08
1526670086.09822202,62970635,4.35,5.01,4.81,327.596374512,-8.41,-6.48,279.32,244.82,0.0,0.07
1526670086.19901514,63071428,3.71,4.73,4.69,314.16015625,-8.76,-7.23,279.32,248.76,0.0,0.07
1526670086.29897499,63171388,2.98,4.36,4.38,290.285491943,-9.03,-7.79,279.32,252.75,0.0,0.01
1526670086.39893508,63271348,2.23,3.9,3.89,269.748596191,-9.18,-8.35,279.32,256.69,0.0,0.01
1526670086.49889517,63371308,1.49,3.33,3.26,252.652832031,-9.24,-8.84,279.32,260.65,0.0,0.01
1526670086.59885502,63471268,0.77,2.61,2.52,240.932449341,-9.21,-9.18,279.32,264.58,0.0,0.01
1526670086.69881511,63571228,0.06,1.9,1.73,236.025802612,-9.1,-9.34,279.32,268.54,0.0,0.01
1526670086.79877520,63671188,-0.61,1.16,0.92,248.001495361,-8.97,-9.4,279.32,272.4,0.0,0.01
1526670086.89873505,63771148,-1.34,0.24,0.12,256.678344727,-7.09,-9.26,279.32,276.06,0.0,0.01
1526670086.99869514,63871108,-1.76,-0.8,-0.62,247.970062256,-6.09,-8.73,279.32,279.31,0.0,0.01
1526670087.09865499,63971068,-1.97,-1.67,-1.24,282.545623779,-5.65,-7.89,279.32,281.92,0.0,0.02
1526670087.19861507,64071028,-2.0,-2.27,-1.7,388.030212402,-5.48,-6.99,279.32,283.82,0.0,0.01
1526670087.29857516,64170988,-1.84,-2.6,-1.96,531.76763916,-5.51,-6.24,279.32,284.89,0.0,0.0
1526670087.39853501,64270948,-1.59,-2.65,-2.01,682.729309082,-5.68,-5.72,279.32,285.25,0.0,0.01
1526670087.49849510,64370908,-1.25,-2.44,-1.88,802.760864258,-5.95,-5.39,279.32,284.99,0.0,0.02
1526670087.59845519,64470868,-0.86,-2.04,-1.59,870.637634277,-6.29,-5.3,279.32,284.2,0.0,0.03
1526670087.69841504,64570828,-0.47,-1.52,-1.19,1426.31652832,-6.63,-5.37,279.32,283.06,0.0,0.03
1526670087.79837513,64670788,-0.11,-0.96,-0.73,1090.94628906,-6.97,-5.61,279.32,281.83,0.0,0.02
1526670087.89833498,64770748,0.21,-0.37,-0.25,829.494750977,-7.31,-5.96,279.32,280.68,0.0,0.02
1526670087.99829507,64870708,0.42,0.13,0.18,638.070800781,-7.62,-6.37,279.32,279.66,0.0,0.02
1526670088.09825516,64970668,0.51,0.56,0.55,512.262939453,-7.89,-6.78,279.32,278.81,0.0,0.02
1526670088.19821501,65070628,0.65,0.89,0.81,430.387237549,-7.0,-7.13,14.26,278.29,0.0,0.01
1526670088.29900813,65171421,1.2,1.04,1.04,373.109039307,-4.99,-6.98,14.26,278.63,0.0,0.0
1526670088.39896798,65271381,1.87,1.14,1.32,342.93951416,-4.09,-6.29,14.26,279.94,0.0,0.01
1526670088.49892807,65371341,2.36,1.43,1.67,364.209533691,-3.61,-5.37,14.26,282.0,0.0,0.02
1526670088.59888816,65471301,2.64,1.82,2.05,388.041748047,-3.4,-4.55,14.26,284.57,0.0,0.03
1526670088.69884801,65571261,2.88,2.23,2.41,393.730499268,-3.37,-3.97,14.26,287.54,0.0,0.03
1526670088.79880810,65671221,3.08,2.57,2.73,385.973968506,-3.45,-3.65,14.26,290.8,0.0,0.03
1526670088.89876819,65771181,3.25,2.84,3.01,378.336517334,-3.61,-3.53,14.26,294.29,0.0,0.03
1526670088.99872804,65871141,3.39,3.11,3.24,368.402679443,-3.85,-3.48,14.26,297.9,0.0,0.03
1526670089.09868813,65971101,3.51,3.34,3.41,350.40447998,-4.13,-3.58,14.26,301.6,0.0,0.02
1526670089.19864798,66071061,3.61,3.49,3.54,330.800415039,-4.43,-3.79,14.26,305.41,0.0,0.02
1526670089.29860806,66171021,3.71,3.56,3.64,314.144775391,-4.77,-4.03,14.26,309.33,0.0,0.02
1526670089.39856815,66270981,3.74,3.64,3.71,300.870178223,-5.13,-4.28,14.26,313.28,0.0,0.02
1526670089.49852800,66370941,3.76,3.69,3.75,287.377563477,-5.49,-4.54,14.26,317.26,0.0,0.02
1526670089.59848809,66470901,3.72,3.79,3.76,273.672821045,-5.85,-4.85,14.26,321.28,0.0,0.02
1526670089.69844818,66570861,3.62,3.84,3.74,262.981842041,-6.19,-5.23,14.26,325.3,0.0,0.02
1526670089.79840803,66670821,3.45,3.78,3.69,255.038269043,-6.53,-5.64,14.26,329.38,0.0,0.02
1526670089.89836812,66770781,3.2,3.66,3.58,247.436660767,-6.84,-5.95,14.26,333.45,0.0,0.03
1526670089.99832797,66870741,2.87,3.48,3.4,239.421630859,-7.1,-6.29,14.26,337.54,0.0,0.04
1526670090.09828806,66970701,2.49,3.26,3.16,232.59727478,-7.33,-6.61,14.26,341.66,0.0,0.04
1526670090.19824815,67070661,2.0,2.96,2.85,227.278427124,-7.52,-6.93,14.26,345.79,0.0,0.05
1526670090.29820800,67170621,1.46,2.59,2.45,154.816925049,-7.69,-7.24,14.26,349.9,0.0,0.05
1526670090.39900112,67271414,0.91,2.13,1.99,165.012313843,-7.79,-7.46,14.26,354.1,0.0,0.05
1526670090.49896097,67371374,0.47,1.69,1.48,209.280807495,-8.13,-7.65,14.26,358.31,0.0,0.02
1526670090.59892106,67471334,-0.02,1.24,0.96,305.465118408,-8.57,-7.85,14.26,2.49,0.0,0.02
1526670090.69888115,67571294,-0.57,0.76,0.44,424.990386963,-9.03,-8.12,14.26,6.62,0.0,0.02
1526670090.79884100,67671254,-1.21,0.23,-0.09,532.793640137,-9.46,-8.51,14.26,10.61,0.0,0.02
1526670090.89880109,67771214,-1.86,-0.46,-0.66,574.681945801,-9.84,-9.0,14.26,14.1,0.0,0.01
1526670090.99876118,67871174,-2.45,-1.29,-1.25,518.273803711,-10.18,-9.46,14.26,16.97,0.0,0.0
1526670091.09872103,67971134,-2.86,-2.13,-1.82,502.182159424,-10.49,-9.85,14.26,18.87,0.0,0.0
1526670091.19868112,68071094,-3.08,-2.8,-2.33,611.06036377,-10.81,-10.13,14.26,19.9,0.0,0.01
1526670091.29864097,68171054,-3.09,-3.24,-2.73,770.760314941,-11.19,-10.34,14.26,20.11,0.0,0.01
1526670091.39860106,68271014,-2.93,-3.43,-2.97,906.861999512,-11.62,-10.54,14.26,19.75,0.0,0.02
1526670091.49856114,68370974,-2.58,-3.35,-3.02,959.548828125,-12.11,-10.83,14.26,18.91,0.0,0.01
1526670091.59852099,68470934,-2.15,-3.08,-2.89,935.072875977,-12.61,-11.24,14.26,17.84,0.0,0.01
1526670091.69848108,68570894,-1.7,-2.71,-2.59,887.928466797,-13.11,-11.64,14.26,16.69,0.0,0.01
1526670091.79844117,68670854,-1.27,-2.17,-2.16,835.41973877,-13.56,-12.1,14.26,15.51,0.0,0.0
1526670091.89840102,68770814,-0.81,-1.62,-1.66,786.796569824,-14.0,-12.59,14.26,14.4,0.0,0.0
1526670091.99836111,68870774,-0.45,-1.05,-1.13,745.865783691,-14.25,-13.03,14.26,13.5,0.0,0.08
1526670092.09832096,68970734,-0.19,-0.55,-0.63,711.187683105,-14.38,-13.45,14.26,12.9,0.0,0.08
1526670092.19828105,69070694,-0.05,-0.17,-0.21,678.289001465,-14.47,-13.8,14.26,12.6,0.0,0.09
1526670092.29824114,69170654,-0.01,0.02,0.1,646.899902344,-14.53,-14.04,14.26,12.59,0.0,0.09
1526670092.39820099,69270614,-0.07,0.09,0.29,629.245605469,-14.58,-14.27,14.26,12.87,0.0,0.09
1526670092.49899411,69371407,-0.21,0.13,0.35,623.712036133,-14.59,-14.49,14.26,13.32,0.0,0.09
1526670092.59895396,69471367,-0.35,0.03,0.28,621.161010742,-14.63,-14.7,14.26,13.77,0.0,0.0
1526670092.69891405,69571327,-0.45,-0.16,0.13,627.071289062,-14.65,-14.89,14.26,14.22,0.0,0.0
1526670092.79887414,69671287,-0.55,-0.41,-0.05,643.378662109,-14.69,-15.03,14.26,14.6,0.0,0.0
1526670092.89883399,69771247,-0.61,-0.67,-0.26,1486.97790527,-14.73,-15.1,14.26,14.88,0.0,0.0
1526670092.99879408,69871207,-0.62,-0.85,-0.44,1595.15576172,-14.78,-15.09,14.26,15.02,0.0,0.0
1526670093.09875417,69971167,-0.56,-0.98,-0.58,1602.28686523,-14.87,-15.04,14.26,15.08,0.0,0.0
1526670093.19871402,70071127,-0.42,-1.04,-0.65,1586.89880371,-13.91,-14.95,14.26,15.07,0.0,0.0
1526670093.29867411,70171087,-0.11,-1.2,-0.61,1718.70605469,-10.82,-14.38,14.26,15.03,0.0,0.01
1526670093.39863420,70271047,0.11,-1.33,-0.48,2311.00244141,-9.8,-13.24,14.26,15.03,0.0,0.02
1526670093.49859405,70371007,0.35,-1.19,-0.28,3129.82373047,-9.29,-11.92,14.26,15.01,0.0,0.01
1526670093.59855413,70470967,0.57,-0.84,-0.02,3672.85888672,-9.18,-10.8,14.26,14.92,0.0,0.0
1526670093.69851398,70570927,0.77,-0.34,0.24,3828.59643555,-9.56,-10.02,14.26,14.8,0.0,0.0
1526670093.79847407,70670887,0.9,0.2,0.51,3647.73291016,-9.84,-9.66,14.26,14.75,0.0,0.0
1526670093.89843416,70770847,0.93,0.7,0.74,3347.84790039,-10.42,-9.64,14.26,14.78,0.0,0.0
1526670093.99839401,70870807,0.92,1.03,0.91,3072.22631836,-10.82,-9.9,14.26,14.82,0.0,0.0
1526670094.09835410,70970767,0.84,1.2,1.0,2854.8347168,-11.28,-10.26,14.26,14.8,0.0,0.07
1526670094.19831419,71070727,0.74,1.29,1.01,2691.9675293,-11.65,-10.66,14.26,14.67,0.0,0.08
1526670094.29827404,71170687,0.64,1.24,0.96,2565.47094727,-11.94,-11.05,14.26,14.53,0.0,0.09
1526670094.39823413,71270647,0.56,1.14,0.86,2450.86328125,-12.3,-11.37,14.26,14.25,0.0,0.09
1526670094.49819398,71370607,0.52,1.11,0.73,2372.37890625,-12.52,-11.72,14.26,13.93,0.0,0.09
1526670094.59898710,71471400,0.41,1.02,0.6,2328.68530273,-12.92,-12.06,14.26,13.79,0.0,0.09
1526670094.69894719,71571360,0.32,0.95,0.47,2306.92822266,-13.29,-12.43,14.26,13.71,0.0,0.01
1526670094.79890704,71671320,0.24,0.87,0.35,2316.10839844,-13.44,-12.83,14.26,13.64,0.0,0.0
1526670094.89886713,71771280,0.22,0.73,0.25,2324.88476562,-13.41,-13.16,14.26,13.69,0.0,0.0
1526670094.99882698,71871240,0.18,0.54,0.17,2300.68823242,-13.18,-13.38,14.26,13.8,0.0,0.0
1526670095.09878707,71971200,0.09,0.37,0.11,2239.47436523,-13.44,-13.46,14.26,14.05,0.0,0.0
1526670095.19874716,72071160,0.0,0.24,0.06,2165.6965332,-13.68,-13.51,14.26,14.35,0.0,0.0
1526670095.29870701,72171120,-0.05,0.05,0.01,2084.85717773,-13.67,-13.59,14.26,14.71,0.0,0.0
1526670095.39866710,72271080,-0.1,-0.11,-0.03,2005.38330078,-13.84,-13.66,14.26,15.03,0.0,0.0
1526670095.49862719,72371040,-0.06,-0.19,-0.06,105.582046509,-13.69,-13.69,14.26,15.2,0.0,0.0
1526670095.59858704,72471000,-0.01,-0.26,-0.07,181.632949829,-13.58,-13.75,14.26,15.28,0.0,0.0
1526670095.69854712,72570960,0.07,-0.34,-0.05,303.414123535,-13.63,-13.78,14.26,15.21,0.0,0.0
1526670095.79850698,72670920,0.2,-0.39,0.0,503.645507812,-13.6,-13.75,14.26,15.05,0.0,0.0
1526670095.89846706,72770880,0.32,-0.34,0.07,728.719604492,-13.69,-13.61,14.26,14.89,0.0,0.0
1526670095.99842715,72870840,0.47,-0.2,0.18,871.206787109,-13.69,-13.52,14.26,14.71,0.0,0.0
1526670096.09838700,72970800,0.57,-0.02,0.31,942.172668457,-13.75,-13.48,14.26,14.59,0.0,0.0
1526670096.19834709,73070760,0.64,0.16,0.45,952.773254395,-13.66,-13.49,14.26,14.53,0.0,0.07
1526670096.29830718,73170720,0.69,0.4,0.56,909.178466797,-13.62,-13.53,14.26,14.47,0.0,0.08
1526670096.39826703,73270680,0.69,0.61,0.66,831.159973145,-13.88,-13.61,14.26,14.44,0.0,0.08
1526670096.49822712,73370640,0.72,0.78,0.72,756.510253906,-14.12,-13.72,14.26,14.32,0.0,0.08
1526670096.59902000,73471433,0.75,0.93,0.77,703.657897949,-14.03,-13.87,14.26,14.1,0.0,0.08
1526670096.69898009,73571393,0.76,1.02,0.79,677.148620605,-14.18,-14.04,14.26,13.92,0.0,0.01
1526670096.79894018,73671353,0.76,1.01,0.8,663.296325684,-14.14,-14.19,14.26,13.76,0.0,0.0
1526670096.89890003,73771313,0.74,0.97,0.79,644.398864746,-14.19,-14.27,14.26,13.72,0.0,0.0
1526670096.99886012,73871273,0.69,0.88,0.77,617.40222168,-14.02,-14.29,14.26,13.79,0.0,0.0
1526670097.09881997,73971233,0.64,0.76,0.73,583.198547363,-13.94,-14.31,14.26,13.89,0.0,0.0
1526670097.19878006,74071193,0.6,0.63,0.69,551.461669922,-13.85,-14.28,14.26,14.03,0.0,0.0
1526670097.29874015,74171153,0.56,0.49,0.64,528.519836426,-13.79,-14.17,14.26,14.18,0.0,0.0
1526670097.39870000,74271113,0.51,0.37,0.58,519.011535645,-13.77,-14.04,14.26,14.33,0.0,0.0
1526670097.49866009,74371073,0.49,0.25,0.54,526.34197998,-13.83,-13.91,14.26,14.49,0.0,0.0
1526670097.59862018,74471033,0.48,0.22,0.5,539.425415039,-13.85,-13.8,14.26,14.67,0.0,0.01
1526670097.69858003,74570993,0.5,0.22,0.47,545.41809082,-13.87,-13.77,14.26,14.8,0.0,0.01
1526670097.79854012,74670953,0.49,0.16,0.46,556.454040527,-13.94,-13.74,14.26,14.92,0.0,0.01
1526670097.89849997,74770913,0.52,0.16,0.46,572.503479004,-13.85,-13.71,14.26,14.98,0.0,0.01
1526670097.99846005,74870873,0.54,0.21,0.47,582.076049805,-13.88,-13.68,14.26,15.0,0.0,0.01
1526670098.09842014,74970833,0.57,0.28,0.49,610.916992188,-13.85,-13.7,14.26,14.99,0.0,0.01
1526670098.19837999,75070793,0.62,0.33,0.53,525.510192871,-13.92,-13.68,14.26,14.89,0.0,0.01
1526670098.29834008,75170753,0.68,0.42,0.57,450.684112549,-13.88,-13.72,14.26,14.79,0.0,0.07
1526670098.39830017,75270713,0.69,0.56,0.62,371.24130249,-14.0,-13.82,14.26,14.62,0.0,0.07
1526670098.49826002,75370673,0.67,0.68,0.66,298.69354248,-14.25,-13.92,14.26,14.52,0.0,0.07
1526670098.59822011,75470633,0.64,0.79,0.68,256.551391602,-14.44,-14.06,14.26,14.49,0.0,0.07
1526670098.69901299,75571426,0.7,0.65,0.69,235.266967773,-13.22,-14.3,198.36,14.41,0.0,0.07
1526670098.79897308,75671386,1.01,-0.11,0.74,511.190917969,-9.73,-14.07,198.36,13.62,0.0,0.02
1526670098.89893317,75771346,1.36,-0.83,0.86,2417.38037109,-8.02,-12.9,198.36,12.04,0.0,0.03
1526670098.99889302,75871306,1.85,-1.07,1.06,6029.19189453,-6.88,-11.27,198.36,9.84,0.0,0.03
1526670099.09885311,75971266,2.43,-0.81,1.39,9903.33300781,-5.97,-9.57,198.36,7.19,0.0,0.02
1526670099.19881296,76071226,3.06,-0.21,1.83,12892.2841797,-5.19,-7.96,198.36,4.21,0.0,0.01
1526670099.29877305,76171186,3.68,0.58,2.37,14773.8486328,-4.49,-6.57,198.36,1.12,0.0,0.0
1526670099.39873314,76271146,4.22,1.47,2.97,15673.4521484,-3.89,-5.38,198.36,357.96,0.0,0.0
1526670099.49869299,76371106,4.63,2.35,3.58,15884.0947266,-3.35,-4.41,198.36,354.69,0.0,0.0
1526670099.59865308,76471066,4.89,3.14,4.15,15694.8935547,-2.88,-3.64,198.36,351.3,0.0,0.0
1526670099.69861317,76571026,5.02,3.83,4.62,15254.4980469,-2.46,-3.08,198.36,347.84,0.0,0.0
1526670099.79857302,76670986,5.01,4.43,4.96,14653.9365234,-2.05,-2.59,198.36,344.3,0.0,0.0
1526670099.89853311,76770946,4.85,4.88,5.14,13966.890625,-1.67,-2.24,198.36,340.7,0.0,0.01
1526670099.99849319,76870906,4.57,5.13,5.15,13280.4765625,-1.28,-1.99,198.36,336.95,0.0,0.01
1526670100.09845304,76970866,4.15,5.17,4.99,12652.5595703,-0.85,-1.77,198.36,333.11,0.0,0.02
1526670100.19841313,77070826,3.62,4.98,4.68,12104.6162109,-0.44,-1.59,198.36,329.25,0.0,0.03
1526670100.29837298,77170786,3.03,4.6,4.22,11627.5654297,0.0,-1.38,198.36,325.31,0.0,0.09
1526670100.39833307,77270746,2.34,4.09,3.65,11210.7666016,0.45,-1.13,198.36,321.38,0.0,0.1
1526670100.49829316,77370706,1.55,3.42,2.98,10839.6767578,0.91,-0.9,198.36,317.5,0.0,0.09
1526670100.59825301,77470666,0.62,2.64,2.22,10492.3720703,1.33,-0.55,198.36,313.66,0.0,0.09
1526670100.69821310,77570626,-0.46,1.74,1.36,1541.01391602,1.68,-0.16,198.36,309.88,0.0,0.08
1526670100.79900599,77671419,-1.86,0.73,0.38,1410.50012207,1.94,0.21,198.36,306.07,0.0,0.07
1526670100.89896607,77771379,-3.25,-0.41,-0.75,1339.08666992,1.93,0.49,198.36,302.3,0.0,0.04
1526670100.99892616,77871339,-3.8,-1.55,-1.92,1312.90588379,1.73,0.74,198.36,298.44,0.0,0.03
1526670101.09888601,77971299,-3.84,-2.5,-2.91,1369.66455078,1.46,0.92,198.36,294.5,0.0,0.03
1526670101.19884610,78071259,-3.58,-3.2,-3.6,1423.53747559,1.17,1.12,198.36,290.57,0.0,0.02
1526670101.29880619,78171219,-3.12,-3.54,-3.92,1453.57458496,0.87,1.3,198.36,286.69,0.0,0.02
1526670101.39876604,78271179,-2.57,-3.56,-3.88,1436.51586914,0.58,1.45,198.36,282.78,0.0,0.01
1526670101.49872613,78371139,-2.15,-3.31,-3.54,1369.18920898,0.3,1.48,198.36,278.9,0.0,0.01
1526670101.59868598,78471099,-2.09,-2.91,-3.05,1266.80102539,-0.06,1.45,198.36,275.01,0.0,0.01
1526670101.69864607,78571059,-2.21,-2.5,-2.56,1161.39941406,-0.56,1.24,198.36,271.09,0.0,0.02
1526670101.79860616,78671019,-2.37,-2.16,-2.18,1065.75146484,-1.11,0.8,198.36,267.13,0.0,0.02
1526670101.89856601,78770979,-2.54,-1.91,-1.94,984.45904541,-1.68,0.17,198.36,263.1,0.0,0.03
1526670101.99852610,78870939,-2.75,-1.81,-1.87,916.320922852,-2.23,-0.55,198.36,259.06,0.0,0.03
1526670102.09848619,78970899,-2.99,-1.87,-1.95,858.680908203,-2.78,-1.33,198.36,255.04,0.0,0.03
1526670102.19844604,79070859,-3.22,-2.01,-2.16,814.509460449,-3.29,-2.06,198.36,251.03,0.0,0.03
1526670102.29840612,79170819,-3.41,-2.22,-2.45,789.18170166,-3.76,-2.75,198.36,247.06,0.0,0.03
1526670102.39836597,79270779,-3.58,-2.48,-2.77,783.930114746,-4.24,-3.42,198.36,243.07,0.0,0.03
1526670102.49832606,79370739,-3.64,-2.74,-3.08,801.107543945,-4.68,-4.04,198.36,239.04,0.0,0.04
1526670102.59828615,79470699,-3.46,-3.03,-3.32,815.85748291,-4.91,-4.61,198.36,235.04,0.0,0.05
1526670102.69824600,79570659,-3.18,-3.33,-3.44,800.318847656,-5.03,-4.99,198.36,231.07,0.0,0.06
1526670102.79820609,79670619,-2.84,-3.51,-3.4,765.651794434,-5.14,-5.21,198.36,227.03,0.0,0.06
1526670102.89899898,79771412,-2.45,-3.51,-3.23,749.430419922,-5.29,-5.22,198.36,222.97,0.0,0.07
1526670102.99895906,79871372,-1.99,-3.32,-2.93,765.035583496,-5.47,-5.15,198.36,219.02,0.0,0.02
1526670103.09891915,79971332,-1.43,-2.98,-2.51,806.356140137,-5.69,-5.11,198.36,215.04,0.0,0.02
1526670103.19887900,80071292,-0.83,-2.49,-1.99,864.831726074,-5.92,-5.15,198.36,210.97,0.0,0.02
1526670103.29883909,80171252,-0.18,-1.89,-1.4,2393.47900391,-6.12,-5.21,198.36,206.99,0.0,0.02
1526670103.39879918,80271212,0.42,-1.12,-0.76,2093.81347656,-6.32,-5.3,198.36,203.1,0.0,0.03
1526670103.49875903,80371172,0.95,-0.28,-0.11,1611.83850098,-6.5,-5.41,198.36,199.57,0.0,0.02
1526670103.59871912,80471132,1.37,0.49,0.5,1232.65161133,-6.68,-5.6,198.36,196.64,0.0,0.02
1526670103.69867897,80571092,1.6,1.16,1.04,994.370056152,-6.87,-5.83,198.36,194.53,0.0,0.01
1526670103.79863906,80671052,1.67,1.69,1.46,884.12298584,-7.11,-6.12,198.36,193.3,0.0,0.01
1526670103.89859915,80771012,1.57,1.95,1.72,832.830322266,-7.35,-6.45,198.36,192.91,0.0,0.02
1526670103.99855900,80870972,1.35,2.04,1.81,791.255065918,-7.61,-6.76,198.36,193.18,0.0,0.03
1526670104.09851909,80970932,1.05,1.99,1.73,765.598022461,-7.85,-7.1,198.36,193.92,0.0,0.04
1526670104.19847918,81070892,0.68,1.81,1.5,774.011108398,-8.22,-7.45,198.36,194.98,0.0,0.05
1526670104.29843903,81170852,0.32,1.51,1.15,805.005371094,-8.75,-7.79,198.36,196.15,0.0,0.05
1526670104.39839911,81270812,-0.06,1.1,0.73,845.713989258,-9.33,-8.19,198.36,197.28,0.0,0.05
1526670104.49835896,81370772,-0.44,0.68,0.27,895.86340332,-9.89,-8.65,198.36,198.26,0.0,0.13
1526670104.59831905,81470732,-0.74,0.28,-0.18,967.409729004,-10.42,-9.16,198.36,199.0,0.0,0.14
1526670104.69827914,81570692,-0.91,-0.08,-0.59,1060.98974609,-10.94,-9.67,198.36,199.43,0.0,0.13
1526670104.79823899,81670652,-1.02,-0.42,-0.93,1163.52856445,-11.45,-10.18,198.36,199.62,0.0,0.12
1526670104.89819908,81770612,-1.03,-0.7,-1.16,1238.20056152,-11.93,-10.65,198.36,199.66,0.0,0.12
1526670104.99899197,81871405,-0.98,-0.87,-1.29,1278.71923828,-12.37,-11.13,198.36,199.57,0.0,0.11
1526670105.09895205,81971365,-0.86,-0.9,-1.31,1301.48986816,-12.82,-11.57,198.36,199.41,0.0,0.02
1526670105.19891214,82071325,-0.73,-0.9,-1.23,1309.73278809,-13.24,-12.02,198.36,199.23,0.0,0.01
1526670105.29887199,82171285,-0.55,-0.91,-1.08,1280.58166504,-13.62,-12.44,198.36,199.0,0.0,0.01
1526670105.39883208,82271245,-0.37,-0.85,-0.88,1227.74707031,-13.97,-12.83,198.36,198.7,0.0,0.01
1526670105.49879217,82371205,-0.21,-0.71,-0.65,1174.65844727,-14.31,-13.21,198.36,198.38,0.0,0.01
1526670105.59875202,82471165,-0.05,-0.5,-0.42,1127.9152832,-14.64,-13.6,198.36,198.0,0.0,0.0
1526670105.69871211,82571125,0.13,-0.25,-0.19,1084.94042969,-14.87,-13.96,198.36,197.68,0.0,0.0
1526670105.79867196,82671085,0.26,0.01,0.01,1043.48901367,-14.95,-14.27,198.36,197.46,0.0,0.01
1526670105.89863205,82771045,0.31,0.17,0.19,1.8759714365,-14.98,-14.5,198.36,197.41,0.0,0.01
1526670105.99859214,82871005,0.27,0.29,0.31,4.50695419312,-14.98,-14.67,198.36,197.49,0.0,0.01
1526670106.09855199,82970965,0.21,0.35,0.36,4.56391954422,-14.97,-14.83,198.36,197.67,0.0,0.02
1526670106.19851208,83070925,0.12,0.38,0.35,3.65372657776,-14.96,-14.96,198.36,197.87,0.0,0.02
1526670106.29847217,83170885,0.02,0.33,0.29,5.25586509705,-14.96,-15.09,198.36,198.12,0.0,0.02
1526670106.39843202,83270845,-0.08,0.21,0.19,5.82085466385,-14.98,-15.22,198.36,198.35,0.0,0.02
1526670106.49839211,83370805,-0.17,0.02,0.06,5.78221225739,-14.99,-15.31,198.36,198.56,0.0,0.02
1526670106.59835219,83470765,-0.24,-0.17,-0.06,14.1467723846,-15.0,-15.34,198.36,198.73,0.0,0.11
1526670106.69831204,83570725,-0.24,-0.25,-0.18,23.699174881,-15.02,-15.39,198.36,198.81,0.0,0.11
1526670106.79827213,83670685,-0.24,-0.3,-0.26,23.6669139862,-15.04,-15.4,198.36,198.83,0.0,0.11
1526670106.89823198,83770645,-0.22,-0.27,-0.32,22.0710487366,-15.08,-15.35,198.36,198.79,0.0,0.1
1526670106.99902511,83871438,-0.19,-0.22,-0.34,27.1638412476,-15.14,-15.31,198.36,198.69,0.0,0.1
1526670107.09898520,83971398,-0.14,-0.25,-0.32,33.9995803833,-15.21,-15.21,198.36,198.62,0.0,0.01
1526670107.19894505,84071358,-0.1,-0.25,-0.28,33.8015403748,-15.33,-15.17,198.36,198.54,0.0,0.01
1526670107.29890513,84171318,-0.07,-0.19,-0.23,32.5597686768,-15.47,-15.24,198.36,198.55,0.0,0.0
1526670107.39886498,84271278,-0.05,-0.11,-0.17,32.2248191833,-15.61,-15.42,198.36,198.61,0.0,0.0
1526670107.49882507,84371238,-0.02,-0.07,-0.11,31.8841686249,-15.75,-15.58,198.36,198.67,0.0,0.0
1526670107.59878516,84471198,0.0,-0.03,-0.05,30.7340145111,-15.87,-15.71,198.36,198.65,0.0,0.0
1526670107.69874501,84571158,0.06,0.02,-0.01,29.73387146,-15.99,-15.86,198.36,198.51,0.0,0.0
1526670107.79870510,84671118,0.13,0.04,0.03,28.6808891296,-16.09,-16.04,198.36,198.34,0.0,0.0
1526670107.89866519,84771078,0.2,0.04,0.08,27.523399353,-16.17,-16.11,198.36,198.17,0.0,0.0
1526670107.99862504,84871038,0.25,-0.01,0.13,31.3960590363,-16.26,-16.13,198.36,198.05,0.0,0.0
1526670108.09858513,84970998,0.29,-0.04,0.19,46.6774673462,-15.2,-16.08,198.36,197.94,0.0,0.0
1526670108.19854498,85070958,0.55,0.02,0.24,72.8316726685,-14.12,-15.75,271.43,197.93,0.0,0.01
1526670108.29850507,85170918,2.46,0.55,0.55,76.3764801025,-11.48,-14.66,271.43,198.54,0.0,0.01
1526670108.39846516,85270878,3.55,1.38,1.22,76.9173355103,-10.38,-13.19,271.43,199.95,0.0,0.02
1526670108.49842501,85370838,4.22,2.32,2.07,462.304016113,-9.99,-11.89,271.43,202.0,0.0,0.02
1526670108.59838510,85470798,4.64,3.21,2.97,535.267028809,-9.94,-10.94,271.43,204.58,0.0,0.03
1526670108.69834518,85570758,4.87,4.02,3.8,524.666381836,-10.13,-10.41,271.43,207.45,0.0,0.11
1526670108.79830503,85670718,4.94,4.65,4.47,487.862609863,-10.48,-10.22,271.43,210.5,0.0,0.12
1526670108.89826512,85770678,4.83,5.04,4.93,430.100341797,-10.93,-10.28,271.43,213.72,0.0,0.13
1526670108.99822497,85870638,4.58,5.23,5.14,372.977478027,-11.39,-10.5,271.43,217.11,0.0,0.13
1526670109.09901810,85971431,4.23,5.18,5.12,326.241241455,-11.82,-10.82,271.43,220.63,0.0,0.13
1526670109.19897819,86071391,3.77,4.98,4.88,291.279083252,-12.32,-11.21,271.43,224.2,0.0,0.04
1526670109.29893804,86171351,3.27,4.66,4.46,281.09362793,-12.78,-11.64,271.43,227.82,0.0,0.03
1526670109.39889812,86271311,2.75,4.26,3.93,316.354064941,-13.2,-12.02,271.43,231.54,0.0,0.03
1526670109.49885798,86371271,2.17,3.85,3.31,456.9375,-13.59,-12.45,271.43,235.33,0.0,0.03
1526670109.59881806,86471231,1.55,3.37,2.65,752.600524902,-13.93,-12.88,271.43,239.15,0.0,0.03
1526670109.69877815,86571191,0.9,2.74,1.97,1126.45959473,-14.22,-13.28,271.43,243.02,0.0,0.03
1526670109.79873800,86671151,0.24,2.07,1.28,1474.6751709,-14.47,-13.62,271.43,246.92,0.0,0.03
1526670109.89869809,86771111,-0.44,1.38,0.61,1772.80480957,-14.68,-13.96,271.43,250.76,0.0,0.02
1526670109.99865818,86871071,-1.17,0.63,-0.06,2001.65307617,-14.83,-14.28,271.43,254.64,0.0,0.02
1526670110.09861803,86971031,-1.96,-0.07,-0.74,2144.74682617,-14.92,-14.5,271.43,258.56,0.0,0.02
1526670110.19857812,87070991,-2.82,-0.78,-1.44,2277.80688477,-14.87,-14.66,271.43,262.47,0.0,0.02
1526670110.29853797,87170951,-3.76,-1.61,-2.18,2366.76831055,-14.6,-14.8,271.43,266.33,0.0,0.02
1526670110.39849806,87270911,-4.69,-2.68,-2.98,2354.14355469,-14.23,-14.87,271.43,269.93,0.0,0.02
1526670110.49845815,87370871,-5.45,-3.95,-3.8,2252.65527344,-13.83,-14.75,271.43,272.93,0.0,0.01
1526670110.59841800,87470831,-5.96,-5.18,-4.6,2220.48510742,-13.46,-14.45,271.43,275.19,0.0,0.01
1526670110.69837809,87570791,-6.15,-6.19,-5.29,2377.89672852,-13.21,-14.08,271.43,276.58,0.0,0.05
1526670110.79833817,87670751,-6.01,-6.83,-5.78,2685.77441406,-13.1,-13.64,271.43,277.13,0.0,0.04
1526670110.89829803,87770711,-5.59,-7.07,-6.02,3020.44335938,-13.14,-13.26,271.43,276.98,0.0,0.03
1526670110.99825811,87870671,-4.99,-6.92,-5.97,3299.09472656,-13.29,-12.95,271.43,276.27,0.0,0.03
1526670111.09821796,87970631,-4.24,-6.36,-5.64,7052.2890625,-13.52,-12.81,271.43,275.15,0.0,0.02
1526670111.19901109,88071424,-3.44,-5.5,-5.06,5204.78710938,-13.77,-12.83,271.43,273.96,0.0,0.02
1526670111.29897118,88171384,-2.71,-4.61,-4.3,3920.42651367,-14.09,-12.9,271.43,272.84,0.0,0.02
1526670111.39893103,88271344,-2.06,-3.67,-3.46,3098.71826172,-14.39,-13.09,271.43,271.87,0.0,0.02
1526670111.49889112,88371304,-1.52,-2.81,-2.6,2563.79589844,-14.69,-13.42,271.43,271.09,0.0,0.02
1526670111.59885097,88471264,-1.11,-2.05,-1.82,2212.20092773,-14.96,-13.83,271.43,270.47,0.0,0.02
1526670111.69881105,88571224,-0.79,-1.38,-1.16,1963.39868164,-15.19,-14.24,271.43,270.04,0.0,0.02
1526670111.79877114,88671184,-0.61,-0.9,-0.65,1786.25292969,-15.37,-14.59,271.43,269.87,0.0,0.02
1526670111.89873099,88771144,-0.56,-0.53,-0.31,1651.17919922,-15.54,-14.89,271.43,269.9,0.0,0.02
1526670111.99869108,88871104,-0.58,-0.29,-0.14,1520.81201172,-15.68,-15.19,271.43,270.09,0.0,0.01
1526670112.09865117,88971064,-0.65,-0.18,-0.12,1391.77636719,-15.78,-15.52,271.43,270.4,0.0,0.01
1526670112.19861102,89071024,-0.78,-0.27,-0.21,1278.06445312,-15.87,-15.84,271.43,270.78,0.0,0.01
1526670112.29857111,89170984,-0.9,-0.41,-0.39,1181.21313477,-15.94,-16.07,271.43,271.09,0.0,0.01
1526670112.39853120,89270944,-0.98,-0.59,-0.61,1097.1920166,-15.98,-16.19,271.43,271.36,0.0,0.01
1526670112.49849105,89370904,-1.04,-0.78,-0.83,1024.7220459,-16.0,-16.24,271.43,271.57,0.0,0.01
1526670112.59845114,89470864,-1.09,-0.95,-1.02,964.119140625,-16.03,-16.34,271.43,271.81,0.0,0.01
1526670112.69841099,89570824,-1.09,-1.1,-1.17,911.078979492,-16.07,-16.41,271.43,272.04,0.0,0.01
1526670112.79837108,89670784,-1.04,-1.23,-1.26,861.8046875,-16.1,-16.43,271.43,272.18,0.0,0.04
1526670112.89833117,89770744,-0.93,-1.29,-1.29,816.631469727,-16.14,-16.35,271.43,272.21,0.0,0.04
1526670112.99829102,89870704,-0.76,-1.26,-1.24,775.857116699,-16.2,-16.26,271.43,272.15,0.0,0.04
1526670113.09825110,89970664,-0.59,-1.2,-1.12,740.047424316,-16.27,-16.19,271.43,272.04,0.0,0.04
1526670113.19821119,90070624,-0.39,-1.04,-0.95,709.462585449,-16.35,-16.14,271.43,271.9,0.0,0.04
1526670113.29900408,90171417,-0.19,-0.8,-0.75,681.005981445,-16.43,-16.14,271.43,271.74,0.0,0.04
1526670113.39896417,90271377,-0.01,-0.56,-0.52,653.213256836,-16.57,-16.19,271.43,271.64,0.0,0.01
1526670113.49892402,90371337,0.15,-0.32,-0.29,627.42779541,-16.7,-16.29,271.43,271.57,0.0,0.01
1526670113.59888411,90471297,0.28,-0.11,-0.07,603.803771973,-16.8,-16.38,271.43,271.52,0.0,0.01
1526670113.69884419,90571257,0.39,0.09,0.11,9.73473548889,-16.74,-16.48,271.43,271.52,0.0,0.01
1526670113.79880404,90671217,0.46,0.19,0.27,21.443862915,-16.62,-16.63,271.43,271.56,0.0,0.01
1526670113.89876413,90771177,0.54,0.26,0.39,54.2469062805,-16.46,-16.76,271.43,271.58,0.0,0.01
1526670113.99872398,90871137,0.61,0.31,0.48,98.3363494873,-16.27,-16.81,271.43,271.59,0.0,0.01
1526670114.09868407,90971097,0.68,0.34,0.55,160.791870117,-16.06,-16.7,271.43,271.58,0.0,0.0
1526670114.19864416,91071057,0.75,0.35,0.6,228.210601807,-15.83,-16.53,271.43,271.6,0.0,0.0
1526670114.29860401,91171017,0.83,0.4,0.65,292.642913818,-15.6,-16.33,271.43,271.55,0.0,0.0
1526670114.39856410,91270977,0.93,0.47,0.7,335.180541992,-15.36,-16.09,271.43,271.49,0.0,0.0
1526670114.49852419,91370937,1.01,0.53,0.76,356.488311768,-15.11,-15.88,271.43,271.53,0.0,0.0
1526670114.59848404,91470897,1.08,0.59,0.83,377.296203613,-14.85,-15.6,271.43,271.61,0.0,0.0
1526670114.69844413,91570857,1.18,0.67,0.9,393.340667725,-14.59,-15.26,271.43,271.67,0.0,0.0
1526670114.79840398,91670817,1.3,0.75,0.99,410.313690186,-14.34,-14.93,271.43,271.71,0.0,0.0
1526670114.89836407,91770777,1.4,0.85,1.09,426.603851318,-14.07,-14.67,271.43,271.82,0.0,0.05
1526670114.99832416,91870737,1.48,0.91,1.2,445.972839355,-13.81,-14.43,271.43,271.94,0.0,0.05
1526670115.09828401,91970697,1.56,0.99,1.3,481.620361328,-13.52,-14.16,271.43,272.04,0.0,0.05
1526670115.19824409,92070657,1.67,1.13,1.4,504.640777588,-13.2,-13.9,271.43,272.07,0.0,0.05
1526670115.29820418,92170617,1.76,1.23,1.5,518.779724121,-12.86,-13.65,271.43,272.06,0.0,0.05
1526670115.39899707,92271410,1.85,1.3,1.6,538.70690918,-12.48,-13.42,271.43,272.08,0.0,0.05
1526670115.49895716,92371370,1.96,1.42,1.7,557.72442627,-12.1,-13.14,271.43,271.99,0.0,0.0
1526670115.59891701,92471330,2.08,1.59,1.8,563.222167969,-11.68,-12.76,271.43,271.84,0.0,0.0
1526670115.69887710,92571290,2.17,1.8,1.91,550.278320312,-11.24,-12.36,271.43,271.69,0.0,0.0
1526670115.79883718,92671250,2.25,1.95,2.01,528.455383301,-10.75,-11.96,271.43,271.51,0.0,0.0
1526670115.89879704,92771210,2.31,2.04,2.1,507.283935547,-10.36,-11.47,271.43,271.4,0.0,0.0
1526670115.99875712,92871170,2.41,2.07,2.19,489.856323242,-9.58,-10.92,271.43,271.39,0.0,0.01
1526670116.09871697,92971130,2.47,2.11,2.28,479.790222168,-9.12,-10.32,271.43,271.36,0.0,0.01
1526670116.19867706,93071090,2.52,2.18,2.35,472.975830078,-8.79,-9.83,271.43,271.38,0.0,0.01
1526670116.29863715,93171050,2.53,2.27,2.42,263.572509766,-8.52,-9.42,271.43,271.38,0.0,0.01
1526670116.39859700,93271010,2.56,2.37,2.46,204.592666626,-8.25,-9.04,271.43,271.36,0.0,0.01
1526670116.49855709,93370970,2.59,2.46,2.5,155.002670288,-7.96,-8.71,271.43,271.35,0.0,0.01
1526670116.59851718,93470930,2.61,2.54,2.53,117.335388184,-7.65,-8.41,271.43,271.27,0.0,0.0
1526670116.69847703,93570890,2.6,2.58,2.55,94.3259887695,-7.35,-8.11,271.43,271.13,0.0,0.0
1526670116.79843712,93670850,2.6,2.61,2.56,80.1055984497,-7.02,-7.82,271.43,270.99,0.0,0.0
1526670116.89839697,93770810,2.6,2.64,2.57,73.9976577759,-6.65,-7.5,271.43,270.88,0.0,0.0
1526670116.99835706,93870770,2.59,2.63,2.57,68.8440704346,-6.28,-7.15,271.43,270.82,0.0,0.04
1526670117.09831715,93970730,2.57,2.59,2.56,62.9416236877,-5.9,-6.8,271.43,270.78,0.0,0.05
1526670117.19827700,94070690,2.55,2.56,2.55,56.7968101501,-5.49,-6.42,271.43,270.78,0.0,0.05
1526670117.29823709,94170650,2.49,2.53,2.53,51.6596374512,-5.07,-6.07,271.43,270.82,0.0,0.05
1526670117.39819717,94270610,2.43,2.5,2.5,47.5230369568,-4.61,-5.64,271.43,270.86,0.0,0.05
1526670117.49899006,94371403,2.36,2.49,2.47,43.9653358459,-4.07,-5.2,271.43,271.03,0.0,0.05
1526670117.59895015,94471363,2.28,2.48,2.41,41.8856964111,-3.56,-4.74,271.43,271.22,0.0,0.02
1526670117.69891000,94571323,2.19,2.43,2.35,43.3805618286,-3.0,-4.29,271.43,271.45,0.0,0.01
1526670117.79887009,94671283,2.09,2.29,2.27,42.0328445435,-2.41,-3.83,271.43,271.64,0.0,0.01
1526670117.89883018,94771243,2.01,2.13,2.19,40.4013442993,-1.78,-3.25,271.43,271.85,0.0,0.02
1526670117.99879003,94871203,3.54,2.03,2.29,50.5216407776,1.7,-2.42,271.44,272.01,0.0,0.02
1526670118.09875011,94971163,2.52,1.87,2.5,148.64630127,7.88,-0.58,271.44,272.12,0.0,0.05
1526670118.19870996,95071123,1.85,1.32,2.5,581.331298828,11.31,2.34,271.44,272.14,0.0,0.08
1526670118.29867005,95171083,1.55,0.95,2.36,1416.66320801,12.05,5.58,271.44,272.01,0.0,0.1
1526670118.39863014,95271043,1.41,1.04,2.14,2109.26147461,11.55,8.2,271.44,271.84,0.0,0.09
1526670118.49858999,95371003,1.38,1.41,1.89,2311.73120117,10.34,9.85,271.44,271.71,0.0,0.06
1526670118.59855008,95470963,1.31,1.87,1.67,2239.24487305,8.7,10.42,271.44,271.51,0.0,0.03
1526670118.69851017,95570923,1.12,2.22,1.47,2258.03759766,6.81,10.11,271.44,271.24,0.0,0.01
1526670118.79847002,95670883,0.88,2.41,1.26,2539.94995117,4.9,9.07,271.44,270.98,0.0,0.01
1526670118.89843011,95770843,0.56,2.44,1.05,16319.9863281,3.07,7.58,271.44,270.78,0.0,0.02
1526670118.99839020,95870803,0.22,2.28,0.81,18417.5839844,1.47,5.9,271.44,270.72,0.0,0.03
1526670119.09835005,95970763,-0.08,1.91,0.55,18953.3105469,0.13,4.19,271.44,270.8,0.0,0.02
1526670119.19831014,96070723,-0.38,1.46,0.27,18260.3886719,-0.92,2.6,271.44,270.95,0.0,0.02
1526670119.29826999,96170683,-0.68,0.98,-0.01,16965.6855469,-1.66,1.25,271.44,271.13,0.0,0.01
1526670119.39823008,96270643,-0.89,0.58,-0.3,15604.5976562,-2.16,0.13,271.44,271.32,0.0,0.0
1526670119.49902320,96371436,-1.04,0.2,-0.57,14387.671875,-2.43,-0.81,271.44,271.52,0.0,0.0
1526670119.59898305,96471396,-1.09,-0.19,-0.79,13179.0546875,-2.51,-1.51,271.44,271.64,0.0,0.01
1526670119.69894314,96571356,-1.01,-0.56,-0.94,11987.0400391,-2.38,-2.0,271.44,271.67,0.0,0.0
