timestamp,TimeUS,DesR,R,IR,IRErr,DesP,P,DesY,Y,ErrRP,ErrYaw
1526670175.09467387,29073366,0.0,1.02,0.0,9350.4765625,0.0,0.4,355.36,355.36,0.0,0.0
1526670175.19546700,29174159,0.0,1.03,0.0,9462.76855469,0.0,0.42,353.26,353.26,0.0,0.0
1526670175.29542685,29274119,0.0,1.03,0.0,9558.08984375,0.0,0.45,353.16,353.16,0.0,0.0
1526670175.39538693,29374079,0.0,1.05,0.0,9648.72558594,0.0,0.46,353.05,353.05,0.0,0.0
1526670175.49534702,29474039,0.0,1.08,0.0,9769.54003906,0.0,0.47,352.97,352.97,0.0,0.0
1526670175.59530687,29573999,0.0,1.11,0.0,9916.68554688,0.0,0.46,352.9,352.9,0.0,0.0
1526670175.69526696,29673959,0.0,1.15,0.0,10094.7548828,0.0,0.46,352.83,352.83,0.0,0.0
1526670175.79522705,29773919,0.0,1.18,0.0,10297.0019531,0.0,0.46,352.74,352.74,0.0,0.0
1526670175.89518690,29873879,0.0,1.2,0.0,10509.0947266,0.0,0.47,352.64,352.64,0.0,0.0
1526670175.99514699,29973839,0.0,1.22,0.0,10726.9423828,0.0,0.48,352.54,352.54,0.0,0.0
1526670176.09510684,30073799,0.0,1.23,0.0,10943.0996094,0.0,0.49,352.43,352.43,0.0,0.0
1526670176.19506693,30173759,0.0,1.26,0.0,11156.6376953,0.0,0.49,352.32,352.32,0.0,0.0
1526670176.29502702,30273719,0.0,1.28,0.0,11380.3984375,0.0,0.48,352.23,352.23,0.0,0.0
1526670176.39498687,30373679,0.0,1.29,0.0,11606.0810547,0.0,0.47,352.16,352.16,0.0,0.0
1526670176.49494696,30473639,0.0,1.28,0.0,11806.8261719,0.0,0.45,352.08,352.08,0.0,0.0
1526670176.59490705,30573599,0.0,1.28,0.0,11989.7304688,0.0,0.43,352.01,352.01,0.0,0.0
1526670176.69486690,30673559,0.0,1.3,0.0,16900.0,0.0,0.43,351.93,351.93,0.0,0.0
1526670176.79482698,30773519,0.0,1.31,0.0,16931.8300781,0.0,0.42,351.88,351.88,0.0,0.0
1526670176.89478683,30873479,0.0,1.31,0.0,17045.0,0.0,0.43,351.84,351.84,0.0,0.0
1526670176.99474692,30973439,0.0,1.32,0.0,17102.9082031,0.0,0.44,351.82,351.82,0.0,0.0
1526670177.09470701,31073399,0.0,1.32,0.0,17177.7832031,0.0,0.46,351.81,351.81,0.0,0.0
1526670177.19549990,31174192,0.0,1.33,0.0,17228.0996094,0.0,0.47,351.8,351.8,0.0,0.0
1526670177.29545999,31274152,0.0,1.34,0.0,17317.8925781,0.0,0.47,351.8,351.8,0.0,0.0
1526670177.39541984,31374112,0.0,1.34,0.0,17408.7265625,0.0,0.47,351.81,351.81,0.0,0.0
1526670177.49537992,31474072,0.0,1.34,0.0,17476.921875,0.0,0.46,351.86,351.86,0.0,0.0
1526670177.59534001,31574032,0.0,1.33,0.0,17522.609375,0.0,0.43,351.93,351.93,0.0,0.0
1526670177.69529986,31673992,0.0,1.31,0.0,17514.7910156,0.0,0.4,351.99,351.99,0.0,0.0
1526670177.79525995,31773952,0.0,1.3,0.0,17479.1503906,0.0,0.37,352.07,352.07,0.0,0.0
1526670177.89522004,31873912,0.0,1.27,0.0,17407.3945312,0.0,0.37,352.14,352.14,0.0,0.0
1526670177.99517989,31973872,0.0,1.22,0.0,17259.234375,0.0,0.38,352.23,352.23,0.0,0.0
1526670178.09513998,32073832,0.0,1.17,0.0,17043.9921875,0.0,0.38,352.31,352.31,0.0,0.0
1526670178.19509983,32173792,0.0,1.17,0.0,16820.6992188,0.0,0.39,352.39,352.39,0.0,0.0
1526670178.29505992,32273752,0.0,1.16,0.0,16618.0039062,0.0,0.39,352.5,352.5,0.0,0.0
1526670178.39502001,32373712,0.0,1.14,0.0,16418.3886719,0.0,0.39,352.63,352.63,0.0,0.0
1526670178.49497986,32473672,0.0,1.12,0.0,16214.0761719,0.0,0.36,352.75,352.75,0.0,0.0
1526670178.59493995,32573632,0.0,1.12,0.0,16021.1679688,0.0,0.35,352.86,352.86,0.0,0.0
1526670178.69490004,32673592,0.0,1.12,0.0,15847.5263672,0.0,0.33,352.96,352.96,0.0,0.0
1526670178.79485989,32773552,0.0,1.13,0.0,15691.7412109,0.0,0.32,353.06,353.06,0.0,0.0
1526670178.89481997,32873512,0.0,1.15,0.0,15567.0478516,0.0,0.33,353.17,353.17,0.0,0.0
1526670178.99478006,32973472,0.0,1.19,0.0,15487.5800781,0.0,0.31,353.28,353.28,0.0,0.0
1526670179.09473991,33073432,0.0,1.21,0.0,15442.3339844,0.0,0.29,353.38,353.38,0.0,0.0
1526670179.19470000,33173392,0.0,1.22,0.0,15415.1679688,0.0,0.27,353.47,353.47,0.0,0.0
1526670179.29549289,33274185,0.0,1.23,0.0,15129.0,0.0,0.26,353.55,353.55,0.0,0.0
1526670179.39545298,33374145,0.0,1.22,0.0,15105.0976562,0.0,0.26,353.64,353.64,0.0,0.0
1526670179.49541283,33474105,0.0,1.22,0.0,14995.9140625,0.0,0.25,353.76,353.76,0.0,0.0
1526670179.59537292,33574065,0.0,1.2,0.0,14878.7851562,0.0,0.24,353.89,353.89,0.0,0.0
1526670179.69533300,33674025,0.0,1.17,0.0,14656.4785156,0.0,0.21,354.02,354.02,0.0,0.0
1526670179.79529285,33773985,0.0,1.15,0.0,14401.4873047,0.0,0.18,354.17,354.17,0.0,0.0
1526670179.89525294,33873945,0.0,1.14,0.0,14176.7636719,0.0,0.16,354.3,354.3,0.0,0.0
1526670179.99521303,33973905,0.0,1.14,0.0,14008.6835938,0.0,0.12,354.44,354.44,0.0,0.0
1526670180.09517288,34073865,0.0,1.0,0.0,13781.8291016,-0.08,0.01,354.5,354.57,0.0,0.0
1526670180.19513297,34173825,-0.17,0.66,-0.01,13021.4677734,-0.07,-0.13,354.5,354.65,0.0,0.01
1526670180.29509306,34273785,-0.26,0.37,-0.06,12022.9238281,-0.04,-0.22,354.5,354.69,0.0,0.01
1526670180.39505291,34373745,-0.35,0.14,-0.13,11044.0,-0.08,-0.26,354.5,354.71,0.0,0.01
1526670180.49501300,34473705,-0.39,-0.02,-0.21,10171.3115234,-0.09,-0.27,354.5,354.72,0.0,0.0
1526670180.59497285,34573665,-0.43,-0.14,-0.3,9414.15625,-0.09,-0.27,354.5,354.69,0.0,0.0
1526670180.69493294,34673625,-0.41,-0.22,-0.37,8759.04003906,-0.08,-0.25,354.5,354.63,0.0,0.0
1526670180.79489303,34773585,-0.38,-0.31,-0.41,8187.21777344,-0.07,-0.24,354.5,354.56,0.0,0.0
1526670180.89485288,34873545,-0.31,-0.37,-0.42,7679.79931641,-0.04,-0.22,354.5,354.43,0.0,0.0
1526670180.99481297,34973505,-0.26,-0.37,-0.4,7229.57177734,0.03,-0.2,354.5,354.29,0.0,0.0
1526670181.09477305,35073465,-0.21,-0.39,-0.36,6828.74365234,0.11,-0.14,354.5,354.15,0.0,0.0
1526670181.19473290,35173425,-0.17,-0.42,-0.3,6472.77783203,0.16,-0.08,354.5,354.03,0.0,0.0
1526670181.29469299,35273385,-0.08,-0.39,-0.24,6157.94580078,0.19,0.0,354.5,353.88,0.0,0.0
1526670181.39548588,35374178,-0.04,-0.37,-0.16,5880.91357422,0.17,0.13,354.5,353.82,0.0,0.0
1526670181.49544597,35474138,0.04,-0.35,-0.08,5639.41748047,0.15,0.25,354.5,353.89,0.0,0.0
1526670181.59540606,35574098,0.11,-0.26,-0.01,5425.14941406,0.09,0.34,354.5,354.03,0.0,0.0
1526670181.69536591,35674058,0.18,-0.12,0.06,5218.16601562,0.03,0.43,354.5,354.27,0.0,0.0
1526670181.79532599,35774018,0.2,0.07,0.13,5015.63037109,-0.08,0.48,354.5,354.51,0.0,0.0
1526670181.89528584,35873978,0.22,0.2,0.18,2.19140934944,-0.21,0.44,354.5,354.72,0.0,0.0
1526670181.99524593,35973938,0.19,0.29,0.22,19.9623985291,-0.34,0.35,354.5,354.89,0.0,0.0
1526670182.09520602,36073898,0.15,0.4,0.22,86.0820999146,-0.45,0.17,354.5,355.02,0.0,0.0
1526670182.19516587,36173858,0.08,0.45,0.21,201.096450806,-0.5,-0.02,354.5,355.09,0.0,0.0
1526670182.29512596,36273818,-0.03,0.45,0.16,324.775085449,-0.5,-0.25,354.5,355.09,0.0,0.0
1526670182.39508605,36373778,-0.17,0.39,0.08,435.63079834,-0.46,-0.5,354.5,355.04,0.0,0.0
1526670182.49504590,36473738,-0.28,0.21,-0.01,488.374938965,-0.41,-0.63,354.5,354.93,0.0,0.0
1526670182.59500599,36573698,-0.35,0.02,-0.13,468.70324707,-0.28,-0.63,354.5,354.78,0.0,0.01
1526670182.69496584,36673658,-0.4,-0.14,-0.25,436.160736084,-0.13,-0.65,354.5,354.62,0.0,0.01
1526670182.79492593,36773618,-0.41,-0.35,-0.35,391.92956543,0.0,-0.63,354.5,354.46,0.0,0.01
1526670182.89488602,36873578,-0.32,-0.53,-0.41,358.199157715,0.14,-0.51,355.82,355.64,0.0,0.01
1526670182.99484587,36973538,-0.2,-0.63,-0.42,350.437530518,0.27,-0.32,355.82,355.55,0.0,0.01
1526670183.09480596,37073498,-0.05,-0.66,-0.37,376.832733154,0.39,-0.04,355.82,355.48,0.0,0.0
1526670183.19476604,37173458,0.06,-0.58,-0.28,410.684875488,0.48,0.17,355.82,355.39,0.0,0.0
1526670183.29472589,37273418,0.18,-0.48,-0.15,450.779022217,0.51,0.39,355.82,355.37,0.0,0.0
1526670183.39468598,37373378,0.3,-0.36,0.0,501.336120605,0.46,0.56,355.82,355.39,0.0,0.0
1526670183.49547887,37474171,0.35,-0.14,0.13,530.28112793,0.38,0.74,355.82,355.39,0.0,0.0
1526670183.59543896,37574131,0.38,0.03,0.26,537.585144043,0.19,0.77,355.82,355.47,0.0,0.0
1526670183.69539905,37674091,0.44,0.19,0.36,530.672546387,0.0,0.67,355.82,355.54,0.0,0.0
1526670183.79535890,37774051,0.41,0.35,0.43,512.707885742,-0.17,0.54,355.82,355.65,0.0,0.0
1526670183.89531898,37874011,0.34,0.49,0.47,488.354278564,-0.3,0.33,355.82,355.76,0.0,0.0
1526670183.99527884,37973971,0.18,0.6,0.44,469.243682861,-0.36,0.05,355.82,355.81,0.0,0.0
1526670184.09523892,38073931,0.02,0.6,0.37,463.002929688,-0.38,-0.2,355.82,355.81,0.0,0.0
1526670184.19519901,38173891,-0.12,0.53,0.25,472.49810791,-0.35,-0.42,355.82,355.76,0.0,0.0
1526670184.29515886,38273851,-0.26,0.36,0.09,483.456085205,-0.27,-0.61,355.82,355.82,0.0,0.0
1526670184.39511895,38373811,-0.39,0.16,-0.06,489.416595459,-0.1,-0.7,355.82,355.89,0.0,0.0
1526670184.49507904,38473771,-0.47,-0.17,-0.23,41.1385345459,0.11,-0.63,355.82,355.95,0.0,0.01
1526670184.59503889,38573731,-0.5,-0.45,-0.37,18.9924545288,0.31,-0.39,355.83,356.07,0.0,0.01
1526670184.69499898,38673691,-0.47,-0.6,-0.48,53.9791069031,0.43,-0.19,355.83,356.17,0.0,0.0
1526670184.79495883,38773651,-0.38,-0.68,-0.54,93.024520874,0.49,0.0,355.83,356.31,0.0,0.0
1526670184.89491892,38873611,-0.23,-0.66,-0.53,113.490249634,0.53,0.15,355.83,356.35,0.0,0.0
1526670184.99487901,38973571,-0.13,-0.66,-0.46,146.271789551,0.55,0.29,355.83,356.4,0.0,0.0
1526670185.09483886,39073531,-0.02,-0.61,-0.35,209.683410645,0.55,0.43,355.83,356.41,0.0,0.0
1526670185.19479895,39173491,0.13,-0.49,-0.21,286.953369141,0.49,0.59,355.83,356.47,0.0,0.0
1526670185.29475904,39273451,0.26,-0.3,-0.06,335.774261475,0.4,0.69,355.83,356.47,0.0,0.0
1526670185.39471889,39373411,0.35,-0.05,0.09,340.98614502,0.28,0.75,355.83,356.41,0.0,0.0
1526670185.49467897,39473371,0.38,0.22,0.24,315.705200195,0.16,0.75,355.83,356.31,0.0,0.0
1526670185.59547186,39574164,0.33,0.46,0.35,290.641906738,-0.01,0.62,355.83,356.2,0.0,0.0
1526670185.69543195,39674124,0.23,0.61,0.4,289.500427246,-0.15,0.39,355.83,356.04,0.0,0.0
1526670185.79539204,39774084,0.08,0.64,0.39,309.383117676,-0.26,0.13,355.83,355.94,0.0,0.0
1526670185.89535189,39874044,-0.08,0.57,0.31,331.186431885,-0.35,-0.05,355.83,355.82,0.0,0.0
1526670185.99531198,39974004,-0.25,0.46,0.18,355.754089355,-0.39,-0.23,355.83,355.75,0.0,0.0
1526670186.09527206,40073964,-0.35,0.27,0.02,378.205383301,-0.35,-0.44,355.83,355.63,0.0,0.01
1526670186.19523191,40173924,-0.46,0.03,-0.15,381.35836792,-0.23,-0.53,355.83,355.57,0.0,0.01
1526670186.29519200,40273884,-0.53,-0.18,-0.32,375.317016602,-0.11,-0.52,355.83,355.62,0.0,0.01
1526670186.39515185,40373844,-0.55,-0.35,-0.46,364.849456787,-0.01,-0.47,355.83,355.68,0.0,0.01
1526670186.49511194,40473804,-0.49,-0.48,-0.55,350.516418457,0.09,-0.42,355.83,355.69,0.0,0.01
1526670186.59507203,40573764,-0.37,-0.56,-0.58,335.433441162,0.21,-0.3,355.83,355.69,0.0,0.0
1526670186.69503188,40673724,-0.26,-0.61,-0.55,320.569244385,0.33,-0.14,355.83,355.68,0.0,0.0
1526670186.79499197,40773684,-0.11,-0.59,-0.47,310.162353516,0.41,0.06,355.83,355.67,0.0,0.0
1526670186.89495206,40873644,0.03,-0.54,-0.33,308.010345459,0.44,0.25,355.83,355.67,0.0,0.0
1526670186.99491191,40973604,0.19,-0.46,-0.17,319.002471924,0.42,0.43,355.83,355.67,0.0,0.0
1526670187.09487200,41073564,0.34,-0.27,0.0,750.154785156,0.37,0.58,355.83,355.61,0.0,0.0
1526670187.19483185,41173524,0.47,-0.05,0.18,650.342773438,0.33,0.66,355.83,355.6,0.0,0.0
1526670187.29479194,41273484,0.86,0.18,0.37,558.573852539,0.01,0.69,46.19,355.75,0.0,0.0
1526670187.39475203,41373444,1.61,0.54,0.66,468.79196167,-0.76,0.6,46.19,356.68,0.0,0.01
1526670187.49471188,41473404,2.45,1.07,1.1,373.527526855,-1.73,0.25,46.19,358.32,0.0,0.02
1526670187.59550500,41574197,2.97,1.75,1.66,303.655792236,-2.57,-0.34,46.19,0.55,0.0,0.03
1526670187.69546485,41674157,3.14,2.3,2.22,266.664093018,-3.27,-1.08,46.19,3.22,0.0,0.03
1526670187.79542494,41774117,3.19,2.72,2.71,232.992019653,-3.9,-1.87,46.19,6.15,0.0,0.03
1526670187.89538503,41874077,3.12,3.01,3.06,204.729660034,-4.49,-2.69,46.19,9.31,0.0,0.03
1526670187.99534488,41974037,2.99,3.13,3.25,191.655776978,-5.04,-3.48,46.19,12.7,0.0,0.03
1526670188.09530497,42073997,2.77,3.1,3.29,197.134002686,-5.56,-4.16,46.19,16.25,0.0,0.03
1526670188.19526505,42173957,2.44,2.97,3.17,215.132568359,-6.07,-4.74,46.19,19.93,0.0,0.03
1526670188.29522491,42273917,2.06,2.78,2.91,221.017623901,-6.54,-5.25,46.19,23.69,0.0,0.03
1526670188.39518499,42373877,1.6,2.46,2.55,215.329696655,-6.98,-5.76,46.19,27.48,0.0,0.03
1526670188.49514484,42473837,1.11,2.11,2.09,201.711624146,-7.38,-6.22,46.19,31.31,0.0,0.03
1526670188.59510493,42573797,0.58,1.76,1.57,196.17729187,-7.79,-6.66,46.19,35.13,0.0,0.03
1526670188.69506502,42673757,0.01,1.32,1.01,222.154373169,-8.12,-7.11,46.19,38.99,0.0,0.03
1526670188.79502487,42773717,-0.57,0.73,0.43,265.732208252,-8.17,-7.58,46.19,42.71,0.0,0.03
1526670188.89498496,42873677,-1.08,0.0,-0.15,281.533813477,-8.03,-7.95,46.19,46.01,0.0,0.02
1526670188.99494505,42973637,-1.46,-0.82,-0.71,270.255432129,-7.86,-8.21,46.19,48.64,0.0,0.01
1526670189.09490490,43073597,-1.66,-1.57,-1.19,290.357971191,-7.69,-8.24,46.19,50.42,0.0,0.0
1526670189.19486499,43173557,-1.63,-2.09,-1.55,379.762451172,-7.57,-8.11,46.19,51.27,0.0,0.0
1526670189.29482484,43273517,-1.43,-2.38,-1.74,521.043273926,-7.62,-7.91,46.19,51.29,0.0,0.01
1526670189.39478493,43373477,-1.13,-2.33,-1.76,660.722106934,-7.98,-7.7,46.19,50.71,0.0,0.01
1526670189.49474502,43473437,-0.73,-2.0,-1.6,731.188659668,-8.49,-7.67,46.19,49.79,0.0,0.01
1526670189.59470487,43573397,-0.31,-1.55,-1.29,745.145263672,-9.08,-7.83,46.19,48.72,0.0,0.0
1526670189.69549799,43674190,0.08,-0.98,-0.87,112.698265076,-9.71,-8.17,46.19,47.64,0.0,0.0
1526670189.79545784,43774150,0.43,-0.37,-0.39,27.9646434784,-10.29,-8.65,46.19,46.71,0.0,0.0
1526670189.89541793,43874110,0.66,0.13,0.07,28.2604217529,-10.84,-9.21,46.19,46.02,0.0,0.0
1526670189.99537802,43974070,0.79,0.51,0.49,25.1766166687,-11.38,-9.76,46.19,45.52,0.0,0.0
1526670190.09533787,44074030,0.83,0.84,0.82,19.7520694733,-11.88,-10.35,46.19,45.23,0.0,0.01
1526670190.19529796,44173990,0.78,1.03,1.03,15.9808473587,-12.33,-10.94,46.19,45.08,0.0,0.01
1526670190.29525805,44273950,0.66,1.15,1.11,14.0332174301,-12.79,-11.52,46.19,45.1,0.0,0.01
1526670190.39521790,44373910,0.49,1.12,1.08,13.9997119904,-13.2,-12.11,46.19,45.29,0.0,0.01
1526670190.49517798,44473870,0.29,0.98,0.94,14.5090036392,-13.58,-12.67,46.19,45.52,0.0,0.0
1526670190.59513783,44573830,0.09,0.75,0.73,13.845032692,-13.96,-13.11,46.19,45.77,0.0,0.0
1526670190.69509792,44673790,-0.06,0.56,0.48,14.9432411194,-14.31,-13.52,46.19,45.96,0.0,0.0
1526670190.79505801,44773750,-0.19,0.36,0.22,24.2430782318,-14.58,-13.93,46.19,46.09,0.0,0.0
1526670190.89501786,44873710,-0.29,0.18,-0.01,46.850643158,-14.67,-14.33,46.19,46.2,0.0,0.0
1526670190.99497795,44973670,-0.32,-0.06,-0.21,71.1881561279,-12.72,-14.57,46.19,46.32,0.0,0.0
1526670191.09493804,45073630,-0.27,-0.57,-0.34,75.3411407471,-9.28,-13.95,46.19,46.31,0.0,0.01
1526670191.19489789,45173590,-0.2,-1.03,-0.4,203.143295288,-7.56,-12.49,46.19,46.26,0.0,0.03
1526670191.29485798,45273550,-0.1,-1.19,-0.39,533.993347168,-6.93,-10.78,46.19,46.16,0.0,0.03
1526670191.39481783,45373510,0.06,-1.03,-0.32,845.735839844,-6.71,-9.29,46.19,46.05,0.0,0.03
1526670191.49477792,45473470,0.25,-0.73,-0.18,1015.97155762,-6.71,-8.16,46.19,45.93,0.0,0.02
1526670191.59473801,45573430,0.41,-0.35,-0.01,1065.35644531,-6.88,-7.4,46.19,45.93,0.0,0.01
1526670191.69469786,45673390,0.54,0.01,0.18,1043.81164551,-7.18,-7.0,46.19,45.91,0.0,0.0
1526670191.79549098,45774183,0.62,0.4,0.37,998.120605469,-7.67,-6.89,46.19,45.87,0.0,0.0
1526670191.89545083,45874143,0.62,0.67,0.54,957.118164062,-8.09,-7.08,46.19,45.92,0.0,0.0
1526670191.99541092,45974103,0.54,0.89,0.64,931.506286621,-8.59,-7.41,46.19,46.03,0.0,0.0
1526670192.09537101,46074063,0.38,0.99,0.68,923.956542969,-8.97,-7.85,46.19,46.24,0.0,0.0
1526670192.19533086,46174023,0.21,0.93,0.63,923.766540527,-9.28,-8.38,46.19,46.49,0.0,0.0
1526670192.29529095,46273983,0.05,0.75,0.52,507.235137939,-9.52,-8.82,46.19,46.65,0.0,0.0
1526670192.39525104,46373943,-0.11,0.54,0.36,383.099121094,-9.98,-9.18,46.19,46.82,0.0,0.0
1526670192.49521089,46473903,-0.24,0.32,0.17,329.749542236,-10.16,-9.47,46.19,46.92,0.0,0.0
1526670192.59517097,46573863,-0.31,0.09,-0.01,272.327880859,-10.24,-9.74,46.19,46.98,0.0,0.0
1526670192.69513106,46673823,-0.36,-0.04,-0.18,243.460571289,-10.21,-9.95,46.19,46.99,0.0,0.0
1526670192.79509091,46773783,-0.35,-0.1,-0.31,262.919342041,-10.51,-10.15,46.19,46.89,0.0,0.0
1526670192.89505100,46873743,-0.3,-0.13,-0.39,314.906829834,-10.49,-10.34,46.19,46.72,0.0,0.0
1526670192.99501085,46973703,-0.25,-0.16,-0.42,376.009979248,-10.59,-10.49,46.19,46.55,0.0,0.0
1526670193.09497094,47073663,-0.21,-0.23,-0.4,393.044891357,-10.66,-10.55,46.19,46.42,0.0,0.0
1526670193.19493103,47173623,-0.12,-0.31,-0.34,362.769165039,-10.59,-10.58,46.19,46.31,0.0,0.0
1526670193.29489088,47273583,-0.06,-0.35,-0.26,328.433532715,-10.77,-10.61,46.19,46.22,0.0,0.0
1526670193.39485097,47373543,-0.02,-0.35,-0.16,315.392333984,-10.71,-10.63,46.19,46.19,0.0,0.0
1526670193.49481106,47473503,0.03,-0.37,-0.07,338.925811768,-10.71,-10.61,46.19,46.16,0.0,0.0
1526670193.59477091,47573463,0.11,-0.37,0.0,399.210510254,-10.69,-10.63,46.19,46.15,0.0,0.0
1526670193.69473100,47673423,0.2,-0.35,0.08,493.377166748,-10.71,-10.64,46.19,46.18,0.0,0.0
1526670193.79469085,47773383,0.31,-0.28,0.17,596.803222656,-10.74,-10.61,46.19,46.2,0.0,0.0
1526670193.89548397,47874176,0.39,-0.16,0.25,680.11541748,-10.74,-10.58,46.19,46.18,0.0,0.0
1526670193.99544406,47974136,0.44,0.02,0.34,722.352233887,-10.86,-10.53,46.19,46.16,0.0,0.0
1526670194.09540391,48074096,0.46,0.27,0.4,712.56652832,-11.07,-10.58,46.19,46.12,0.0,0.0
1526670194.19536400,48174056,0.45,0.47,0.45,677.547241211,-11.0,-10.74,46.19,46.09,0.0,0.0
1526670194.29532385,48274016,0.41,0.58,0.48,645.710327148,-10.91,-10.93,46.19,46.11,0.0,0.0
1526670194.39528394,48373976,0.38,0.56,0.47,619.690490723,-10.99,-11.12,46.19,46.13,0.0,0.0
1526670194.49524403,48473936,0.32,0.48,0.45,592.895690918,-10.98,-11.24,46.19,46.14,0.0,0.0
1526670194.59520388,48573896,0.26,0.37,0.4,567.370056152,-10.93,-11.26,46.19,46.12,0.0,0.0
1526670194.69516397,48673856,0.22,0.17,0.34,549.04510498,-10.94,-11.2,46.19,46.16,0.0,0.01
1526670194.79512405,48773816,0.19,0.02,0.28,548.093017578,-10.95,-11.1,46.19,46.22,0.0,0.01
1526670194.89508390,48873776,0.17,0.01,0.22,459.399749756,-10.93,-11.0,46.19,46.3,0.0,0.0
1526670194.99504399,48973736,0.15,0.04,0.17,303.112518311,-10.85,-10.93,46.19,46.38,0.0,0.0
1526670195.09500384,49073696,0.14,0.08,0.13,193.508102417,-11.01,-10.85,46.19,46.46,0.0,0.0
1526670195.19496393,49173656,0.15,0.12,0.11,132.309829712,-11.0,-10.82,46.19,46.49,0.0,0.0
1526670195.29492402,49273616,0.16,0.11,0.11,99.4981994629,-11.14,-10.82,46.19,46.42,0.0,0.0
1526670195.39488387,49373576,0.13,0.13,0.11,79.7609786987,-11.24,-10.88,46.19,46.29,0.0,0.0
1526670195.49484396,49473536,0.13,0.18,0.11,69.4387664795,-11.25,-10.94,46.19,46.18,0.0,0.0
1526670195.59480405,49573496,0.18,0.24,0.12,71.9120483398,-11.3,-11.03,46.19,46.06,0.0,0.0
1526670195.69476390,49673456,0.22,0.24,0.14,75.1588134766,-11.39,-11.13,46.19,45.9,0.0,0.0
1526670195.79472399,49773416,0.28,0.2,0.18,70.6777420044,-11.38,-11.2,46.19,45.74,0.0,0.0
1526670195.89468384,49873376,0.3,0.21,0.22,63.73960495,-11.35,-11.24,46.19,45.65,0.0,0.0
1526670195.99547696,49974169,0.33,0.27,0.26,58.047290802,-11.39,-11.27,46.19,45.59,0.0,0.0
1526670196.09543705,50074129,0.34,0.28,0.3,53.3701210022,-11.43,-11.28,46.19,45.66,0.0,0.0
1526670196.19539690,50174089,0.34,0.28,0.33,50.5662879944,-11.39,-11.26,46.19,45.78,0.0,0.0
1526670196.29535699,50274049,0.29,0.25,0.35,51.9015350342,-11.27,-11.24,46.19,45.95,0.0,0.0
1526670196.39531684,50374009,0.22,0.22,0.33,56.8442687988,-11.28,-11.19,46.19,46.12,0.0,0.0
1526670196.49527693,50473969,0.15,0.25,0.3,58.5370826721,-11.43,-11.21,46.19,46.26,0.0,0.0
1526670196.59523702,50573929,0.12,0.3,0.25,55.6597709656,-11.54,-11.3,46.19,46.28,0.0,0.0
1526670196.69519687,50673889,0.09,0.32,0.2,56.7401504517,-11.48,-11.41,46.19,46.32,0.0,0.0
1526670196.79515696,50773849,0.04,0.27,0.14,61.8638114929,-11.48,-11.49,46.19,46.41,0.0,0.0
1526670196.89511704,50873809,0.0,0.14,0.08,62.6205024719,-11.35,-11.54,46.19,46.54,0.0,0.0
1526670196.99507689,50973769,-0.02,0.06,0.03,60.1683921814,-11.29,-11.53,46.19,46.59,0.0,0.0
1526670197.09503698,51073729,-0.03,-0.01,0.0,57.5856361389,-11.37,-11.49,46.19,46.57,0.0,0.01
1526670197.19499683,51173689,-0.02,-0.15,-0.02,57.6936798096,-11.6,-11.52,46.19,46.53,0.0,0.01
1526670197.29495692,51273649,0.01,-0.22,-0.03,65.6901931763,-11.52,-11.51,46.19,46.51,0.0,0.0
1526670197.39491701,51373609,0.07,-0.28,-0.02,83.1780853271,-11.62,-11.47,46.19,46.57,0.0,0.0
1526670197.49487686,51473569,0.13,-0.23,0.0,555.749206543,-11.59,-11.43,46.19,46.64,0.0,0.0
1526670197.59483695,51573529,0.16,-0.16,0.05,480.123413086,-11.72,-11.48,46.19,46.72,0.0,0.0
1526670197.69479704,51673489,0.21,-0.09,0.1,440.766052246,-11.77,-11.54,46.19,46.72,0.0,0.0
1526670197.79475689,51773449,0.27,-0.05,0.16,437.627685547,-11.85,-11.61,46.19,46.68,0.0,0.0
1526670197.89471698,51873409,0.3,0.0,0.22,445.8644104,-11.88,-11.69,46.19,46.72,0.0,0.0
1526670197.99467683,51973369,0.32,0.06,0.27,455.122314453,-11.8,-11.75,46.19,46.75,0.0,0.0
1526670198.09546995,52074162,0.33,0.06,0.31,471.722259521,-11.77,-11.84,46.19,46.76,0.0,0.0
1526670198.19543004,52174122,0.35,0.07,0.34,509.131500244,-11.56,-11.92,46.19,46.74,0.0,0.0
1526670198.29538989,52274082,0.34,0.06,0.36,550.285339355,-11.44,-11.93,46.19,46.69,0.0,0.0
1526670198.39534998,52374042,0.32,0.01,0.37,616.311706543,-11.51,-11.89,46.19,46.59,0.0,0.0
1526670198.49530983,52474002,0.31,0.0,0.36,688.578308105,-11.5,-11.77,46.19,46.5,0.0,0.01
1526670198.59526992,52573962,0.32,0.04,0.35,736.093383789,-11.54,-11.64,46.19,46.35,0.0,0.01
1526670198.69523001,52673922,0.37,0.19,0.34,721.471008301,-11.32,-11.56,46.19,46.15,0.0,0.0
1526670198.79518986,52773882,0.43,0.38,0.34,670.3125,-10.95,-11.51,46.19,45.98,0.0,0.0
1526670198.89514995,52873842,0.45,0.47,0.37,626.997070312,-10.52,-11.43,46.19,45.89,0.0,0.0
1526670198.99511003,52973802,0.46,0.48,0.39,591.514526367,-10.03,-11.22,46.19,45.76,0.0,0.01
1526670199.09506989,53073762,0.45,0.43,0.41,556.99597168,-9.52,-10.91,46.19,45.63,0.0,0.01
1526670199.19502997,53173722,0.43,0.34,0.43,526.613586426,-8.98,-10.46,46.19,45.56,0.0,0.01
1526670199.29499006,53273682,0.41,0.3,0.44,506.349517822,-8.42,-9.91,46.19,45.54,0.0,0.01
1526670199.39494991,53373642,0.39,0.27,0.43,492.057617188,-7.84,-9.38,46.19,45.6,0.0,0.01
1526670199.49491000,53473602,0.38,0.26,0.42,481.21697998,-7.23,-8.85,46.19,45.66,0.0,0.01
1526670199.59486985,53573562,0.38,0.24,0.41,471.252746582,-6.58,-8.27,46.19,45.73,0.0,0.01
1526670199.69482994,53673522,0.38,0.22,0.39,462.217681885,-5.88,-7.67,46.19,45.81,0.0,0.01
1526670199.79479003,53773482,0.37,0.21,0.38,456.158325195,-5.08,-7.04,46.19,45.87,0.0,0.02
1526670199.89474988,53873442,0.37,0.2,0.37,449.122711182,-4.51,-6.32,46.19,45.93,0.0,0.02
1526670199.99470997,53973402,0.44,0.17,0.37,444.576812744,-3.22,-5.57,46.19,46.01,0.0,0.02
1526670200.09550285,54074195,0.47,0.12,0.38,727.454406738,-2.42,-4.7,46.19,46.15,0.0,0.02
1526670200.19546294,54174155,0.52,0.1,0.41,849.457336426,-1.83,-3.84,46.19,46.31,0.0,0.02
1526670200.29542303,54274115,0.57,0.11,0.45,1011.61834717,-1.31,-3.04,46.19,46.52,0.0,0.02
1526670200.39538288,54374075,0.63,0.18,0.5,1055.59912109,-0.82,-2.29,46.19,46.7,0.0,0.02
1526670200.49534297,54474035,0.67,0.38,0.56,959.533752441,-0.34,-1.61,213.5,46.97,0.0,0.02
1526670200.59530306,54573995,0.7,0.56,0.61,797.972412109,0.24,-1.02,213.5,48.01,0.0,0.01
1526670200.69526291,54673955,0.68,0.68,0.66,666.783813477,0.79,-0.48,213.5,49.83,0.0,0.0
1526670200.79522300,54773915,0.65,0.79,0.69,577.772216797,1.47,0.01,213.5,52.23,0.0,0.0
1526670200.89518285,54873875,0.68,0.83,0.7,523.88104248,2.35,0.57,213.5,55.06,0.0,0.01
1526670200.99514294,54973835,0.74,0.9,0.71,494.758789062,2.87,1.21,213.5,58.11,0.0,0.01
1526670201.09510303,55073795,0.76,0.97,0.72,494.991699219,2.81,1.78,213.5,61.41,0.0,0.01
1526670201.19506288,55173755,0.74,1.06,0.74,521.117797852,2.5,2.14,213.5,64.85,0.0,0.01
1526670201.29502296,55273715,0.67,1.06,0.74,568.112548828,2.11,2.35,213.5,68.4,0.0,0.02
1526670201.39498305,55373675,0.65,1.14,0.72,618.86907959,1.76,2.45,213.5,72.07,0.0,0.02
1526670201.49494290,55473635,0.86,1.24,0.71,743.942749023,1.63,2.25,213.5,75.79,0.0,0.03
1526670201.59490299,55573595,1.21,1.26,0.77,873.768005371,1.58,2.02,213.5,79.53,0.0,0.03
1526670201.69486284,55673555,1.61,1.29,0.92,935.2578125,1.55,1.9,213.5,83.32,0.0,0.03
1526670201.79482293,55773515,2.08,1.39,1.17,930.262939453,1.48,1.9,213.5,87.19,0.0,0.03
1526670201.89478302,55873475,2.61,1.59,1.52,889.886352539,1.38,1.9,213.5,91.12,0.0,0.03
1526670201.99474287,55973435,3.13,1.91,1.96,843.816101074,1.25,1.87,213.5,94.92,0.0,0.02
1526670202.09470296,56073395,3.68,2.34,2.46,806.679748535,1.06,1.82,213.5,98.79,0.0,0.02
1526670202.19549584,56174188,4.22,2.85,3.02,780.058288574,0.8,1.69,213.5,102.7,0.0,0.03
1526670202.29545593,56274148,4.73,3.35,3.6,763.946838379,0.51,1.52,213.5,106.59,0.0,0.03
1526670202.39541602,56374108,5.19,3.86,4.17,764.956848145,0.15,1.29,213.5,110.43,0.0,0.03
1526670202.49537587,56474068,5.63,4.35,4.71,782.305786133,-0.23,1.01,213.5,114.26,0.0,0.03
1526670202.59533596,56574028,6.01,4.84,5.22,808.128723145,-0.65,0.66,213.5,118.12,0.0,0.03
1526670202.69529605,56673988,6.04,5.28,5.65,1417.8828125,-1.05,0.24,213.5,122.06,0.0,0.03
1526670202.79525590,56773948,5.86,5.65,5.93,1141.13146973,-1.49,-0.2,213.5,126.05,0.0,0.03
1526670202.89521599,56873908,5.67,5.88,6.04,825.203125,-1.91,-0.71,213.5,130.01,0.0,0.03
1526670202.99517584,56973868,5.51,5.99,6.0,580.250976562,-2.31,-1.27,213.5,133.94,0.0,0.03
1526670203.09513593,57073828,5.33,5.93,5.85,441.816467285,-2.7,-1.76,213.5,137.89,0.0,0.03
1526670203.19509602,57173788,5.19,5.77,5.63,379.667663574,-3.06,-2.19,213.5,141.87,0.0,0.03
1526670203.29505587,57273748,5.04,5.53,5.38,353.680145264,-3.42,-2.62,213.5,145.93,0.0,0.04
1526670203.39501595,57373708,4.86,5.26,5.13,329.457885742,-3.77,-2.97,213.5,150.01,0.0,0.04
1526670203.49497604,57473668,4.68,4.99,4.89,303.280151367,-4.17,-3.26,213.5,154.15,0.0,0.03
1526670203.59493589,57573628,4.51,4.77,4.67,277.730987549,-4.6,-3.54,213.5,158.26,0.0,0.03
1526670203.69489598,57673588,4.34,4.65,4.48,267.217376709,-5.02,-3.84,213.5,162.33,0.0,0.03
1526670203.79485583,57773548,4.12,4.55,4.3,282.494873047,-5.47,-4.24,213.5,166.44,0.0,0.03
1526670203.89481592,57873508,3.84,4.42,4.12,324.320617676,-5.93,-4.67,213.5,170.62,0.0,0.03
1526670203.99477601,57973468,3.55,4.22,3.93,364.533355713,-6.41,-5.14,213.5,174.8,0.0,0.03
1526670204.09473586,58073428,3.33,4.0,3.73,389.663421631,-7.06,-5.63,213.5,178.91,0.0,0.03
1526670204.19469595,58173388,3.07,3.79,3.52,410.166870117,-7.78,-6.21,213.5,183.09,0.0,0.03
1526670204.29548883,58274181,2.75,3.51,3.29,420.390899658,-8.54,-6.82,213.5,187.28,0.0,0.03
1526670204.39544892,58374141,2.34,3.21,3.03,417.029174805,-9.27,-7.46,213.5,191.39,0.0,0.03
1526670204.49540901,58474101,1.82,2.86,2.72,407.308349609,-9.96,-8.08,213.5,195.44,0.0,0.03
1526670204.59536886,58574061,1.17,2.43,2.32,393.512481689,-10.61,-8.73,213.5,199.5,0.0,0.03
1526670204.69532895,58674021,0.43,1.93,1.82,379.073669434,-11.2,-9.42,213.5,203.59,0.0,0.03
1526670204.79528904,58773981,-0.38,1.32,1.22,366.017089844,-11.7,-10.14,213.5,207.6,0.0,0.02
1526670204.89524889,58873941,-1.18,0.5,0.53,350.371063232,-12.13,-10.88,213.5,211.27,0.0,0.02
1526670204.99520898,58973901,-1.89,-0.5,-0.21,347.391601562,-12.44,-11.57,213.5,214.45,0.0,0.02
1526670205.09516883,59073861,-2.4,-1.55,-0.97,415.048339844,-12.7,-12.07,213.5,216.87,0.0,0.02
1526670205.19512892,59173821,-2.68,-2.52,-1.65,613.746459961,-12.94,-12.46,213.5,218.43,0.0,0.01
1526670205.29508901,59273781,-2.71,-3.18,-2.2,9535.30078125,-13.21,-12.75,213.5,219.13,0.0,0.01
1526670205.39504886,59373741,-2.51,-3.59,-2.54,10236.5458984,-13.5,-12.93,213.5,219.16,0.0,0.02
1526670205.49500895,59473701,-2.1,-3.65,-2.65,10540.5986328,-13.8,-13.02,213.5,218.62,0.0,0.03
1526670205.59496903,59573661,-1.52,-3.33,-2.5,9816.18066406,-13.95,-13.1,213.5,217.7,0.0,0.04
1526670205.69492888,59673621,-0.9,-2.81,-2.12,8777.79394531,-14.01,-13.2,213.5,216.63,0.0,0.04
1526670205.79488897,59773581,-0.31,-2.15,-1.57,7819.10253906,-14.04,-13.28,213.5,215.51,0.0,0.04
1526670205.89484906,59873541,0.21,-1.41,-0.91,6987.11474609,-14.09,-13.41,213.5,214.39,0.0,0.04
1526670205.99480891,59973501,0.63,-0.69,-0.23,6310.2734375,-14.16,-13.53,213.5,213.39,0.0,0.04
1526670206.09476900,60073461,0.97,-0.01,0.4,5772.80908203,-14.19,-13.68,213.5,212.56,0.0,0.04
1526670206.19472885,60173421,1.18,0.57,0.95,5313.578125,-14.23,-13.83,213.5,212.06,0.0,0.04
1526670206.29468894,60273381,1.22,1.0,1.37,4930.77392578,-14.29,-14.0,213.5,211.91,0.0,0.03
1526670206.39548206,60374174,1.11,1.31,1.61,4587.91113281,-14.37,-14.21,213.5,212.01,0.0,0.03
1526670206.49544191,60474134,0.94,1.42,1.68,4272.91992188,-14.43,-14.42,213.5,212.22,0.0,0.02
1526670206.59540200,60574094,0.72,1.39,1.59,3988.11523438,-14.48,-14.58,213.5,212.5,0.0,0.02
1526670206.69536185,60674054,0.49,1.22,1.38,3725.72924805,-14.53,-14.72,213.5,212.78,0.0,0.01
1526670206.79532194,60774014,0.25,0.94,1.08,3493.92211914,-14.6,-14.83,213.5,213.05,0.0,0.01
1526670206.89528203,60873974,0.02,0.64,0.75,3286.10522461,-14.66,-14.9,213.5,213.36,0.0,0.01
1526670206.99524188,60973934,-0.15,0.36,0.41,3097.02929688,-14.73,-14.98,213.5,213.64,0.0,0.01
1526670207.09520197,61073894,-0.3,0.1,0.09,2925.84423828,-14.79,-15.0,213.5,213.86,0.0,0.01
1526670207.19516206,61173854,-0.38,-0.07,-0.16,2773.63183594,-14.89,-14.99,213.5,214.02,0.0,0.01
1526670207.29512191,61273814,-0.44,-0.22,-0.36,2642.97314453,-15.01,-14.99,213.5,214.12,0.0,0.01
1526670207.39508200,61373774,-0.47,-0.32,-0.49,2529.91699219,-15.13,-15.0,213.5,214.12,0.0,0.01
1526670207.49504185,61473734,-0.46,-0.38,-0.56,2428.40258789,-15.26,-15.03,213.5,213.98,0.0,0.01
1526670207.59500194,61573694,-0.37,-0.36,-0.56,2338.94091797,-15.39,-15.08,213.5,213.77,0.0,0.02
1526670207.69496202,61673654,-0.27,-0.32,-0.51,2259.05664062,-15.54,-15.17,213.5,213.56,0.0,0.02
1526670207.79492188,61773614,-0.16,-0.26,-0.41,2180.76806641,-15.69,-15.26,213.5,213.33,0.0,0.02
1526670207.89488196,61873574,-0.09,-0.24,-0.28,24.8429298401,-15.84,-15.35,213.5,213.2,0.0,0.01
1526670207.99484205,61973534,0.0,-0.16,-0.15,7.35966444016,-15.99,-15.46,213.5,213.07,0.0,0.01
1526670208.09480190,62073494,0.05,-0.09,-0.03,8.02725505829,-16.11,-15.62,213.5,213.02,0.0,0.01
1526670208.19476199,62173454,0.07,-0.03,0.07,29.1054935455,-16.26,-15.79,213.5,213.07,0.0,0.01
1526670208.29472184,62273414,0.08,0.02,0.14,55.8596305847,-16.39,-15.93,213.5,213.12,0.0,0.01
1526670208.39468193,62373374,0.08,0.05,0.19,79.4153900146,-16.5,-16.05,213.5,213.24,0.0,0.01
1526670208.49547505,62474167,0.03,0.06,0.2,104.960716248,-16.61,-16.19,213.5,213.47,0.0,0.01
1526670208.59543490,62574127,0.0,0.04,0.19,120.038047791,-16.12,-16.41,213.5,213.66,0.0,0.01
1526670208.69539499,62674087,-0.03,-0.07,0.15,144.389221191,-15.5,-16.46,213.5,213.83,0.0,0.01
1526670208.79535484,62774047,-0.08,-0.23,0.09,217.742614746,-15.26,-16.35,213.5,214.0,0.0,0.0
1526670208.89531493,62874007,-0.11,-0.38,0.03,337.938995361,-15.21,-16.18,213.5,214.07,0.0,0.0
1526670208.99527502,62973967,-0.12,-0.48,-0.02,487.718353271,-15.22,-15.99,213.5,214.1,0.0,0.0
1526670209.09523487,63073927,-0.08,-0.57,-0.06,643.507019043,-15.16,-15.76,213.5,214.03,0.0,0.0
1526670209.19519496,63173887,-0.02,-0.55,-0.08,775.832763672,-15.19,-15.47,213.5,213.99,0.0,0.0
1526670209.29515505,63273847,0.04,-0.44,-0.07,841.58795166,-15.34,-15.32,213.5,213.89,0.0,0.01
1526670209.39511490,63373807,0.12,-0.3,-0.04,851.921447754,-15.5,-15.26,213.5,213.8,0.0,0.01
1526670209.49507499,63473767,0.21,-0.15,0.01,826.568664551,-15.67,-15.27,213.5,213.66,0.0,0.01
1526670209.59503484,63573727,0.28,0.03,0.09,786.573852539,-15.72,-15.31,213.5,213.56,0.0,0.01
1526670209.69499493,63673687,0.32,0.21,0.18,743.488220215,-15.89,-15.4,213.5,213.39,0.0,0.01
1526670209.79495502,63773647,0.33,0.32,0.25,705.771118164,-16.08,-15.52,213.5,213.21,0.0,0.01
1526670209.89491487,63873607,0.32,0.42,0.32,674.0390625,-16.14,-15.69,213.5,213.06,0.0,0.01
1526670209.99487495,63973567,0.29,0.51,0.35,649.985595703,-16.19,-15.82,213.5,212.99,0.0,0.01
1526670210.09483504,64073527,0.23,0.56,0.36,634.422546387,-16.31,-15.93,213.5,213.0,0.0,0.01
1526670210.19479489,64173487,0.18,0.54,0.34,625.292602539,-16.41,-16.06,213.5,213.0,0.0,0.01
1526670210.29475498,64273447,0.09,0.51,0.29,616.515930176,-16.45,-16.23,213.5,213.07,0.0,0.01
1526670210.39471483,64373407,0.0,0.45,0.22,611.086975098,-16.53,-16.37,213.5,213.16,0.0,0.0
1526670210.49467492,64473367,-0.06,0.39,0.13,627.936279297,-16.64,-16.53,213.5,213.2,0.0,0.01
1526670210.59546804,64574160,-0.13,0.32,0.04,727.425537109,-16.57,-16.65,213.5,213.21,0.0,0.0
1526670210.69542789,64674120,-0.2,0.19,-0.04,681.706115723,-16.52,-16.75,213.5,213.27,0.0,0.0
1526670210.79538798,64774080,-0.27,0.06,-0.12,593.565979004,-16.55,-16.82,213.5,213.41,0.0,0.0
1526670210.89534783,64874040,-0.33,-0.08,-0.2,513.729248047,-16.58,-16.87,213.5,213.56,0.0,0.0
1526670210.99530792,64974000,-0.38,-0.19,-0.28,437.033325195,-16.59,-16.87,213.5,213.68,0.0,0.0
1526670211.09526801,65073960,-0.42,-0.32,-0.34,371.95904541,-16.59,-16.88,213.5,213.82,0.0,0.0
1526670211.19522786,65173920,-0.46,-0.46,-0.39,320.315307617,-16.55,-16.9,213.5,213.96,0.0,0.0
1526670211.29518795,65273880,-0.48,-0.59,-0.43,295.302581787,-16.53,-16.89,213.5,214.11,0.0,0.0
1526670211.39514804,65373840,-0.49,-0.67,-0.46,299.333282471,-16.57,-16.81,213.5,214.29,0.0,0.0
1526670211.49510789,65473800,-0.47,-0.74,-0.48,323.368499756,-16.52,-16.68,213.5,214.38,0.0,0.0
1526670211.59506798,65573760,-0.43,-0.79,-0.47,370.190429688,-16.51,-16.56,213.5,214.4,0.0,0.0
1526670211.69502783,65673720,-0.35,-0.84,-0.45,439.247558594,-16.6,-16.49,213.5,214.37,0.0,0.0
1526670211.79498792,65773680,-0.27,-0.87,-0.4,545.636413574,-16.66,-16.51,213.5,214.31,0.0,0.0
1526670211.89494801,65873640,-0.16,-0.79,-0.33,659.081298828,-16.67,-16.44,213.5,214.16,0.0,0.0
1526670211.99490786,65973600,-0.03,-0.63,-0.24,732.178466797,-16.65,-16.45,213.5,213.96,0.0,0.0
1526670212.09486794,66073560,0.11,-0.48,-0.13,764.238586426,-16.6,-16.49,213.5,213.78,0.0,0.0
1526670212.19482803,66173520,0.21,-0.38,-0.01,792.901977539,-16.72,-16.52,213.5,213.66,0.0,0.0
1526670212.29478788,66273480,0.28,-0.24,0.11,823.240905762,-16.81,-16.5,213.5,213.54,0.0,0.0
1526670212.39474797,66373440,0.35,-0.12,0.22,842.56652832,-16.75,-16.47,213.5,213.44,0.0,0.0
1526670212.49470806,66473400,0.4,0.07,0.31,846.485229492,-16.88,-16.44,213.5,213.38,0.0,0.0
1526670212.59550095,66574193,0.42,0.29,0.39,819.923950195,-16.9,-16.52,213.5,213.35,0.0,0.0
1526670212.69546103,66674153,0.39,0.4,0.43,784.958740234,-16.88,-16.62,213.5,213.4,0.0,0.0
1526670212.79542089,66774113,0.32,0.43,0.44,751.122680664,-16.89,-16.64,213.5,213.44,0.0,0.0
1526670212.89538097,66874073,0.24,0.41,0.41,720.05847168,-16.96,-16.68,213.5,213.5,0.0,0.0
1526670212.99534106,66974033,0.18,0.4,0.36,691.50201416,-16.98,-16.76,213.5,213.58,0.0,0.0
1526670213.09530091,67073993,0.07,0.38,0.28,97.0188217163,-17.1,-16.88,213.5,213.69,0.0,0.0
1526670213.19526100,67173953,-0.02,0.31,0.18,136.313262939,-17.09,-17.03,213.5,213.75,0.0,0.0
1526670213.29522085,67273913,-0.13,0.18,0.07,131.44732666,-17.13,-17.12,213.5,213.86,0.0,0.0
1526670213.39518094,67373873,-0.22,0.07,-0.04,127.330535889,-17.13,-17.21,213.5,214.03,0.0,0.0
1526670213.49514103,67473833,-0.3,-0.06,-0.15,123.424346924,-17.17,-17.3,213.5,214.14,0.0,0.0
1526670213.59510088,67573793,-0.32,-0.24,-0.24,104.723190308,-17.14,-17.39,213.5,214.15,0.0,0.0
1526670213.69506097,67673753,-0.32,-0.36,-0.31,88.5040512085,-17.06,-17.45,213.5,214.11,0.0,0.0
1526670213.79502106,67773713,-0.28,-0.46,-0.35,82.7953720093,-17.11,-17.47,213.5,213.97,0.0,0.0
1526670213.89498091,67873673,-0.24,-0.56,-0.36,101.076568604,-17.06,-17.44,213.5,213.93,0.0,0.0
1526670213.99494100,67973633,-0.16,-0.61,-0.33,154.037719727,-17.04,-17.36,213.5,213.77,0.0,0.0
1526670214.09490085,68073593,-0.07,-0.57,-0.27,220.785308838,-16.98,-17.2,213.5,213.63,0.0,0.0
1526670214.19486094,68173553,0.03,-0.48,-0.19,276.774749756,-16.97,-17.02,213.5,213.5,0.0,0.0
1526670214.29482102,68273513,0.09,-0.34,-0.09,317.425842285,-16.97,-16.87,213.5,213.49,0.0,0.0
1526670214.39478087,68373473,0.14,-0.19,0.0,332.016326904,-16.98,-16.79,213.5,213.48,0.0,0.0
1526670214.49474096,68473433,0.16,0.16,0.08,318.969482422,-15.91,-16.63,297.34,213.6,0.0,0.0
1526670214.59470105,68573393,0.04,0.49,0.14,339.732574463,-12.5,-15.9,297.34,214.42,0.0,0.0
1526670214.69549394,68674186,0.48,0.61,0.17,418.235473633,-10.98,-14.64,297.34,215.95,0.0,0.02
1526670214.79545403,68774146,0.97,0.77,0.32,504.46585083,-10.22,-13.22,297.34,217.97,0.0,0.03
1526670214.89541388,68874106,1.25,1.06,0.55,600.703308105,-9.83,-11.92,297.34,220.44,0.0,0.03
1526670214.99537396,68974066,1.4,1.43,0.82,735.417785645,-9.67,-10.97,297.34,223.25,0.0,0.03
1526670215.09533405,69074026,1.5,1.69,1.08,886.637390137,-9.67,-10.33,297.34,226.32,0.0,0.03
1526670215.19529390,69173986,1.56,1.85,1.31,999.641174316,-9.74,-9.91,297.34,229.62,0.0,0.03
1526670215.29525399,69273946,1.46,1.92,1.48,1061.57495117,-9.87,-9.74,297.34,233.16,0.0,0.03
1526670215.39521384,69373906,1.12,1.96,1.53,1094.21166992,-9.94,-9.73,297.34,236.83,0.0,0.03
1526670215.49517393,69473866,0.74,1.79,1.45,1112.07128906,-9.96,-9.8,297.34,240.55,0.0,0.03
1526670215.59513402,69573826,0.37,1.48,1.23,1099.97338867,-9.94,-9.9,297.34,244.32,0.0,0.03
1526670215.69509387,69673786,0.08,1.09,0.91,297.331970215,-9.93,-9.99,297.34,248.12,0.0,0.03
1526670215.79505396,69773746,0.0,0.73,0.57,266.46585083,-10.0,-10.0,297.34,251.94,0.0,0.03
1526670215.89501405,69873706,0.02,0.47,0.26,293.103912354,-10.13,-9.94,297.34,255.72,0.0,0.03
1526670215.99497390,69973666,0.13,0.37,0.04,436.833465576,-10.35,-9.89,297.34,259.53,0.0,0.03
1526670216.09493399,70073626,0.26,0.35,-0.06,680.851806641,-10.62,-9.93,297.34,263.35,0.0,0.03
1526670216.19489384,70173586,0.4,0.4,-0.06,932.907409668,-10.95,-10.08,297.34,267.22,0.0,0.02
1526670216.29485393,70273546,0.47,0.42,0.01,1105.85827637,-11.27,-10.35,297.34,271.22,0.0,0.02
1526670216.39481401,70373506,0.43,0.5,0.13,1152.25671387,-11.55,-10.61,297.34,275.24,0.0,0.02
1526670216.49477386,70473466,0.29,0.53,0.24,1146.97436523,-11.78,-10.9,297.34,279.19,0.0,0.02
1526670216.59473395,70573426,0.03,0.53,0.3,1087.61254883,-11.98,-11.21,297.34,283.12,0.0,0.02
1526670216.69469404,70673386,-0.51,0.41,0.24,1019.5892334,-11.89,-11.55,297.34,287.13,0.0,0.02
1526670216.79548693,70774179,-1.3,0.14,0.0,950.907592773,-11.52,-11.82,297.34,291.26,0.0,0.02
1526670216.89544702,70874139,-2.13,-0.51,-0.43,875.876464844,-10.98,-12.01,297.34,295.17,0.0,0.02
1526670216.99540687,70974099,-2.87,-1.49,-1.05,870.149475098,-10.37,-11.97,297.34,298.55,0.0,0.01
1526670217.09536695,71074059,-3.41,-2.51,-1.78,1058.93945312,-9.78,-11.64,297.34,301.1,0.0,0.01
1526670217.19532704,71174019,-3.69,-3.5,-2.5,1489.01721191,-9.28,-11.08,297.34,302.84,0.0,0.0
1526670217.29528689,71273979,-3.66,-4.23,-3.13,2107.83349609,-8.91,-10.4,297.34,303.56,0.0,0.0
1526670217.39524698,71373939,-3.41,-4.57,-3.55,2641.43481445,-8.71,-9.79,297.34,303.47,0.0,0.0
1526670217.49520683,71473899,-3.01,-4.61,-3.73,2997.80859375,-8.65,-9.24,297.34,302.95,0.0,0.0
1526670217.59516692,71573859,-2.49,-4.31,-3.65,3160.24047852,-8.52,-8.82,297.34,301.99,0.0,0.0
1526670217.69512701,71673819,-2.06,-3.87,-3.34,3163.90844727,-6.76,-8.45,297.34,300.73,0.0,0.01
1526670217.79508686,71773779,-1.48,-3.42,-2.87,3144.87109375,-6.25,-7.87,297.34,299.44,0.0,0.0
1526670217.89504695,71873739,-0.9,-2.84,-2.28,3141.13525391,-6.19,-7.19,297.34,298.2,0.0,0.0
1526670217.99500704,71973699,-0.37,-2.06,-1.61,3116.37963867,-6.23,-6.59,297.34,297.24,0.0,0.0
1526670218.09496689,72073659,0.06,-1.25,-0.94,3045.29418945,-6.38,-6.2,297.34,296.56,0.0,0.0
1526670218.19492698,72173619,0.39,-0.56,-0.31,2952.92553711,-6.63,-6.04,297.34,296.21,0.0,0.0
1526670218.29488683,72273579,0.6,0.04,0.21,301.258361816,-6.88,-6.08,297.34,296.1,0.0,0.0
1526670218.39484692,72373539,0.71,0.57,0.61,134.254364014,-7.21,-6.23,297.34,296.09,0.0,0.0
1526670218.49480700,72473499,0.71,0.94,0.88,72.7918777466,-7.55,-6.56,297.34,296.22,0.0,0.0
1526670218.59476686,72573459,0.63,1.12,1.0,78.5260848999,-7.86,-6.91,297.34,296.37,0.0,0.0
1526670218.69472694,72673419,0.51,1.18,0.99,115.601486206,-8.17,-7.27,297.34,296.56,0.0,0.0
1526670218.79468703,72773379,0.36,1.14,0.88,188.134368896,-8.42,-7.56,297.34,296.82,0.0,0.0
1526670218.89547992,72874172,0.24,1.05,0.69,318.687988281,-8.67,-7.9,297.34,297.08,0.0,0.0
1526670218.99544001,72974132,0.12,0.91,0.48,483.183288574,-8.89,-8.22,297.34,297.38,0.0,0.01
1526670219.09539986,73074092,0.0,0.77,0.25,694.385192871,-9.11,-8.55,297.34,297.7,0.0,0.01
1526670219.19535995,73174052,-0.08,0.65,0.05,957.933410645,-9.3,-8.89,297.34,297.95,0.0,0.01
1526670219.29532003,73274012,-0.12,0.5,-0.11,1237.42382812,-9.41,-9.18,297.34,298.13,0.0,0.01
1526670219.39527988,73373972,-0.1,0.36,-0.23,1459.36877441,-9.48,-9.39,297.34,298.12,0.0,0.01
1526670219.49523997,73473932,-0.03,0.28,-0.29,1623.9576416,-9.6,-9.55,297.34,297.92,0.0,0.01
1526670219.59520006,73573892,0.06,0.25,-0.28,1736.65795898,-9.66,-9.71,297.34,297.67,0.0,0.01
1526670219.69515991,73673852,0.2,0.19,-0.21,1775.28234863,-9.72,-9.83,297.34,297.38,0.0,0.01
1526670219.79512000,73773812,0.37,0.14,-0.09,1726.41772461,-9.75,-9.84,297.34,297.16,0.0,0.0
1526670219.89507985,73873772,0.52,0.13,0.06,1633.40698242,-9.81,-9.79,297.34,297.04,0.0,0.0
1526670219.99503994,73973732,0.69,0.19,0.25,1538.50061035,-9.86,-9.75,297.34,296.97,0.0,0.0
1526670220.09500003,74073692,0.86,0.3,0.45,1461.13769531,-9.9,-9.72,297.34,296.95,0.0,0.0
1526670220.19495988,74173652,0.99,0.49,0.65,1398.80102539,-9.92,-9.66,297.34,296.98,0.0,0.0
1526670220.29491997,74273612,1.08,0.69,0.84,1341.00671387,-9.96,-9.64,297.34,297.05,0.0,0.0
1526670220.39488006,74373572,1.17,0.87,0.99,1286.5300293,-9.98,-9.64,297.34,297.16,0.0,0.0
1526670220.49483991,74473532,1.24,1.07,1.12,1231.45812988,-10.01,-9.71,297.34,297.34,0.0,0.0
1526670220.59480000,74573492,1.25,1.21,1.21,1178.15771484,-10.05,-9.84,297.34,297.49,0.0,0.0
1526670220.69475985,74673452,1.22,1.2,1.26,1129.48742676,-10.07,-9.93,297.34,297.68,0.0,0.0
1526670220.79471993,74773412,1.16,1.17,1.26,1087.35925293,-10.11,-10.0,297.34,297.83,0.0,0.0
1526670220.89468002,74873372,1.12,1.18,1.23,30.8905849457,-10.12,-10.03,297.34,297.94,0.0,0.0
1526670220.99547291,74974165,1.08,1.19,1.18,14.7902173996,-10.14,-10.11,297.34,298.03,0.0,0.0
1526670221.09543300,75074125,1.04,1.17,1.12,12.4788570404,-10.14,-10.12,297.34,298.01,0.0,0.0
1526670221.19539285,75174085,1.42,1.31,1.07,80.1604614258,-8.11,-9.97,88.14,298.09,0.0,0.0
1526670221.29535294,75274045,1.95,1.44,1.18,223.573806763,-5.18,-9.12,88.14,298.87,0.0,0.02
1526670221.39531302,75374005,2.12,1.54,1.39,255.601913452,-3.78,-7.71,88.14,300.46,0.0,0.04
1526670221.49527287,75473965,2.16,1.75,1.63,242.084823608,-3.01,-6.24,88.14,302.69,0.0,0.05
1526670221.59523296,75573925,2.14,2.03,1.84,240.716049194,-2.57,-4.97,88.14,305.37,0.0,0.05
1526670221.69519305,75673885,2.04,2.25,2.0,268.924957275,-2.37,-4.02,88.14,308.33,0.0,0.05
1526670221.79515290,75773845,1.84,2.37,2.07,318.184051514,-2.32,-3.39,88.14,311.53,0.0,0.05
1526670221.89511299,75873805,1.58,2.43,2.04,404.354064941,-2.35,-3.07,88.14,314.9,0.0,0.04
1526670221.99507284,75973765,1.27,2.37,1.9,533.93572998,-2.42,-2.91,88.14,318.39,0.0,0.04
1526670222.09503293,76073725,0.91,2.15,1.67,675.054199219,-2.47,-2.81,88.14,321.99,0.0,0.03
1526670222.19499302,76173685,0.52,1.84,1.35,803.539733887,-2.48,-2.73,88.14,325.77,0.0,0.03
1526670222.29495287,76273645,0.16,1.45,0.97,915.944763184,-2.45,-2.66,88.14,329.69,0.0,0.03
1526670222.39491296,76373605,-0.15,1.04,0.56,1011.36816406,-2.36,-2.56,88.14,333.68,0.0,0.03
1526670222.49487305,76473565,-0.44,0.59,0.16,1071.91357422,-2.22,-2.46,88.14,337.71,0.0,0.03
1526670222.59483290,76573525,-0.63,0.21,-0.19,1111.51794434,-2.05,-2.36,88.14,341.76,0.0,0.03
1526670222.69479299,76673485,-0.74,-0.08,-0.49,1144.93408203,-1.8,-2.16,88.14,345.83,0.0,0.03
1526670222.79475284,76773445,-0.81,-0.32,-0.72,1175.25732422,-1.52,-1.95,88.14,349.91,0.0,0.03
1526670222.89471292,76873405,-0.6,-0.51,-0.84,1187.56188965,-1.22,-1.72,88.14,353.91,0.0,0.03
1526670222.99550605,76974198,-0.11,-0.55,-0.81,1174.84216309,-0.91,-1.4,88.14,357.89,0.0,0.04
1526670223.09546590,77074158,0.51,-0.42,-0.59,1144.8770752,-0.64,-1.05,88.14,1.85,0.0,0.04
1526670223.19542599,77174118,1.24,-0.08,-0.18,1103.50280762,-0.39,-0.73,88.14,5.76,0.0,0.04
1526670223.29538584,77274078,1.95,0.43,0.4,1059.50817871,-0.19,-0.45,88.14,9.72,0.0,0.05
1526670223.39534593,77374038,2.49,1.04,1.08,1017.4175415,-0.35,-0.31,88.14,13.73,0.0,0.05
1526670223.49530602,77473998,2.88,1.65,1.79,199.270858765,-0.76,-0.24,88.14,17.8,0.0,0.05
1526670223.59526587,77573958,3.15,2.2,2.43,375.440979004,-1.34,-0.34,88.14,21.92,0.0,0.05
1526670223.69522595,77673918,3.27,2.67,2.96,531.851318359,-1.98,-0.64,88.14,26.06,0.0,0.05
1526670223.79518604,77773878,3.35,3.02,3.34,669.408874512,-2.61,-1.08,88.14,30.21,0.0,0.05
1526670223.89514589,77873838,3.33,3.27,3.58,766.812683105,-3.23,-1.57,88.14,34.29,0.0,0.05
1526670223.99510598,77973798,3.24,3.43,3.66,768.121765137,-3.85,-2.15,88.14,38.28,0.0,0.05
1526670224.09506583,78073758,3.09,3.46,3.62,708.574829102,-4.45,-2.75,88.14,42.32,0.0,0.05
1526670224.19502592,78173718,2.84,3.42,3.47,625.885925293,-5.04,-3.39,88.14,46.39,0.0,0.05
1526670224.29498601,78273678,2.56,3.26,3.23,548.800598145,-5.59,-4.03,88.14,50.46,0.0,0.05
1526670224.39494586,78373638,2.3,3.04,2.93,495.428924561,-6.05,-4.64,88.14,54.53,0.0,0.05
1526670224.49490595,78473598,1.89,2.75,2.58,465.774932861,-6.24,-5.13,88.14,58.64,0.0,0.05
1526670224.59486604,78573558,1.4,2.37,2.19,448.80871582,-6.34,-5.51,88.14,62.71,0.0,0.05
1526670224.69482589,78673518,0.92,1.95,1.76,437.381835938,-6.39,-5.82,88.14,66.75,0.0,0.04
1526670224.79478598,78773478,0.44,1.52,1.3,433.128295898,-6.43,-6.07,88.14,70.72,0.0,0.04
1526670224.89474583,78873438,-0.04,1.08,0.82,443.396514893,-6.47,-6.26,88.14,74.7,0.0,0.04
1526670224.99470592,78973398,-0.48,0.6,0.35,454.085540771,-6.48,-6.42,88.14,78.7,0.0,0.04
1526670225.09549904,79074191,-0.91,0.14,-0.11,467.730834961,-6.51,-6.47,88.14,82.72,0.0,0.04
1526670225.19545889,79174151,-1.3,-0.33,-0.55,476.280883789,-6.51,-6.51,88.14,86.45,0.0,0.04
1526670225.29541898,79274111,-1.62,-0.83,-0.97,469.537628174,-6.53,-6.59,88.14,89.55,0.0,0.03
1526670225.39537883,79374071,-1.79,-1.33,-1.32,448.720977783,-6.61,-6.67,88.14,91.79,0.0,0.03
1526670225.49533892,79474031,-1.85,-1.79,-1.6,431.572875977,-6.73,-6.78,88.14,93.17,0.0,0.02
1526670225.59529901,79573991,-1.79,-2.17,-1.78,452.879058838,-6.92,-6.85,88.14,93.76,0.0,0.01
1526670225.69525886,79673951,-1.63,-2.39,-1.85,535.408508301,-7.33,-6.93,88.14,93.57,0.0,0.0
1526670225.79521894,79773911,-1.35,-2.36,-1.79,650.640441895,-7.91,-6.95,88.14,92.86,0.0,0.0
1526670225.89517903,79873871,-1.01,-2.02,-1.62,721.786499023,-8.57,-7.08,88.14,91.91,0.0,0.0
1526670225.99513888,79973831,-0.63,-1.54,-1.35,728.522216797,-9.28,-7.42,88.14,90.76,0.0,0.0
1526670226.09509897,80073791,-0.25,-0.98,-0.99,3.06266021729,-9.97,-7.98,88.14,89.54,0.0,0.0
1526670226.19505906,80173751,0.06,-0.43,-0.59,122.688491821,-10.61,-8.62,88.14,88.51,0.0,0.0
1526670226.29501891,80273711,0.29,0.07,-0.19,332.881988525,-11.23,-9.32,88.14,87.73,0.0,0.01
1526670226.39497900,80373671,0.41,0.46,0.16,511.421356201,-11.8,-10.02,88.14,87.22,0.0,0.01
1526670226.49493885,80473631,0.44,0.71,0.44,589.464904785,-12.33,-10.73,88.14,86.94,0.0,0.02
1526670226.59489894,80573591,0.39,0.82,0.62,572.32434082,-12.85,-11.44,88.14,86.9,0.0,0.02
1526670226.69485903,80673551,0.36,0.79,0.7,517.019104004,-11.24,-12.1,88.14,87.06,0.0,0.02
1526670226.79481888,80773511,0.34,0.3,0.7,502.644470215,-8.17,-12.0,88.14,87.39,0.0,0.01
1526670226.89477897,80873471,0.34,-0.23,0.64,1013.21984863,-6.8,-10.94,88.14,87.75,0.0,0.01
1526670226.99473906,80973431,0.41,-0.51,0.57,2039.03759766,-6.24,-9.58,88.14,88.1,0.0,0.02
1526670227.09469891,81073391,0.5,-0.5,0.5,2945.92333984,-6.2,-8.32,88.14,88.43,0.0,0.02
1526670227.19549203,81174184,0.63,-0.3,0.47,3407.00463867,-6.25,-7.33,88.14,88.71,0.0,0.01
1526670227.29545188,81274144,0.75,-0.04,0.49,3483.49584961,-6.38,-6.71,88.14,88.9,0.0,0.01
1526670227.39541197,81374104,0.79,0.27,0.54,3349.62963867,-6.78,-6.4,88.14,89.0,0.0,0.0
1526670227.49537206,81474064,0.8,0.6,0.61,3128.91210938,-7.05,-6.37,88.14,88.97,0.0,0.0
1526670227.59533191,81574024,0.75,0.86,0.68,2928.57202148,-7.44,-6.53,88.14,88.83,0.0,0.0
1526670227.69529200,81673984,0.67,1.01,0.71,2784.62646484,-7.79,-6.81,88.14,88.64,0.0,0.0
1526670227.79525185,81773944,0.61,1.05,0.72,2678.41357422,-8.02,-7.17,88.14,88.49,0.0,0.0
1526670227.89521194,81873904,0.51,1.03,0.69,2589.92602539,-8.32,-7.54,88.14,88.37,0.0,0.01
1526670227.99517202,81973864,0.42,1.0,0.63,2517.31494141,-8.61,-7.89,88.14,88.31,0.0,0.01
1526670228.09513187,82073824,0.33,0.9,0.55,2456.14648438,-8.73,-8.22,88.14,88.33,0.0,0.01
1526670228.19509196,82173784,0.21,0.7,0.44,2382.27148438,-9.13,-8.51,88.14,88.36,0.0,0.01
1526670228.29505205,82273744,0.13,0.51,0.33,2294.70996094,-9.25,-8.73,88.14,88.33,0.0,0.0
1526670228.39501190,82373704,0.08,0.34,0.22,2203.74609375,-9.49,-8.92,88.14,88.28,0.0,0.0
1526670228.49497199,82473664,0.07,0.21,0.13,2115.0246582,-9.67,-9.12,88.14,88.16,0.0,0.0
1526670228.59493184,82573624,0.12,0.16,0.07,2032.70324707,-9.75,-9.29,88.14,88.03,0.0,0.0
1526670228.69489193,82673584,0.18,0.17,0.06,120.289543152,-9.74,-9.41,88.14,87.96,0.0,0.0
1526670228.79485202,82773544,0.2,0.15,0.07,98.5261764526,-9.83,-9.49,88.14,87.98,0.0,0.0
1526670228.89481187,82873504,0.2,0.18,0.1,79.1739883423,-9.92,-9.57,88.14,88.07,0.0,0.0
1526670228.99477196,82973464,0.17,0.22,0.13,73.5625,-10.04,-9.69,88.14,88.21,0.0,0.0
1526670229.09473205,83073424,0.15,0.26,0.16,74.2739562988,-10.11,-9.83,88.14,88.35,0.0,0.0
1526670229.19469190,83173384,0.13,0.27,0.18,79.0126419067,-10.17,-9.99,88.14,88.52,0.0,0.01
1526670229.29548502,83274177,0.11,0.24,0.18,75.1610488892,-10.23,-10.15,88.14,88.65,0.0,0.01
1526670229.39544487,83374137,0.1,0.16,0.17,65.6345748901,-10.22,-10.27,88.14,88.76,0.0,0.0
1526670229.49540496,83474097,0.09,0.06,0.16,64.8934707642,-10.27,-10.34,88.14,88.84,0.0,0.0
1526670229.59536505,83574057,0.08,0.06,0.14,71.1413574219,-10.24,-10.41,88.14,88.85,0.0,0.0
1526670229.69532490,83674017,0.1,0.07,0.13,69.2002639771,-10.33,-10.45,88.14,88.82,0.0,0.0
1526670229.79528499,83773977,0.15,0.13,0.12,64.0583496094,-10.37,-10.44,88.14,88.76,0.0,0.0
1526670229.89524484,83873937,0.21,0.18,0.14,59.3875961304,-10.35,-10.44,88.14,88.65,0.0,0.0
1526670229.99520493,83973897,0.25,0.15,0.16,55.4105491638,-10.37,-10.38,88.14,88.59,0.0,0.0
1526670230.09516501,84073857,0.27,0.14,0.2,52.8398208618,-10.49,-10.36,88.14,88.54,0.0,0.0
1526670230.19512486,84173817,0.29,0.2,0.23,51.3959197998,-10.47,-10.42,88.14,88.58,0.0,0.0
1526670230.29508495,84273777,0.31,0.23,0.27,49.3043212891,-10.42,-10.57,88.14,88.65,0.0,0.0
1526670230.39504504,84373737,0.33,0.2,0.3,49.7929496765,-10.41,-10.67,88.14,88.72,0.0,0.0
1526670230.49500489,84473697,0.37,0.19,0.33,56.426990509,-10.35,-10.71,88.14,88.71,0.0,0.0
1526670230.59496498,84573657,0.43,0.18,0.37,68.325378418,-10.36,-10.75,88.14,88.58,0.0,0.0
1526670230.69492483,84673617,0.5,0.14,0.41,91.3115463257,-10.38,-10.74,88.14,88.43,0.0,0.0
1526670230.79488492,84773577,0.56,0.11,0.45,133.310943604,-10.34,-10.64,88.14,88.26,0.0,0.0
1526670230.89484501,84873537,0.62,0.1,0.51,194.386047363,-10.32,-10.47,88.14,88.15,0.0,0.0
1526670230.99480486,84973497,0.66,0.16,0.56,260.782836914,-10.24,-10.32,88.14,88.05,0.0,0.0
1526670231.09476495,85073457,0.7,0.28,0.62,308.333435059,-10.37,-10.25,88.14,88.02,0.0,0.0
1526670231.19472504,85173417,0.69,0.4,0.66,333.289550781,-10.46,-10.22,88.14,88.07,0.0,0.0
1526670231.29468489,85273377,0.7,0.52,0.69,303.921142578,-10.5,-10.24,88.14,88.12,0.0,0.0
1526670231.39547801,85374170,0.67,0.55,0.71,250.538253784,-10.6,-10.3,88.14,88.17,0.0,0.0
1526670231.49543786,85474130,0.6,0.5,0.7,289.713348389,-10.59,-10.34,88.14,88.29,0.0,0.0
1526670231.59539795,85574090,0.56,0.48,0.67,346.711517334,-10.55,-10.39,88.14,88.36,0.0,0.0
1526670231.69535804,85674050,0.53,0.5,0.63,340.23651123,-10.61,-10.45,88.14,88.37,0.0,0.0
1526670231.79531789,85774010,0.51,0.57,0.59,286.311126709,-10.68,-10.51,88.14,88.35,0.0,0.0
1526670231.89527798,85873970,0.47,0.64,0.54,242.583358765,-10.57,-10.57,88.14,88.34,0.0,0.0
1526670231.99523783,85973930,0.4,0.62,0.5,225.045654297,-10.83,-10.63,88.14,88.32,0.0,0.0
1526670232.09519792,86073890,0.33,0.61,0.44,220.801498413,-10.84,-10.71,88.14,88.26,0.0,0.0
1526670232.19515800,86173850,0.28,0.58,0.38,232.682785034,-10.87,-10.81,88.14,88.19,0.0,0.0
1526670232.29511786,86273810,0.23,0.52,0.33,244.82635498,-10.91,-10.83,88.14,88.17,0.0,0.0
1526670232.39507794,86373770,0.17,0.51,0.27,264.440673828,-10.78,-10.88,88.14,88.18,0.0,0.0
1526670232.49503803,86473730,0.1,0.47,0.21,294.825012207,-10.82,-10.92,88.14,88.18,0.0,0.0
1526670232.59499788,86573690,0.06,0.37,0.16,316.50579834,-10.87,-10.97,88.14,88.19,0.0,0.0
1526670232.69495797,86673650,0.05,0.24,0.11,314.354187012,-11.08,-10.97,88.14,88.21,0.0,0.0
1526670232.79491806,86773610,0.05,0.13,0.07,298.654144287,-11.0,-11.04,88.14,88.16,0.0,0.0
1526670232.89487791,86873570,0.07,0.0,0.05,280.760925293,-11.02,-11.13,88.14,88.13,0.0,0.0
1526670232.99483800,86973530,0.06,-0.07,0.05,269.873016357,-11.03,-11.18,88.14,88.14,0.0,0.0
1526670233.09479785,87073490,0.09,-0.11,0.05,265.621307373,-10.92,-11.18,88.14,88.14,0.0,0.0
1526670233.19475794,87173450,0.13,-0.11,0.07,266.945495605,-10.99,-11.17,88.14,88.14,0.0,0.0
1526670233.29471803,87273410,0.14,-0.06,0.09,268.184448242,-10.97,-11.17,88.14,88.18,0.0,0.0
1526670233.39467788,87373370,0.14,-0.03,0.12,266.636383057,-11.02,-11.13,88.14,88.21,0.0,0.0
1526670233.49547100,87474163,0.12,0.0,0.15,265.202606201,-11.08,-11.08,88.14,88.27,0.0,0.0
1526670233.59543085,87574123,0.1,0.04,0.16,264.336975098,-11.03,-11.03,263.1,88.33,0.0,0.0
1526670233.69539094,87674083,0.12,0.31,0.16,256.393920898,-7.38,-10.6,263.1,88.82,0.0,0.0
1526670233.79535103,87774043,0.04,0.3,0.15,256.046508789,-5.03,-9.45,263.1,90.15,0.0,0.0
1526670233.89531088,87874003,-0.08,0.23,0.12,105.381881714,-3.73,-7.88,263.1,92.14,0.0,0.01
1526670233.99527097,87973963,-0.24,0.21,0.06,147.101760864,-2.77,-6.4,263.1,94.56,0.0,0.0
1526670234.09523106,88073923,-0.42,0.22,-0.04,298.814971924,-2.04,-5.11,263.1,97.42,0.0,0.0
1526670234.19519091,88173883,-0.56,0.12,-0.18,472.123809814,-1.44,-3.94,263.1,100.62,0.0,0.0
1526670234.29515100,88273843,-0.7,0.0,-0.33,617.450744629,-0.91,-2.99,263.1,104.05,0.0,0.01
1526670234.39511085,88373803,-0.8,-0.15,-0.49,726.698608398,-0.43,-2.21,263.1,107.66,0.0,0.01
1526670234.49507093,88473763,-0.83,-0.33,-0.64,787.89251709,0.0,-1.56,263.1,111.32,0.0,0.02
1526670234.59503102,88573723,-0.74,-0.42,-0.74,826.469360352,0.46,-0.98,263.1,115.04,0.0,0.02
1526670234.69499087,88673683,-0.54,-0.5,-0.78,848.118652344,0.92,-0.42,263.1,118.85,0.0,0.02
1526670234.79495096,88773643,-0.23,-0.46,-0.73,843.927429199,1.36,0.12,263.1,122.73,0.0,0.02
1526670234.89491105,88873603,0.27,-0.33,-0.56,829.843505859,1.84,0.65,263.1,126.64,0.0,0.02
1526670234.99487090,88973563,0.99,-0.07,-0.25,794.801330566,2.35,1.14,263.1,130.6,0.0,0.02
1526670235.09483099,89073523,1.62,0.26,0.22,739.756774902,2.53,1.62,263.1,134.59,0.0,0.02
1526670235.19479084,89173483,1.91,0.74,0.78,683.469909668,2.23,2.04,263.1,138.54,0.0,0.02
1526670235.29475093,89273443,1.95,1.26,1.31,635.614685059,1.72,2.28,263.1,142.47,0.0,0.02
1526670235.39471102,89373403,1.8,1.71,1.72,594.418212891,1.21,2.25,263.1,146.42,0.0,0.02
1526670235.49550390,89474196,1.62,1.98,1.95,557.690307617,0.69,1.9,263.1,150.46,0.0,0.03
1526670235.59546399,89574156,1.73,2.09,2.04,525.753540039,0.34,1.47,263.1,154.54,0.0,0.03
1526670235.69542384,89674116,1.92,2.11,2.06,497.652923584,0.07,1.08,263.1,158.61,0.0,0.03
1526670235.79538393,89774076,2.15,2.15,2.07,473.121887207,-0.17,0.83,263.1,162.66,0.0,0.03
1526670235.89534402,89874036,2.43,2.25,2.1,455.798370361,-0.45,0.6,263.1,166.7,0.0,0.03
1526670235.99530387,89973996,2.7,2.34,2.2,443.831970215,-0.65,0.33,263.1,170.74,0.0,0.03
1526670236.09526396,90073956,3.02,2.47,2.36,430.798461914,-0.96,0.05,263.1,174.77,0.0,0.03
1526670236.19522405,90173916,3.32,2.69,2.59,416.436798096,-1.29,-0.25,263.1,178.79,0.0,0.03
1526670236.29518390,90273876,3.62,2.93,2.87,402.642028809,-1.65,-0.59,263.1,182.87,0.0,0.02
1526670236.39514399,90373836,3.92,3.2,3.18,387.310089111,-2.05,-0.99,263.1,186.95,0.0,0.02
1526670236.49510384,90473796,4.19,3.45,3.51,40.5799484253,-2.46,-1.36,263.1,191.03,0.0,0.02
1526670236.59506392,90573756,4.44,3.74,3.84,65.8909072876,-2.86,-1.76,263.1,195.14,0.0,0.02
1526670236.69502401,90673716,4.65,3.96,4.15,138.061218262,-3.34,-2.23,263.1,199.27,0.0,0.02
1526670236.79498386,90773676,4.74,4.17,4.42,272.612091064,-3.79,-2.69,263.1,203.37,0.0,0.02
1526670236.89494395,90873636,4.52,4.32,4.59,376.319610596,-4.09,-3.17,263.1,207.46,0.0,0.02
1526670236.99490404,90973596,4.2,4.35,4.63,464.944549561,-4.37,-3.56,263.1,211.53,0.0,0.02
1526670237.09486389,91073556,3.85,4.27,4.52,505.417205811,-4.64,-3.92,263.1,215.64,0.0,0.02
1526670237.19482398,91173516,3.5,4.12,4.28,496.352081299,-4.94,-4.3,263.1,219.67,0.0,0.02
1526670237.29478383,91273476,3.11,3.9,3.95,450.39465332,-5.24,-4.65,263.1,223.7,0.0,0.02
1526670237.39474392,91373436,2.71,3.63,3.55,402.631530762,-5.53,-5.04,263.1,227.83,0.0,0.02
1526670237.49470401,91473396,2.29,3.3,3.1,383.350067139,-5.81,-5.33,263.1,231.99,0.0,0.03
1526670237.59549689,91574189,1.89,2.95,2.64,409.977478027,-6.09,-5.51,263.1,236.17,0.0,0.03
1526670237.69545698,91674149,1.49,2.53,2.19,462.140716553,-6.36,-5.66,263.1,240.29,0.0,0.03
1526670237.79541683,91774109,1.05,2.14,1.74,529.156677246,-6.64,-5.87,263.1,244.5,0.0,0.03
1526670237.89537692,91874069,0.56,1.7,1.3,607.291931152,-6.91,-6.11,263.1,248.73,0.0,0.03
1526670237.99533701,91974029,0.02,1.24,0.85,662.356384277,-7.13,-6.34,263.1,252.96,0.0,0.02
1526670238.09529686,92073989,-0.53,0.8,0.39,723.031799316,-7.32,-6.61,263.1,257.13,0.0,0.02
1526670238.19525695,92173949,-1.03,0.2,-0.07,753.040039062,-7.62,-6.95,263.1,261.07,0.0,0.02
1526670238.29521704,92273909,-1.5,-0.47,-0.55,730.456115723,-8.09,-7.32,263.1,264.51,0.0,0.01
1526670238.39517689,92373869,-1.91,-1.13,-1.01,693.914489746,-8.6,-7.7,263.1,267.06,0.0,0.0
1526670238.49513698,92473829,-2.18,-1.7,-1.45,677.479858398,-9.13,-8.04,263.1,268.65,0.0,0.01
1526670238.59509683,92573789,-2.29,-2.1,-1.81,681.308837891,-9.69,-8.42,263.1,269.36,0.0,0.02
1526670238.69505692,92673749,-2.23,-2.37,-2.06,690.99822998,-10.25,-8.86,263.1,269.28,0.0,0.03
1526670238.79501700,92773709,-1.98,-2.47,-2.18,699.383666992,-10.8,-9.25,263.1,268.64,0.0,0.03
1526670238.89497685,92873669,-1.62,-2.38,-2.13,698.895935059,-11.34,-9.65,263.1,267.68,0.0,0.03
1526670238.99493694,92973629,-1.19,-2.11,-1.93,689.662597656,-11.85,-10.1,263.1,266.46,0.0,0.04
1526670239.09489703,93073589,-0.73,-1.71,-1.58,144.064086914,-12.34,-10.64,263.1,265.23,0.0,0.04
1526670239.19485688,93173549,-0.26,-1.22,-1.14,81.5274658203,-12.82,-11.22,263.1,264.05,0.0,0.04
1526670239.29481697,93273509,0.15,-0.67,-0.64,50.8572540283,-13.24,-11.76,263.1,263.01,0.0,0.04
1526670239.39477706,93373469,0.47,-0.14,-0.13,34.742893219,-13.6,-12.27,263.1,262.21,0.0,0.03
1526670239.49473691,93473429,0.69,0.31,0.32,26.2569389343,-13.93,-12.75,263.1,261.62,0.0,0.03
1526670239.59469700,93573389,0.82,0.66,0.7,23.4748783112,-14.25,-13.19,263.1,261.21,0.0,0.03
1526670239.69548988,93674182,0.85,0.91,0.98,26.629693985,-14.44,-13.62,263.1,261.06,0.0,0.02
1526670239.79544997,93774142,0.77,1.06,1.13,30.4785823822,-14.46,-13.97,263.1,261.11,0.0,0.02
1526670239.89541006,93874102,0.61,1.08,1.16,35.703792572,-14.43,-14.25,263.1,261.35,0.0,0.02
1526670239.99536991,93974062,0.41,0.98,1.07,40.6971664429,-14.37,-14.51,263.1,261.69,0.0,0.01
1526670240.09533000,94074022,0.18,0.75,0.89,51.2762145996,-14.29,-14.7,263.1,262.1,0.0,0.01
1526670240.19528985,94173982,-0.02,0.42,0.64,74.1639022827,-14.19,-14.81,263.1,262.53,0.0,0.01
1526670240.29524994,94273942,-0.2,0.09,0.35,119.2995224,-14.12,-14.79,263.1,262.91,0.0,0.01
