timestamp,TimeUS,DesR,R,IR,IRErr,DesP,P,DesY,Y,ErrRP,ErrYaw
1526670304.45670605,29173326,0.0,1.04,0.0,9460.61035156,0.0,0.4,355.29,355.29,0.0,0.0
1526670304.55749893,29274119,0.0,1.04,0.0,9573.32421875,0.0,0.42,353.18,353.18,0.0,0.0
1526670304.65745902,29374079,0.0,1.06,0.0,9683.2109375,0.0,0.42,353.08,353.08,0.0,0.0
1526670304.75741911,29474039,0.0,1.09,0.0,9824.50097656,0.0,0.43,353.01,353.01,0.0,0.0
1526670304.85737896,29573999,0.0,1.13,0.0,9994.05371094,0.0,0.42,352.95,352.95,0.0,0.0
1526670304.95733905,29673959,0.0,1.17,0.0,10193.6035156,0.0,0.41,352.9,352.9,0.0,0.0
1526670305.05729914,29773919,0.0,1.2,0.0,10416.921875,0.0,0.41,352.82,352.82,0.0,0.0
1526670305.15725899,29873879,0.0,1.22,0.0,10649.6240234,0.0,0.42,352.73,352.73,0.0,0.0
1526670305.25721908,29973839,0.0,1.24,0.0,10887.0390625,0.0,0.43,352.63,352.63,0.0,0.0
1526670305.35717893,30073799,0.0,1.25,0.0,11121.4658203,0.0,0.43,352.53,352.53,0.0,0.0
1526670305.45713902,30173759,0.0,1.28,0.0,11354.2519531,0.0,0.44,352.44,352.44,0.0,0.0
1526670305.55709910,30273719,0.0,1.3,0.0,11596.0615234,0.0,0.42,352.35,352.35,0.0,0.0
1526670305.65705895,30373679,0.0,1.31,0.0,11836.6191406,0.0,0.42,352.28,352.28,0.0,0.0
1526670305.75701904,30473639,0.0,1.3,0.0,12053.0771484,0.0,0.4,352.22,352.22,0.0,0.0
1526670305.85697913,30573599,0.0,1.31,0.0,12248.5849609,0.0,0.38,352.15,352.15,0.0,0.0
1526670305.95693898,30673559,0.0,1.32,0.0,17424.0,0.0,0.37,352.08,352.08,0.0,0.0
1526670306.05689907,30773519,0.0,1.33,0.0,17669.609375,0.0,0.37,352.03,352.03,0.0,0.0
1526670306.15685892,30873479,0.0,1.34,0.0,17715.4453125,0.0,0.37,352.0,352.0,0.0,0.0
1526670306.25681901,30973439,0.0,1.34,0.0,17794.9667969,0.0,0.38,351.99,351.99,0.0,0.0
1526670306.35677910,31073399,0.0,1.35,0.0,17861.7089844,0.0,0.41,351.99,351.99,0.0,0.0
1526670306.45673895,31173359,0.0,1.35,0.0,17934.0058594,0.0,0.42,351.98,351.98,0.0,0.0
1526670306.55753207,31274152,0.0,1.37,0.0,18027.3320312,0.0,0.41,351.99,351.99,0.0,0.0
1526670306.65749192,31374112,0.0,1.37,0.0,18122.2207031,0.0,0.42,352.0,352.0,0.0,0.0
1526670306.75745201,31474072,0.0,1.37,0.0,18202.8164062,0.0,0.41,352.06,352.06,0.0,0.0
1526670306.85741210,31574032,0.0,1.36,0.0,18256.4765625,0.0,0.38,352.14,352.14,0.0,0.0
1526670306.95737195,31673992,0.0,1.34,0.0,18252.0351562,0.0,0.34,352.21,352.21,0.0,0.0
1526670307.05733204,31773952,0.0,1.33,0.0,18219.1289062,0.0,0.32,352.29,352.29,0.0,0.0
1526670307.15729213,31873912,0.0,1.3,0.0,18149.2617188,0.0,0.32,352.37,352.37,0.0,0.0
1526670307.25725198,31973872,0.0,1.25,0.0,18001.1679688,0.0,0.33,352.46,352.46,0.0,0.0
1526670307.35721207,32073832,0.0,1.2,0.0,17783.84375,0.0,0.33,352.54,352.54,0.0,0.0
1526670307.45717192,32173792,0.0,1.2,0.0,17558.6289062,0.0,0.34,352.63,352.63,0.0,0.0
1526670307.55713201,32273752,0.0,1.19,0.0,17353.3203125,0.0,0.33,352.75,352.75,0.0,0.0
1526670307.65709209,32373712,0.0,1.17,0.0,17151.2167969,0.0,0.34,352.87,352.87,0.0,0.0
1526670307.75705194,32473672,0.0,1.15,0.0,16943.6679688,0.0,0.31,353.0,353.0,0.0,0.0
1526670307.85701203,32573632,0.0,1.15,0.0,16748.2050781,0.0,0.3,353.12,353.12,0.0,0.0
1526670307.95697212,32673592,0.0,1.15,0.0,16572.265625,0.0,0.28,353.22,353.22,0.0,0.0
1526670308.05693197,32773552,0.0,1.16,0.0,16413.3359375,0.0,0.27,353.33,353.33,0.0,0.0
1526670308.15689206,32873512,0.0,1.18,0.0,16286.4873047,0.0,0.27,353.44,353.44,0.0,0.0
1526670308.25685215,32973472,0.0,1.22,0.0,16204.8818359,0.0,0.25,353.55,353.55,0.0,0.0
1526670308.35681200,33073432,0.0,1.24,0.0,16158.0751953,0.0,0.24,353.66,353.66,0.0,0.0
1526670308.45677209,33173392,0.0,1.25,0.0,16128.5644531,0.0,0.22,353.75,353.75,0.0,0.0
1526670308.55673194,33273352,0.0,1.25,0.0,15625.0,0.0,0.21,353.83,353.83,0.0,0.0
1526670308.65752506,33374145,0.0,1.25,0.0,15625.0,0.0,0.21,353.93,353.93,0.0,0.0
1526670308.75748491,33474105,0.0,1.25,0.0,15625.0,0.0,0.2,354.06,354.06,0.0,0.0
1526670308.85744500,33574065,0.0,1.22,0.0,15503.9501953,0.0,0.19,354.19,354.19,0.0,0.0
1526670308.95740509,33674025,0.0,1.19,0.0,15277.8134766,0.0,0.16,354.33,354.33,0.0,0.0
1526670309.05736494,33773985,0.0,1.17,0.0,15019.0195312,0.0,0.13,354.47,354.47,0.0,0.0
1526670309.15732503,33873945,0.0,1.17,0.0,14782.8007812,0.0,0.11,354.61,354.61,0.0,0.0
1526670309.25728512,33973905,0.0,1.17,0.0,14627.0996094,0.0,0.07,354.75,354.75,0.0,0.0
1526670309.35724497,34073865,0.0,1.14,0.0,14469.7041016,0.0,0.02,354.89,354.89,0.0,0.0
1526670309.45720506,34173825,0.04,1.07,0.0,14261.3320312,-0.07,-0.04,354.98,355.01,0.0,0.0
1526670309.55716515,34273785,-0.13,0.75,0.0,13674.5986328,-0.05,-0.16,354.98,355.12,0.0,0.0
1526670309.65712500,34373745,-0.31,0.43,-0.06,12780.8945312,-0.04,-0.23,354.98,355.18,0.0,0.01
1526670309.75708508,34473705,-0.41,0.17,-0.14,11848.9775391,-0.03,-0.25,354.98,355.2,0.0,0.01
1526670309.85704494,34573665,-0.49,-0.03,-0.25,10991.3388672,-0.02,-0.26,354.98,355.17,0.0,0.01
1526670309.95700502,34673625,-0.54,-0.18,-0.35,10235.6494141,-0.01,-0.24,354.98,355.13,0.0,0.0
1526670310.05696511,34773585,-0.54,-0.32,-0.45,9571.00878906,-0.01,-0.22,354.98,355.06,0.0,0.0
1526670310.15692496,34873545,-0.5,-0.42,-0.51,8981.42480469,0.0,-0.21,354.98,354.95,0.0,0.0
1526670310.25688505,34973505,-0.49,-0.45,-0.54,8459.24121094,0.01,-0.2,354.98,354.83,0.0,0.0
1526670310.35684514,35073465,-0.45,-0.49,-0.55,7994.45898438,0.06,-0.15,354.98,354.71,0.0,0.0
1526670310.45680499,35173425,-0.43,-0.53,-0.53,7575.10205078,0.09,-0.12,354.98,354.61,0.0,0.0
1526670310.55676508,35273385,-0.34,-0.54,-0.49,7197.09375,0.11,-0.08,354.98,354.48,0.0,0.0
1526670310.65672493,35373345,-0.24,-0.55,-0.42,6858.40332031,0.09,0.01,354.98,354.42,0.0,0.0
1526670310.75751805,35474138,-0.13,-0.56,-0.34,6560.53222656,0.09,0.11,354.98,354.49,0.0,0.0
1526670310.85747814,35574098,-0.03,-0.49,-0.23,6301.703125,0.1,0.22,354.98,354.62,0.0,0.0
1526670310.95743799,35674058,0.06,-0.37,-0.13,6065.00537109,0.09,0.34,354.98,354.84,0.0,0.0
1526670311.05739808,35774018,0.12,-0.17,-0.02,5838.63623047,0.0,0.44,354.98,355.05,0.0,0.0
1526670311.15735793,35873978,0.17,-0.01,0.07,67.551864624,-0.13,0.45,354.98,355.24,0.0,0.0
1526670311.25731802,35973938,0.17,0.12,0.14,36.6075973511,-0.27,0.4,354.98,355.38,0.0,0.0
1526670311.35727811,36073898,0.16,0.28,0.19,27.9561729431,-0.4,0.24,354.98,355.49,0.0,0.0
1526670311.45723796,36173858,0.05,0.37,0.2,73.5715789795,-0.5,0.03,354.98,355.55,0.0,0.0
1526670311.55719805,36273818,-0.09,0.39,0.16,154.006011963,-0.54,-0.21,354.98,355.56,0.0,0.0
1526670311.65715814,36373778,-0.25,0.33,0.07,242.469192505,-0.54,-0.47,354.98,355.5,0.0,0.0
1526670311.75711799,36473738,-0.39,0.14,-0.04,288.105926514,-0.52,-0.62,354.98,355.4,0.0,0.0
1526670311.85707808,36573698,-0.5,-0.05,-0.19,282.581665039,-0.41,-0.65,354.98,355.24,0.0,0.01
1526670311.95703793,36673658,-0.57,-0.24,-0.34,270.934967041,-0.28,-0.69,354.98,355.09,0.0,0.01
1526670312.05699801,36773618,-0.59,-0.47,-0.48,246.329559326,-0.14,-0.7,354.98,354.92,0.0,0.01
1526670312.15695810,36873578,-0.52,-0.68,-0.57,225.004058838,0.0,-0.61,354.98,354.78,0.0,0.01
1526670312.25691795,36973538,-0.39,-0.79,-0.6,223.19152832,0.16,-0.44,356.44,356.15,0.0,0.01
1526670312.35687804,37073498,-0.23,-0.83,-0.57,249.85206604,0.31,-0.17,356.44,356.08,0.0,0.0
1526670312.45683813,37173458,-0.09,-0.75,-0.48,279.355682373,0.39,0.05,356.44,355.99,0.0,0.0
1526670312.55679798,37273418,0.03,-0.65,-0.34,316.042388916,0.44,0.27,356.44,355.97,0.0,0.0
1526670312.65675807,37373378,0.15,-0.51,-0.18,366.286437988,0.4,0.46,356.44,356.0,0.0,0.0
1526670312.75671792,37473338,0.22,-0.28,-0.02,394.36239624,0.33,0.64,356.44,356.0,0.0,0.0
1526670312.85751104,37574131,0.26,-0.1,0.11,403.23815918,0.2,0.68,356.44,356.08,0.0,0.0
1526670312.95747113,37674091,0.34,0.04,0.23,403.031463623,0.03,0.61,356.44,356.15,0.0,0.0
1526670313.05743098,37774051,0.35,0.2,0.32,396.735015869,-0.1,0.53,356.44,356.26,0.0,0.0
1526670313.15739107,37874011,0.32,0.35,0.38,380.958221436,-0.2,0.37,356.44,356.37,0.0,0.0
1526670313.25735092,37973971,0.21,0.49,0.39,364.10446167,-0.27,0.14,356.44,356.42,0.0,0.0
1526670313.35731101,38073931,0.11,0.53,0.35,356.36706543,-0.3,-0.08,356.44,356.42,0.0,0.0
1526670313.45727110,38173891,0.0,0.51,0.27,362.083404541,-0.29,-0.29,356.44,356.38,0.0,0.0
1526670313.55723095,38273851,-0.09,0.4,0.16,370.380065918,-0.23,-0.48,356.44,356.45,0.0,0.0
1526670313.65719104,38373811,-0.15,0.25,0.04,375.2605896,-0.09,-0.57,356.44,356.51,0.0,0.0
1526670313.75715113,38473771,-0.18,-0.02,-0.06,18.8253707886,0.1,-0.51,356.44,356.57,0.0,0.01
1526670313.85711098,38573731,-0.19,-0.24,-0.15,22.6454696655,0.27,-0.32,356.44,356.68,0.0,0.01
1526670313.95707107,38673691,-0.14,-0.34,-0.21,63.5243186951,0.39,-0.16,356.37,356.7,0.0,0.0
1526670314.05703092,38773651,-0.07,-0.39,-0.23,111.392311096,0.48,0.0,356.37,356.82,0.0,0.0
1526670314.15699100,38873611,0.11,-0.35,-0.2,142.198318481,0.57,0.15,356.37,356.85,0.0,0.0
1526670314.25695109,38973571,0.88,-0.33,-0.09,184.215545654,1.48,0.31,140.16,356.96,0.0,0.0
1526670314.35691094,39073531,3.43,-0.12,0.42,403.985748291,4.65,1.09,140.16,357.73,0.0,0.0
1526670314.45687103,39173491,5.25,0.66,1.46,1046.4753418,6.44,2.65,140.16,359.38,0.0,0.02
1526670314.55683112,39273451,6.87,1.99,2.87,1841.42602539,7.52,4.33,140.16,1.62,0.0,0.04
1526670314.65679097,39373411,8.42,3.68,4.53,2479.14355469,8.08,5.8,140.16,4.34,0.0,0.05
1526670314.75675106,39473371,9.6,5.5,6.29,2898.98242188,7.97,6.85,140.16,7.38,0.0,0.06
1526670314.85671115,39573331,10.32,7.19,7.96,3186.10986328,7.32,7.37,140.16,10.63,0.0,0.08
1526670314.95750403,39674124,10.55,8.64,9.36,3394.04003906,6.26,7.4,140.16,14.02,0.0,0.02
1526670315.05746412,39774084,10.42,9.7,10.36,3506.96166992,5.03,6.96,140.16,17.49,0.0,0.05
1526670315.15742397,39874044,10.17,10.34,10.91,3530.19165039,3.87,6.21,140.16,20.99,0.0,0.05
1526670315.25738406,39974004,9.86,10.62,11.05,3461.90771484,2.85,5.25,140.16,24.57,0.0,0.04
1526670315.35734415,40073964,9.56,10.57,10.85,3326.42749023,1.99,4.23,140.16,28.13,0.0,0.04
1526670315.45730400,40173924,9.31,10.35,10.44,3156.23632812,1.3,3.31,140.16,31.8,0.0,0.04
1526670315.55726409,40273884,9.1,10.07,9.92,2984.02368164,0.65,2.52,140.16,35.61,0.0,0.03
1526670315.65722394,40373844,8.68,9.79,9.37,2871.32250977,-0.06,1.78,140.16,39.45,0.0,0.04
1526670315.75718403,40473804,8.21,9.47,8.82,2871.00341797,-0.71,1.03,140.16,43.25,0.0,0.03
1526670315.85714412,40573764,7.78,9.1,8.27,2999.34790039,-1.22,0.33,140.16,47.05,0.0,0.03
1526670315.95710397,40673724,7.39,8.66,7.77,3200.41918945,-1.69,-0.28,140.16,50.87,0.0,0.03
1526670316.05706406,40773684,7.06,8.25,7.33,3413.01416016,-2.13,-0.8,140.16,54.7,0.0,0.03
1526670316.15702415,40873644,6.81,7.81,6.97,3596.05712891,-2.58,-1.31,140.16,58.55,0.0,0.03
1526670316.25698400,40973604,6.63,7.36,6.68,3685.45922852,-3.05,-1.78,140.16,62.4,0.0,0.03
1526670316.35694408,41073564,6.5,6.99,6.47,2629.52880859,-3.51,-2.18,140.16,66.2,0.0,0.03
1526670316.45690393,41173524,6.43,6.7,6.34,1918.88171387,-3.93,-2.56,140.16,70.05,0.0,0.03
1526670316.55686402,41273484,6.35,6.5,6.28,1384.11096191,-4.41,-2.9,140.16,73.92,0.0,0.03
1526670316.65682411,41373444,6.27,6.42,6.26,1033.08691406,-4.94,-3.24,140.16,77.78,0.0,0.03
1526670316.75678396,41473404,6.13,6.4,6.25,829.533996582,-5.48,-3.69,140.16,81.59,0.0,0.04
1526670316.85674405,41573364,5.92,6.4,6.23,717.372680664,-6.06,-4.23,140.16,85.4,0.0,0.04
1526670316.95753694,41674157,5.61,6.27,6.16,633.010009766,-6.65,-4.81,140.16,89.25,0.0,0.04
1526670317.05749702,41774117,5.28,6.09,6.03,551.911804199,-7.19,-5.42,140.16,93.02,0.0,0.04
1526670317.15745711,41874077,4.89,5.89,5.82,488.03515625,-7.67,-6.06,140.16,96.76,0.0,0.04
1526670317.25741696,41974037,4.47,5.59,5.53,438.514404297,-8.1,-6.72,140.16,100.57,0.0,0.04
1526670317.35737705,42073997,4.08,5.17,5.17,395.770172119,-8.42,-7.31,140.16,104.42,0.0,0.04
1526670317.45733714,42173957,3.54,4.7,4.74,360.606018066,-8.74,-7.79,140.16,108.33,0.0,0.04
1526670317.55729699,42273917,2.58,4.18,4.22,332.067504883,-8.34,-8.13,140.16,112.24,0.0,0.04
1526670317.65725708,42373877,1.57,3.41,3.53,312.361785889,-7.64,-8.28,140.16,116.15,0.0,0.04
1526670317.75721693,42473837,0.92,2.6,2.75,303.555053711,-7.4,-8.18,140.16,120.07,0.0,0.03
1526670317.85717702,42573797,0.43,1.89,1.96,293.101989746,-7.35,-7.93,140.16,123.94,0.0,0.03
1526670317.95713711,42673757,0.01,1.26,1.23,275.942626953,-7.35,-7.67,140.16,127.82,0.0,0.03
1526670318.05709696,42773717,-0.39,0.69,0.6,261.85824585,-7.37,-7.47,140.16,131.7,0.0,0.03
1526670318.15705705,42873677,-0.8,0.13,0.06,251.722976685,-7.23,-7.31,140.16,135.55,0.0,0.03
1526670318.25701714,42973637,-1.18,-0.42,-0.39,239.85484314,-6.94,-7.29,140.16,139.17,0.0,0.03
1526670318.35697699,43073597,-1.47,-1.04,-0.77,239.322494507,-6.57,-7.17,140.16,142.2,0.0,0.03
1526670318.45693707,43173557,-1.61,-1.6,-1.07,303.813293457,-6.19,-6.94,140.16,144.38,0.0,0.02
1526670318.55689692,43273517,-1.59,-2.07,-1.26,493.891021729,-5.8,-6.63,140.16,145.65,0.0,0.01
1526670318.65685701,43373477,-1.42,-2.32,-1.34,828.073425293,-5.38,-6.2,140.16,146.1,0.0,0.01
1526670318.75681710,43473437,-1.1,-2.34,-1.28,1222.1895752,-4.98,-5.77,140.16,145.91,0.0,0.02
1526670318.85677695,43573397,-0.69,-2.21,-1.1,1641.26623535,-4.55,-5.32,140.16,145.24,0.0,0.03
1526670318.95673704,43673357,-0.24,-1.89,-0.79,12080.8193359,-4.17,-4.87,140.16,144.26,0.0,0.03
1526670319.05752993,43774150,0.22,-1.45,-0.38,11791.8007812,-3.51,-4.41,140.16,143.16,0.0,0.04
1526670319.15749002,43874110,0.61,-0.98,0.07,11484.9580078,-3.08,-3.93,140.16,142.12,0.0,0.04
1526670319.25745010,43974070,0.93,-0.52,0.53,11401.7880859,-2.87,-3.39,140.16,141.15,0.0,0.04
1526670319.35740995,44074030,1.19,0.01,0.97,11094.3847656,-2.75,-2.96,140.16,140.33,0.0,0.04
1526670319.45737004,44173990,1.34,0.5,1.33,10528.0224609,-2.66,-2.67,140.16,139.66,0.0,0.04
1526670319.55733013,44273950,1.4,0.93,1.61,9744.2265625,-2.65,-2.48,140.16,139.22,0.0,0.03
1526670319.65728998,44373910,1.4,1.27,1.78,8870.28027344,-2.61,-2.4,140.16,139.05,0.0,0.03
1526670319.75725007,44473870,1.33,1.47,1.85,8010.953125,-2.56,-2.38,140.16,139.05,0.0,0.02
1526670319.85720992,44573830,1.14,1.55,1.81,7237.23486328,-2.49,-2.36,140.16,139.18,0.0,0.02
1526670319.95717001,44673790,1.01,1.57,1.67,6552.24072266,-2.34,-2.34,263.97,139.37,0.0,0.01
1526670320.05713010,44773750,1.17,1.52,1.52,5961.04248047,-1.96,-2.28,263.97,140.13,0.0,0.01
1526670320.15708995,44873710,1.29,1.48,1.41,5466.86035156,-1.55,-2.17,263.97,141.74,0.0,0.0
1526670320.25705004,44973670,1.44,1.42,1.35,5051.05175781,-1.07,-1.91,263.97,144.01,0.0,0.01
1526670320.35701013,45073630,1.65,1.44,1.36,4694.65917969,-0.52,-1.5,263.97,146.67,0.0,0.01
1526670320.45696998,45173590,1.93,1.53,1.46,4385.67529297,0.12,-1.06,263.97,149.67,0.0,0.01
1526670320.55693007,45273550,2.24,1.68,1.65,4113.0625,0.85,-0.58,263.97,152.9,0.0,0.01
1526670320.65688992,45373510,2.6,1.94,1.91,3871.93896484,1.25,-0.04,263.97,156.31,0.0,0.01
1526670320.75685000,45473470,2.99,2.24,2.23,3657.33496094,1.32,0.46,263.97,159.82,0.0,0.01
1526670320.85681009,45573430,3.39,2.6,2.61,3465.17089844,1.16,0.86,263.97,163.53,0.0,0.01
1526670320.95676994,45673390,3.78,2.97,3.02,3292.95556641,0.82,1.09,263.97,167.26,0.0,0.01
1526670321.05673003,45773350,4.17,3.41,3.45,3137.73632812,0.36,1.12,263.97,171.01,0.0,0.01
1526670321.15752292,45874143,4.47,3.81,3.87,2996.18530273,-0.2,0.91,263.97,174.9,0.0,0.01
1526670321.25748301,45974103,4.69,4.22,4.25,2867.14575195,-0.8,0.59,263.97,178.82,0.0,0.01
1526670321.35744309,46074063,4.84,4.61,4.57,2748.02734375,-1.4,0.13,263.97,182.88,0.0,0.01
1526670321.45740294,46174023,4.94,4.88,4.82,2638.93212891,-2.01,-0.45,263.97,186.98,0.0,0.01
1526670321.55736303,46273983,5.0,5.04,5.0,13.5603208542,-2.6,-1.01,263.97,191.04,0.0,0.02
1526670321.65732312,46373943,5.01,5.12,5.1,5.39050388336,-3.2,-1.58,263.97,195.17,0.0,0.02
1526670321.75728297,46473903,4.96,5.14,5.14,3.64422726631,-3.78,-2.11,263.97,199.29,0.0,0.02
1526670321.85724306,46573863,4.92,5.08,5.12,4.37253808975,-4.37,-2.71,263.97,203.43,0.0,0.02
1526670321.95720315,46673823,4.65,5.06,5.04,4.37936115265,-4.83,-3.3,263.97,207.58,0.0,0.02
1526670322.05716300,46773783,4.27,5.01,4.88,16.5249938965,-5.14,-3.91,263.97,211.64,0.0,0.02
1526670322.15712309,46873743,3.84,4.85,4.62,67.1483688354,-5.38,-4.46,263.97,215.69,0.0,0.02
1526670322.25708294,46973703,3.42,4.55,4.28,147.342575073,-5.56,-4.95,263.97,219.73,0.0,0.02
1526670322.35704303,47073663,2.99,4.12,3.89,205.270370483,-5.75,-5.31,263.97,223.82,0.0,0.02
1526670322.45700312,47173623,2.58,3.64,3.45,226.820724487,-5.94,-5.59,263.97,227.92,0.0,0.02
1526670322.55696297,47273583,2.18,3.19,3.01,236.159439087,-6.11,-5.81,263.97,232.02,0.0,0.02
1526670322.65692306,47373543,1.78,2.75,2.56,244.075958252,-6.28,-6.01,263.97,236.14,0.0,0.02
1526670322.75688314,47473503,1.43,2.26,2.14,242.0574646,-6.53,-6.12,263.97,240.25,0.0,0.02
1526670322.85684299,47573463,1.16,1.85,1.75,232.981689453,-7.08,-6.26,263.97,244.34,0.0,0.02
1526670322.95680308,47673423,0.86,1.53,1.4,224.491485596,-7.75,-6.5,263.97,248.46,0.0,0.02
1526670323.05676293,47773383,0.48,1.28,1.09,225.631530762,-8.48,-6.85,263.97,252.56,0.0,0.02
1526670323.15672302,47873343,-0.01,1.02,0.78,241.035369873,-9.19,-7.37,263.97,256.6,0.0,0.01
1526670323.25751615,47974136,-0.62,0.62,0.42,255.789169312,-9.87,-8.02,263.97,260.55,0.0,0.01
1526670323.35747600,48074096,-1.27,0.05,0.0,251.311843872,-10.45,-8.76,263.97,264.0,0.0,0.01
1526670323.45743608,48174056,-1.85,-0.71,-0.48,244.723999023,-10.92,-9.52,263.97,266.74,0.0,0.02
1526670323.55739594,48274016,-2.26,-1.51,-1.01,303.633880615,-11.34,-10.19,263.97,268.67,0.0,0.03
1526670323.65735602,48373976,-2.43,-2.22,-1.51,465.147247314,-11.72,-10.77,263.97,269.72,0.0,0.04
1526670323.75731611,48473936,-2.39,-2.74,-1.92,720.234375,-12.12,-11.2,263.97,269.95,0.0,0.04
1526670323.85727596,48573896,-2.11,-3.03,-2.17,990.525268555,-12.53,-11.5,263.97,269.5,0.0,0.05
1526670323.95723605,48673856,-1.69,-3.05,-2.22,1249.85986328,-12.92,-11.69,263.97,268.62,0.0,0.05
1526670324.05719614,48773816,-1.16,-2.75,-2.06,1432.90039062,-13.31,-11.93,263.97,267.52,0.0,0.05
1526670324.15715599,48873776,-0.61,-2.15,-1.71,1852.30700684,-13.7,-12.23,263.97,266.33,0.0,0.05
1526670324.25711608,48973736,-0.1,-1.44,-1.22,993.163024902,-14.04,-12.62,263.97,265.19,0.0,0.05
1526670324.35707593,49073696,0.34,-0.75,-0.65,594.897216797,-14.17,-13.0,263.97,264.21,0.0,0.05
1526670324.45703602,49173656,0.68,-0.16,-0.07,418.174194336,-14.24,-13.35,263.97,263.41,0.0,0.05
1526670324.55699611,49273616,0.91,0.27,0.47,366.788238525,-14.29,-13.62,263.97,262.77,0.0,0.04
1526670324.65695596,49373576,1.02,0.61,0.91,431.650268555,-14.32,-13.84,263.97,262.37,0.0,0.04
1526670324.75691605,49473536,1.05,0.87,1.23,555.156860352,-14.35,-14.0,263.97,262.23,0.0,0.04
1526670324.85687613,49573496,1.04,1.04,1.42,683.528503418,-14.36,-14.15,263.97,262.29,0.0,0.03
1526670324.95683599,49673456,0.95,1.07,1.48,811.955993652,-14.42,-14.28,263.97,262.45,0.0,0.03
1526670325.05679607,49773416,0.84,1.0,1.43,925.759460449,-14.48,-14.38,263.97,262.7,0.0,0.03
1526670325.15675592,49873376,0.69,0.93,1.3,1005.91418457,-14.55,-14.44,263.97,263.03,0.0,0.03
1526670325.25671601,49973336,0.55,0.9,1.11,997.658813477,-14.64,-14.51,263.97,263.36,0.0,0.03
1526670325.35750914,50074129,0.38,0.8,0.89,933.807373047,-14.73,-14.61,263.97,263.76,0.0,0.03
1526670325.45746899,50174089,0.21,0.66,0.65,863.727478027,-14.81,-14.7,263.97,264.13,0.0,0.03
1526670325.55742908,50274049,0.03,0.47,0.42,802.672729492,-14.91,-14.79,263.97,264.49,0.0,0.03
1526670325.65738893,50374009,-0.11,0.28,0.2,751.600585938,-15.02,-14.89,263.97,264.75,0.0,0.03
1526670325.75734901,50473969,-0.19,0.12,0.0,710.125610352,-15.11,-15.03,263.97,264.89,0.0,0.03
1526670325.85730910,50573929,-0.23,0.01,-0.14,679.58013916,-15.24,-15.2,263.97,264.84,0.0,0.03
1526670325.95726895,50673889,-0.23,-0.08,-0.24,657.141784668,-15.36,-15.35,263.97,264.77,0.0,0.03
1526670326.05722904,50773849,-0.22,-0.2,-0.29,631.986633301,-15.47,-15.44,263.97,264.73,0.0,0.03
1526670326.15718913,50873809,-0.19,-0.36,-0.29,601.438720703,-15.58,-15.49,263.97,264.72,0.0,0.03
1526670326.25714898,50973769,-0.13,-0.42,-0.26,579.770202637,-15.7,-15.49,263.97,264.64,0.0,0.02
1526670326.35710907,51073729,-0.04,-0.42,-0.2,567.423461914,-15.82,-15.51,263.97,264.51,0.0,0.02
1526670326.45706892,51173689,0.12,-0.43,-0.11,573.102905273,-14.95,-15.57,263.97,264.37,0.0,0.03
1526670326.55702901,51273649,0.31,-0.47,0.02,617.920837402,-13.67,-15.32,263.97,264.29,0.0,0.02
1526670326.65698910,51373609,0.43,-0.52,0.17,740.161560059,-13.42,-14.8,263.97,264.3,0.0,0.01
1526670326.75694895,51473569,0.53,-0.4,0.33,5382.27392578,-13.26,-14.25,263.97,264.37,0.0,0.01
1526670326.85690904,51573529,0.63,-0.22,0.48,5171.25488281,-13.49,-13.88,263.97,264.47,0.0,0.01
1526670326.95686913,51673489,0.7,0.0,0.61,4722.60400391,-13.7,-13.67,263.97,264.52,0.0,0.01
1526670327.05682898,51773449,0.75,0.23,0.72,4182.34375,-14.0,-13.62,263.97,264.54,0.0,0.02
1526670327.15678906,51873409,0.75,0.45,0.79,3577.05126953,-14.27,-13.72,263.97,264.63,0.0,0.02
1526670327.25674891,51973369,0.71,0.62,0.83,3019.73339844,-14.39,-13.91,263.97,264.7,0.0,0.02
1526670327.35670900,52073329,0.65,0.69,0.83,2570.62207031,-14.54,-14.14,263.97,264.75,0.0,0.02
1526670327.45750213,52174122,0.59,0.72,0.79,2222.35717773,-14.45,-14.37,263.97,264.75,0.0,0.03
1526670327.55746198,52274082,0.5,0.67,0.72,1950.44274902,-14.47,-14.57,263.97,264.7,0.0,0.02
1526670327.65742207,52374042,0.4,0.55,0.64,1740.5703125,-14.77,-14.74,263.97,264.6,0.0,0.02
1526670327.75738192,52474002,0.32,0.42,0.53,1577.17077637,-14.92,-14.85,263.97,264.51,0.0,0.02
1526670327.85734200,52573962,0.29,0.33,0.43,1446.22033691,-15.22,-14.92,263.97,264.34,0.0,0.02
1526670327.95730209,52673922,0.3,0.37,0.34,1329.00512695,-15.43,-15.0,263.97,264.13,0.0,0.02
1526670328.05726194,52773882,0.34,0.48,0.29,1237.8717041,-15.47,-15.14,263.97,263.94,0.0,0.02
1526670328.15722203,52873842,0.35,0.57,0.27,1193.34375,-15.59,-15.3,263.97,263.83,0.0,0.02
1526670328.25718212,52973802,0.37,0.64,0.27,1185.94812012,-15.78,-15.42,263.97,263.68,0.0,0.02
1526670328.35714197,53073762,0.38,0.67,0.29,1202.64257812,-15.92,-15.57,263.97,263.53,0.0,0.02
1526670328.45710206,53173722,0.37,0.63,0.32,1197.6126709,-15.9,-15.68,263.97,263.45,0.0,0.02
1526670328.55706215,53273682,0.34,0.62,0.35,1175.06262207,-16.04,-15.72,263.97,263.42,0.0,0.02
1526670328.65702200,53373642,0.28,0.59,0.36,1146.59179688,-16.24,-15.83,263.97,263.48,0.0,0.02
1526670328.75698209,53473602,0.24,0.58,0.35,1116.13549805,-16.09,-15.98,263.97,263.54,0.0,0.02
1526670328.85694194,53573562,0.19,0.55,0.32,1086.82226562,-16.12,-16.08,263.97,263.62,0.0,0.02
1526670328.95690203,53673522,0.11,0.48,0.28,1057.2935791,-16.18,-16.19,263.97,263.72,0.0,0.02
1526670329.05686212,53773482,0.07,0.4,0.23,1025.13879395,-16.0,-16.28,263.97,263.78,0.0,0.02
1526670329.15682197,53873442,0.01,0.3,0.16,992.346069336,-16.14,-16.28,263.97,263.86,0.0,0.01
1526670329.25678205,53973402,0.01,0.19,0.1,957.561401367,-16.01,-16.28,263.97,263.94,0.0,0.01
1526670329.35674214,54073362,-0.01,0.07,0.05,1.15615165234,-16.08,-16.27,263.97,264.09,0.0,0.01
1526670329.45753503,54174155,-0.05,-0.06,0.01,13.9075975418,-16.09,-16.28,263.97,264.27,0.0,0.01
1526670329.55749512,54274115,-0.07,-0.13,-0.01,110.627281189,-15.61,-16.22,71.38,264.51,0.0,0.01
1526670329.65745497,54374075,-0.05,0.07,-0.03,87.7465438843,-12.22,-15.53,71.38,265.31,0.0,0.01
1526670329.75741506,54474035,-0.24,0.18,-0.06,156.470611572,-10.55,-14.31,71.38,266.89,0.0,0.03
1526670329.85737514,54573995,-0.59,0.16,-0.14,269.858795166,-9.54,-12.95,71.38,269.1,0.0,0.04
1526670329.95733500,54673955,-1.07,0.02,-0.31,391.99307251,-8.91,-11.7,71.38,271.81,0.0,0.04
1526670330.05729508,54773915,-1.6,-0.18,-0.59,540.040527344,-8.36,-10.68,71.38,274.86,0.0,0.04
1526670330.15725493,54873875,-2.18,-0.49,-0.98,731.318603516,-7.89,-9.84,71.38,278.18,0.0,0.04
1526670330.25721502,54973835,-2.79,-0.84,-1.47,1005.30737305,-7.44,-9.16,71.38,281.6,0.0,0.04
1526670330.35717511,55073795,-3.43,-1.33,-2.04,1380.39465332,-6.98,-8.59,71.38,285.18,0.0,0.03
1526670330.45713496,55173755,-4.06,-1.96,-2.68,1733.0916748,-6.48,-8.08,71.38,288.84,0.0,0.03
1526670330.55709505,55273715,-4.64,-2.72,-3.34,1980.26721191,-5.92,-7.52,71.38,292.57,0.0,0.03
1526670330.65705514,55373675,-5.12,-3.37,-3.99,2110.85620117,-5.31,-6.87,71.38,296.38,0.0,0.03
1526670330.75701499,55473635,-5.48,-3.89,-4.59,2285.32397461,-4.7,-6.34,71.38,300.21,0.0,0.03
1526670330.85697508,55573595,-5.72,-4.42,-5.11,2462.80664062,-4.09,-5.76,71.38,304.04,0.0,0.03
1526670330.95693493,55673555,-5.85,-4.88,-5.51,2586.59838867,-3.46,-5.07,71.38,307.91,0.0,0.03
1526670331.05689502,55773515,-5.87,-5.24,-5.79,2642.796875,-2.84,-4.32,71.38,311.83,0.0,0.03
1526670331.15685511,55873475,-5.76,-5.49,-5.93,2632.39794922,-2.22,-3.6,71.38,315.81,0.0,0.03
1526670331.25681496,55973435,-5.55,-5.61,-5.93,2574.38842773,-1.7,-2.93,71.38,319.66,0.0,0.03
1526670331.35677505,56073395,-5.24,-5.57,-5.81,2485.04736328,-1.21,-2.28,71.38,323.56,0.0,0.03
1526670331.45673513,56173355,-4.86,-5.42,-5.57,2385.24975586,-0.77,-1.7,71.38,327.49,0.0,0.04
1526670331.55752802,56274148,-4.41,-5.18,-5.22,2282.359375,-0.42,-1.17,71.38,331.46,0.0,0.04
1526670331.65748811,56374108,-3.88,-4.87,-4.8,2183.70068359,-0.14,-0.71,71.38,335.36,0.0,0.04
1526670331.75744796,56474068,-3.28,-4.47,-4.3,2098.94140625,0.08,-0.33,71.38,339.25,0.0,0.04
1526670331.85740805,56574028,-2.61,-3.99,-3.74,2031.96704102,0.26,-0.04,71.38,343.17,0.0,0.04
1526670331.95736814,56673988,-1.83,-3.44,-3.12,1023.8046875,0.35,0.19,71.38,347.19,0.0,0.04
1526670332.05732799,56773948,-1.0,-2.77,-2.43,1052.21411133,0.35,0.37,71.38,351.25,0.0,0.04
1526670332.15728807,56873908,-0.05,-2.03,-1.69,1078.72351074,0.24,0.45,71.38,355.3,0.0,0.04
1526670332.25724792,56973868,1.05,-1.2,-0.86,1100.94616699,0.05,0.42,71.38,359.31,0.0,0.04
1526670332.35720801,57073828,2.42,-0.3,0.07,1144.99499512,-0.31,0.35,71.38,3.33,0.0,0.05
1526670332.45716810,57173788,3.28,0.72,1.13,1238.00854492,-0.74,0.17,71.38,7.36,0.0,0.05
1526670332.55712795,57273748,3.38,1.66,2.11,1343.68676758,-1.11,-0.15,71.38,11.48,0.0,0.05
1526670332.65708804,57373708,3.1,2.35,2.84,1475.32434082,-1.4,-0.57,71.38,15.59,0.0,0.05
1526670332.75704813,57473668,2.6,2.74,3.24,1606.16967773,-1.61,-0.97,71.38,19.76,0.0,0.04
1526670332.85700798,57573628,2.01,2.82,3.26,1687.34484863,-1.72,-1.36,71.38,23.9,0.0,0.04
1526670332.95696807,57673588,1.39,2.69,2.97,1657.33728027,-1.69,-1.65,71.38,28.01,0.0,0.03
1526670333.05692792,57773548,1.01,2.37,2.43,1539.50695801,-1.76,-1.88,71.38,32.16,0.0,0.03
1526670333.15688801,57873508,0.79,2.0,1.81,1418.89001465,-2.02,-2.0,71.38,36.39,0.0,0.03
1526670333.25684810,57973468,0.62,1.65,1.2,1395.40991211,-2.39,-2.14,71.38,40.61,0.0,0.03
1526670333.35680795,58073428,0.45,1.38,0.66,1545.26037598,-2.77,-2.29,71.38,44.77,0.0,0.03
1526670333.45676804,58173388,0.35,1.17,0.24,1907.91516113,-3.14,-2.5,71.38,48.99,0.0,0.03
1526670333.55672812,58273348,0.2,0.95,-0.04,2382.25341797,-3.54,-2.73,71.38,53.18,0.0,0.03
1526670333.65752101,58374141,0.0,0.72,-0.24,2813.39282227,-3.97,-2.98,71.38,57.36,0.0,0.03
1526670333.75748110,58474101,-0.24,0.49,-0.37,3129.64038086,-4.41,-3.24,71.38,61.46,0.0,0.03
1526670333.85744095,58574061,-0.54,0.25,-0.48,3308.59790039,-4.9,-3.58,71.38,65.53,0.0,0.03
1526670333.95740104,58674021,-0.89,-0.03,-0.61,3360.14575195,-5.33,-4.01,71.38,69.39,0.0,0.03
1526670334.05736113,58773981,-1.14,-0.41,-0.78,3311.19970703,-5.41,-4.49,71.38,72.62,0.0,0.03
1526670334.15732098,58873941,-1.35,-0.84,-0.97,3190.63598633,-5.4,-4.92,71.38,74.94,0.0,0.02
1526670334.25728106,58973901,-1.43,-1.27,-1.16,3054.21679688,-5.4,-5.23,71.38,76.41,0.0,0.01
1526670334.35724092,59073861,-1.35,-1.6,-1.31,2943.88354492,-5.43,-5.4,71.38,77.02,0.0,0.0
1526670334.45720100,59173821,-1.19,-1.87,-1.39,2887.61328125,-5.47,-5.5,71.38,76.89,0.0,0.0
1526670334.55716109,59273781,-0.94,-1.91,-1.37,2894.26782227,-5.58,-5.53,71.38,76.17,0.0,0.01
1526670334.65712094,59373741,-0.59,-1.78,-1.24,2959.32958984,-5.72,-5.47,71.38,75.17,0.0,0.01
1526670334.75708103,59473701,-0.21,-1.42,-1.0,2683.80297852,-5.89,-5.38,71.38,74.0,0.0,0.02
1526670334.85704112,59573661,0.14,-0.89,-0.68,2125.93188477,-6.1,-5.39,71.38,72.84,0.0,0.01
1526670334.95700097,59673621,0.44,-0.36,-0.31,1636.14416504,-6.33,-5.51,71.38,71.85,0.0,0.01
1526670335.05696106,59773581,0.63,0.1,0.05,1311.85461426,-6.55,-5.71,71.38,71.07,0.0,0.01
1526670335.15692115,59873541,0.72,0.49,0.39,1103.7442627,-6.8,-5.97,71.38,70.47,0.0,0.0
1526670335.25688100,59973501,0.71,0.73,0.64,958.121765137,-7.08,-6.26,71.38,70.1,0.0,0.0
1526670335.35684109,60073461,0.65,0.89,0.79,846.014587402,-7.33,-6.59,71.38,69.92,0.0,0.0
1526670335.45680094,60173421,0.58,0.98,0.85,767.18951416,-7.57,-6.95,71.38,70.02,0.0,0.0
1526670335.55676103,60273381,0.42,0.97,0.81,711.28125,-7.8,-7.33,71.38,70.34,0.0,0.0
1526670335.65672112,60373341,0.22,0.85,0.69,669.122375488,-8.06,-7.71,71.38,70.78,0.0,0.0
1526670335.75751400,60474134,0.0,0.65,0.5,631.481140137,-8.51,-8.03,71.38,71.19,0.0,0.0
1526670335.85747409,60574094,-0.18,0.44,0.27,599.795532227,-8.99,-8.31,71.38,71.54,0.0,0.0
1526670335.95743394,60674054,-0.32,0.22,0.02,581.246276855,-9.51,-8.63,71.38,71.8,0.0,0.0
1526670336.05739403,60774014,-0.4,0.0,-0.19,567.172668457,-10.04,-8.97,71.38,71.95,0.0,0.0
1526670336.15735412,60873974,-0.46,-0.16,-0.38,561.422607422,-10.58,-9.36,71.38,72.09,0.0,0.0
1526670336.25731397,60973934,-0.48,-0.27,-0.52,563.407836914,-11.11,-9.82,71.38,72.15,0.0,0.0
1526670336.35727406,61073894,-0.47,-0.35,-0.6,566.893737793,-11.62,-10.29,71.38,72.14,0.0,0.0
1526670336.45723414,61173854,-0.45,-0.36,-0.63,574.255249023,-12.11,-10.76,71.38,72.09,0.0,0.0
1526670336.55719399,61273814,-0.42,-0.35,-0.62,583.705993652,-12.61,-11.27,71.38,72.0,0.0,0.0
1526670336.65715408,61373774,-0.37,-0.34,-0.58,588.159790039,-13.07,-11.78,71.38,71.86,0.0,0.0
1526670336.75711393,61473734,-0.3,-0.3,-0.5,583.006713867,-13.51,-12.28,71.38,71.64,0.0,0.0
1526670336.85707402,61573694,-0.2,-0.21,-0.41,575.881164551,-13.93,-12.78,71.38,71.39,0.0,0.0
1526670336.95703411,61673654,-0.1,-0.14,-0.31,567.132202148,-14.33,-13.28,71.38,71.19,0.0,0.0
1526670337.05699396,61773614,-0.02,-0.07,-0.2,553.856201172,-14.72,-13.73,71.38,71.02,0.0,0.0
1526670337.15695405,61873574,0.02,-0.04,-0.09,35.154384613,-15.07,-14.14,71.38,70.97,0.0,0.0
1526670337.25691414,61973534,0.06,0.0,-0.01,14.3582839966,-15.22,-14.5,71.38,70.93,0.0,0.0
1526670337.35687399,62073494,0.08,0.01,0.05,9.97991085052,-15.27,-14.84,71.38,70.98,0.0,0.0
1526670337.45683408,62173454,0.07,0.01,0.09,25.746055603,-15.3,-15.11,71.38,71.11,0.0,0.0
1526670337.55679393,62273414,0.07,0.01,0.11,44.509552002,-15.32,-15.3,71.38,71.23,0.0,0.0
1526670337.65675402,62373374,0.06,0.0,0.11,61.7338638306,-15.33,-15.42,71.38,71.37,0.0,0.0
1526670337.75671411,62473334,0.08,-0.11,0.1,95.6346206665,-13.22,-15.43,71.38,71.6,0.0,0.0
1526670337.85750699,62574127,0.1,-0.51,0.09,325.939849854,-10.81,-14.81,71.38,71.77,0.0,0.01
1526670337.95746708,62674087,0.15,-0.83,0.08,1045.30358887,-9.79,-13.58,71.38,71.89,0.0,0.02
1526670338.05742693,62774047,0.23,-0.88,0.1,1978.55334473,-9.44,-12.25,71.38,71.99,0.0,0.03
1526670338.15738702,62874007,0.32,-0.72,0.13,2621.24536133,-9.34,-11.2,71.38,72.01,0.0,0.02
1526670338.25734711,62973967,0.41,-0.49,0.18,2922.07202148,-9.47,-10.45,71.38,72.01,0.0,0.02
1526670338.35730696,63073927,0.48,-0.26,0.26,2987.03759766,-9.92,-9.97,71.38,71.92,0.0,0.01
1526670338.45726705,63173887,0.52,0.07,0.34,2882.58276367,-10.4,-9.74,71.38,71.88,0.0,0.01
1526670338.55722713,63273847,0.54,0.42,0.41,2692.33520508,-10.74,-9.86,71.38,71.78,0.0,0.0
1526670338.65718699,63373807,0.54,0.67,0.48,2522.0559082,-11.05,-10.17,71.38,71.68,0.0,0.0
1526670338.75714707,63473767,0.52,0.79,0.52,2399.15649414,-11.35,-10.52,71.38,71.55,0.0,0.0
1526670338.85710692,63573727,0.46,0.86,0.53,2307.54467773,-11.86,-10.87,71.38,71.45,0.0,0.0
1526670338.95706701,63673687,0.38,0.86,0.51,2242.28369141,-12.11,-11.26,71.38,71.3,0.0,0.0
1526670339.05702710,63773647,0.29,0.8,0.47,2181.93310547,-12.23,-11.6,71.38,71.14,0.0,0.0
1526670339.15698695,63873607,0.19,0.72,0.39,2124.55883789,-12.61,-11.93,71.38,71.02,0.0,0.0
1526670339.25694704,63973567,0.1,0.66,0.3,2078.61865234,-12.94,-12.24,71.38,70.95,0.0,0.0
1526670339.35690713,64073527,0.01,0.57,0.2,2042.89562988,-13.04,-12.5,71.38,70.96,0.0,0.0
1526670339.45686698,64173487,-0.05,0.43,0.09,2008.05078125,-13.15,-12.72,71.38,70.98,0.0,0.0
1526670339.55682707,64273447,-0.12,0.3,0.0,1965.21411133,-13.31,-12.96,71.38,71.04,0.0,0.0
1526670339.65678692,64373407,-0.18,0.19,-0.08,1919.47216797,-13.37,-13.14,71.38,71.14,0.0,0.0
1526670339.75674701,64473367,-0.22,0.08,-0.16,581.067016602,-13.26,-13.31,71.38,71.18,0.0,0.0
1526670339.85670710,64573327,-0.25,0.0,-0.21,537.716064453,-13.45,-13.41,71.38,71.19,0.0,0.0
1526670339.95749998,64674120,-0.29,-0.09,-0.26,453.070037842,-13.63,-13.51,71.38,71.25,0.0,0.05
1526670340.05746007,64774080,-0.29,-0.14,-0.29,382.755340576,-13.57,-13.62,71.38,71.38,0.0,0.0
1526670340.15741992,64874040,-0.29,-0.23,-0.3,323.238647461,-13.48,-13.71,71.38,71.51,0.0,0.0
1526670340.25738001,64974000,-0.29,-0.31,-0.31,263.46206665,-13.42,-13.73,71.38,71.62,0.0,0.0
1526670340.35734010,65073960,-0.29,-0.4,-0.3,223.981430054,-13.39,-13.74,71.38,71.75,0.0,0.0
1526670340.45729995,65173920,-0.29,-0.5,-0.29,228.385635376,-13.43,-13.74,71.38,71.87,0.0,0.0
1526670340.55726004,65273880,-0.27,-0.58,-0.28,279.720153809,-13.39,-13.72,71.38,72.01,0.0,0.0
1526670340.65722013,65373840,-0.25,-0.6,-0.27,359.432098389,-13.26,-13.63,71.38,72.16,0.0,0.0
1526670340.75717998,65473800,-0.2,-0.63,-0.24,450.092956543,-13.4,-13.49,71.38,72.23,0.0,0.0
1526670340.85714006,65573760,-0.15,-0.63,-0.21,555.249267578,-13.42,-13.37,71.38,72.23,0.0,0.0
1526670340.95709991,65673720,-0.06,-0.64,-0.17,666.22253418,-13.28,-13.3,71.38,72.18,0.0,0.0
1526670341.05706000,65773680,0.01,-0.64,-0.12,800.481994629,-13.23,-13.28,71.38,72.11,0.0,0.0
1526670341.15702009,65873640,0.1,-0.55,-0.05,930.971740723,-13.3,-13.17,71.38,71.97,0.0,0.0
1526670341.25697994,65973600,0.23,-0.4,0.02,1011.60534668,-13.44,-13.15,71.38,71.79,0.0,0.0
1526670341.35694003,66073560,0.34,-0.21,0.11,1034.49267578,-13.66,-13.18,71.38,71.62,0.0,0.0
1526670341.45690012,66173520,0.41,-0.09,0.22,1030.43835449,-13.49,-13.26,71.38,71.52,0.0,0.0
1526670341.55685997,66273480,0.44,0.01,0.31,1024.87719727,-13.48,-13.29,71.38,71.42,0.0,0.0
1526670341.65682006,66373440,0.45,0.08,0.39,1021.99835205,-13.75,-13.3,71.38,71.36,0.0,0.0
1526670341.75678015,66473400,0.46,0.24,0.44,1007.09539795,-13.6,-13.3,71.38,71.33,0.0,0.0
1526670341.85674000,66573360,0.44,0.39,0.48,969.435791016,-13.75,-13.37,71.38,71.31,0.0,0.0
1526670341.95753312,66674153,0.39,0.48,0.48,926.56451416,-13.96,-13.5,71.38,71.37,0.0,0.0
1526670342.05749297,66774113,0.33,0.5,0.46,886.5078125,-14.09,-13.58,71.38,71.41,0.0,0.0
1526670342.15745306,66874073,0.26,0.48,0.41,850.317443848,-14.07,-13.7,71.38,71.46,0.0,0.0
1526670342.25741315,66974033,0.2,0.46,0.35,819.107421875,-14.09,-13.83,71.38,71.53,0.0,0.0
1526670342.35737300,67073993,0.13,0.42,0.28,191.031616211,-13.93,-13.97,71.38,71.62,0.0,0.0
1526670342.45733309,67173953,0.04,0.32,0.19,181.078308105,-14.07,-14.11,71.38,71.67,0.0,0.0
1526670342.55729294,67273913,-0.04,0.18,0.1,137.924133301,-14.03,-14.19,71.38,71.77,0.0,0.0
1526670342.65725303,67373873,-0.12,0.07,0.01,105.429214478,-14.05,-14.25,71.38,71.9,0.0,0.0
1526670342.75721312,67473833,-0.18,-0.06,-0.07,83.4222106934,-13.95,-14.3,71.38,71.99,0.0,0.0
1526670342.85717297,67573793,-0.19,-0.24,-0.14,72.2661819458,-13.98,-14.32,71.38,71.99,0.0,0.0
1526670342.95713305,67673753,-0.18,-0.33,-0.19,86.6582183838,-14.09,-14.33,71.38,71.94,0.0,0.0
1526670343.05709314,67773713,-0.13,-0.37,-0.21,101.89604187,-13.92,-14.33,71.38,71.8,0.0,0.0
1526670343.15705299,67873673,-0.08,-0.43,-0.2,133.577728271,-13.92,-14.28,71.38,71.75,0.0,0.0
1526670343.25701308,67973633,0.0,-0.45,-0.16,191.925384521,-13.86,-14.19,71.38,71.61,0.0,0.0
1526670343.35697293,68073593,0.07,-0.41,-0.1,261.110687256,-13.86,-14.04,71.38,71.48,0.0,0.0
1526670343.45693302,68173553,0.14,-0.33,-0.03,319.53213501,-13.8,-13.87,71.38,71.38,0.0,0.0
1526670343.55689311,68273513,0.18,-0.22,0.05,364.469238281,-13.8,-13.72,71.38,71.38,0.0,0.0
1526670343.65685296,68373473,0.23,-0.08,0.13,383.115020752,-13.84,-13.64,71.38,71.39,0.0,0.0
1526670343.75681305,68473433,0.24,0.05,0.2,376.309906006,-13.98,-13.63,71.38,71.44,0.0,0.0
1526670343.85677314,68573393,0.2,0.11,0.24,363.295135498,-14.11,-13.65,71.38,71.54,0.0,0.0
1526670343.95673299,68673353,0.14,0.21,0.25,346.4949646,-14.07,-13.73,71.38,71.56,0.0,0.0
1526670344.05752611,68774146,0.11,0.25,0.24,326.482940674,-14.18,-13.83,71.38,71.49,0.0,0.0
1526670344.15748596,68874106,0.09,0.29,0.2,309.772064209,-14.27,-13.89,71.38,71.4,0.0,0.0
1526670344.25744605,68974066,0.08,0.36,0.16,304.164672852,-14.34,-14.0,71.38,71.32,0.0,0.0
1526670344.35740614,69074026,0.04,0.4,0.12,317.213256836,-14.38,-14.13,71.38,71.24,0.0,0.0
1526670344.45736599,69173986,-0.01,0.36,0.07,340.011230469,-14.31,-14.22,71.38,71.22,0.0,0.0
1526670344.55732608,69273946,-0.09,0.27,0.02,355.435058594,-14.33,-14.32,71.38,71.31,0.0,0.0
1526670344.65728593,69373906,-0.17,0.18,-0.03,363.057678223,-14.22,-14.43,71.38,71.43,0.0,0.0
1526670344.75724602,69473866,-0.22,0.02,-0.1,361.374847412,-14.2,-14.51,71.38,71.53,0.0,0.0
1526670344.85720611,69573826,-0.25,-0.17,-0.16,348.838104248,-14.21,-14.55,71.38,71.6,0.0,0.0
1526670344.95716596,69673786,-0.26,-0.33,-0.21,122.495620728,-14.19,-14.56,71.38,71.64,0.0,0.0
1526670345.05712605,69773746,-0.28,-0.47,-0.25,286.837280273,-14.1,-14.51,71.38,71.64,0.0,0.0
1526670345.15708613,69873706,-0.26,-0.55,-0.28,440.539245605,-14.14,-14.39,71.38,71.57,0.0,0.0
1526670345.25704598,69973666,-0.17,-0.56,-0.28,539.815429688,-14.27,-14.25,71.38,71.5,0.0,0.0
1526670345.35700607,70073626,-0.08,-0.5,-0.24,582.940856934,-14.25,-14.15,71.38,71.42,0.0,0.0
1526670345.45696592,70173586,-0.01,-0.42,-0.19,585.712585449,-14.02,-14.08,71.38,71.38,0.0,0.0
1526670345.55692601,70273546,0.03,-0.39,-0.11,593.80670166,-14.09,-14.06,71.38,71.44,0.0,0.0
1526670345.65688610,70373506,0.07,-0.33,-0.04,624.728210449,-13.97,-13.98,71.38,71.52,0.0,0.0
1526670345.75684595,70473466,0.11,-0.25,0.02,641.585693359,-13.93,-13.91,71.38,71.55,0.0,0.0
1526670345.85680604,70573426,0.14,-0.13,0.08,645.28503418,-14.11,-13.87,71.38,71.55,0.0,0.0
1526670345.95676613,70673386,0.14,-0.01,0.13,615.036193848,-14.08,-13.88,71.38,71.6,0.0,0.0
1526670346.05672598,70773346,0.09,0.13,0.16,567.532531738,-14.25,-13.95,71.38,71.73,0.0,0.0
1526670346.15751910,70874139,0.04,0.2,0.16,520.803466797,-14.19,-14.09,71.38,71.84,0.0,0.0
1526670346.25747895,70974099,0.01,0.19,0.13,482.499908447,-14.24,-14.22,71.38,71.88,0.0,0.0
1526670346.35743904,71074059,-0.01,0.2,0.09,453.591339111,-14.18,-14.3,71.38,71.79,0.0,0.0
1526670346.45739913,71174019,-0.04,0.13,0.05,429.862518311,-14.11,-14.33,71.38,71.68,0.0,0.0
1526670346.55735898,71273979,0.0,0.04,0.01,404.522155762,-14.1,-14.32,71.38,71.39,0.0,0.0
1526670346.65731907,71373939,0.03,0.03,-0.01,381.651306152,-14.01,-14.3,71.38,71.05,0.0,0.0
1526670346.75727892,71473899,0.05,-0.01,-0.01,360.785186768,-14.17,-14.27,71.38,70.9,0.0,0.0
1526670346.85723901,71573859,0.04,-0.01,-0.01,341.886444092,-14.33,-14.26,71.38,70.77,0.0,0.0
1526670346.95719910,71673819,0.06,0.0,0.0,324.820800781,-14.33,-14.31,71.38,70.66,0.0,0.0
1526670347.05715895,71773779,0.08,0.0,0.01,309.424041748,-14.18,-14.34,71.38,70.68,0.0,0.0
1526670347.15711904,71873739,0.07,-0.03,0.04,296.514465332,-13.91,-14.29,71.38,70.75,0.0,0.0
1526670347.25707912,71973699,0.07,-0.38,0.05,306.962890625,-12.03,-14.3,24.18,70.81,0.0,0.0
1526670347.35703897,72073659,0.24,-1.17,0.08,608.278076172,-8.95,-13.69,24.18,70.09,0.0,0.01
1526670347.45699906,72173619,0.58,-1.86,0.16,1722.7434082,-7.38,-12.25,24.18,68.65,0.0,0.04
1526670347.55695891,72273579,1.09,-2.03,0.33,55733.9765625,-6.31,-10.45,24.18,66.62,0.0,0.06
1526670347.65691900,72373539,0.82,-1.62,0.59,53928.5078125,-6.08,-8.63,24.18,64.09,0.0,0.06
1526670347.75687909,72473499,-0.27,-1.07,0.63,46694.6953125,-6.78,-7.46,24.18,61.27,0.0,0.05
1526670347.85683894,72573459,-0.7,-0.62,0.44,37634.8320312,-7.3,-6.96,24.18,58.15,0.0,0.04
1526670347.95679903,72673419,-0.95,-0.33,0.11,29721.0117188,-7.87,-6.97,24.18,54.83,0.0,0.03
1526670348.05675912,72773379,-1.13,-0.18,-0.27,23908.3574219,-8.46,-7.24,24.18,51.4,0.0,0.03
1526670348.15671897,72873339,-1.24,-0.15,-0.65,20133.5917969,-9.08,-7.78,24.18,47.85,0.0,0.02
1526670348.25751209,72974132,-1.32,-0.2,-0.98,17880.3457031,-9.69,-8.42,24.18,44.26,0.0,0.02
1526670348.35747194,73074092,-1.31,-0.28,-1.24,16630.9882812,-10.24,-9.13,24.18,40.68,0.0,0.02
1526670348.45743203,73174052,-1.13,-0.34,-1.39,15941.9941406,-10.7,-9.84,24.18,37.06,0.0,0.02
1526670348.55739212,73274012,-0.82,-0.4,-1.4,15454.9267578,-11.06,-10.47,24.18,33.4,0.0,0.03
1526670348.65735197,73373972,-0.26,-0.35,-1.26,14896.4912109,-11.11,-10.91,24.18,29.61,0.0,0.03
1526670348.75731206,73473932,0.45,-0.13,-0.93,14270.8710938,-10.82,-11.1,24.18,25.88,0.0,0.03
1526670348.85727215,73573892,1.15,0.25,-0.42,13587.8388672,-10.34,-10.97,24.18,22.61,0.0,0.03
1526670348.95723200,73673852,1.75,0.72,0.21,12865.953125,-9.8,-10.54,24.18,19.99,0.0,0.02
1526670349.05719209,73773812,2.17,1.3,0.9,12145.2148438,-9.29,-9.93,24.18,18.25,0.0,0.01
1526670349.15715194,73873772,2.38,1.84,1.55,11461.2578125,-8.9,-9.31,24.18,17.38,0.0,0.0
1526670349.25711203,73973732,2.41,2.29,2.09,10821.1699219,-8.66,-8.86,24.18,17.25,0.0,0.0
1526670349.35707211,74073692,2.27,2.57,2.45,10235.6523438,-8.53,-8.57,24.18,17.75,0.0,0.0
1526670349.45703197,74173652,1.95,2.67,2.6,9702.10742188,-8.48,-8.35,24.18,18.74,0.0,0.0
1526670349.55699205,74273612,1.5,2.62,2.54,9220.06640625,-8.51,-8.25,24.18,20.02,0.0,0.0
1526670349.65695214,74373572,0.99,2.39,2.26,8786.40625,-8.56,-8.27,24.18,21.46,0.0,0.0
1526670349.75691199,74473532,0.46,2.05,1.82,8403.28515625,-8.63,-8.44,24.18,22.94,0.0,0.0
1526670349.85687208,74573492,-0.08,1.52,1.25,8067.63623047,-8.67,-8.67,24.18,24.25,0.0,0.0
1526670349.95683193,74673452,-0.53,0.82,0.63,7752.41699219,-8.71,-8.82,24.18,25.41,0.0,0.0
1526670350.05679202,74773412,-0.89,0.17,0.01,7453.12548828,-8.7,-8.9,24.18,26.26,0.0,0.0
1526670350.15675211,74873372,-1.12,-0.37,-0.54,307.287750244,-8.7,-8.92,24.18,26.79,0.0,0.0
1526670350.25671196,74973332,-1.2,-0.84,-0.99,263.303771973,-8.71,-8.94,24.18,27.03,0.0,0.0
1526670350.35750508,75074125,-1.14,-1.22,-1.3,210.155136108,-8.75,-8.86,24.18,26.94,0.0,0.01
1526670350.45746493,75174085,-1.02,-1.42,-1.45,155.537658691,-8.79,-8.83,24.18,26.63,0.0,0.01
1526670350.55742502,75274045,-0.81,-1.44,-1.44,118.284965515,-8.86,-8.81,24.18,26.12,0.0,0.0
1526670350.65738511,75374005,-0.61,-1.36,-1.31,95.8250427246,-8.92,-8.78,24.18,25.6,0.0,0.0
1526670350.75734496,75473965,-0.44,-1.18,-1.08,88.0909729004,-8.97,-8.75,24.18,25.14,0.0,0.0
1526670350.85730505,75573925,-0.25,-0.92,-0.8,94.6020431519,-9.02,-8.65,24.18,24.7,0.0,0.0
1526670350.95726514,75673885,-0.09,-0.63,-0.5,103.770858765,-9.09,-8.6,24.18,24.25,0.0,0.0
1526670351.05722499,75773845,0.01,-0.34,-0.22,108.38155365,-9.2,-8.64,24.18,23.87,0.0,0.0
1526670351.15718508,75873805,0.07,-0.03,0.0,104.787338257,-9.3,-8.79,24.18,23.54,0.0,0.0
1526670351.25714493,75973765,0.06,0.24,0.16,96.6663208008,-9.41,-8.99,24.18,23.27,0.0,0.0
1526670351.35710502,76073725,-0.01,0.4,0.24,100.355834961,-9.48,-9.19,24.18,23.08,0.0,0.0
1526670351.45706511,76173685,-0.13,0.44,0.24,116.620292664,-9.53,-9.37,24.18,23.11,0.0,0.0
1526670351.55702496,76273645,-0.31,0.33,0.17,129.820999146,-9.55,-9.5,24.18,23.32,0.0,0.0
1526670351.65698504,76373605,-0.58,0.12,0.01,134.712249756,-9.22,-9.57,24.18,23.62,0.0,0.0
1526670351.75694513,76473565,-0.87,-0.24,-0.21,127.816482544,-8.84,-9.53,24.18,23.95,0.0,0.0
1526670351.85690498,76573525,-1.06,-0.62,-0.48,124.885635376,-8.69,-9.41,24.18,24.28,0.0,0.0
1526670351.95686507,76673485,-1.22,-0.9,-0.76,129.374160767,-8.6,-9.18,24.18,24.58,0.0,0.0
1526670352.05682492,76773445,-1.3,-1.11,-1.01,129.754623413,-8.58,-8.96,24.18,24.8,0.0,0.0
1526670352.15678501,76873405,-1.33,-1.23,-1.22,125.239006042,-8.6,-8.8,24.18,24.85,0.0,0.0
1526670352.25674510,76973365,-1.3,-1.31,-1.35,119.656707764,-8.61,-8.63,24.18,24.77,0.0,0.0
1526670352.35753798,77074158,-1.26,-1.35,-1.42,116.049041748,-8.66,-8.52,24.18,24.66,0.0,0.0
1526670352.45749807,77174118,-1.16,-1.36,-1.42,112.898849487,-8.77,-8.44,24.18,24.44,0.0,0.06
1526670352.55745792,77274078,-1.08,-1.24,-1.36,111.613433838,-8.88,-8.4,24.18,24.25,0.0,0.0
1526670352.65741801,77374038,-1.02,-1.08,-1.26,117.648536682,-8.99,-8.49,24.18,24.13,0.0,0.0
1526670352.75737810,77473998,-1.04,-1.03,-1.15,156.888473511,-8.67,-8.59,223.51,24.08,0.0,0.0
1526670352.85733795,77573958,-1.5,-1.56,-1.12,422.174499512,-4.79,-8.48,223.51,23.61,0.0,0.01
1526670352.95729804,77673918,-1.65,-2.45,-1.18,4232.72363281,-2.87,-7.56,223.51,22.43,0.0,0.03
1526670353.05725813,77773878,-1.58,-3.17,-1.28,11547.9746094,-1.79,-6.06,223.51,20.64,0.0,0.04
1526670353.15721798,77873838,-1.35,-3.43,-1.35,18886.1855469,-1.07,-4.34,223.51,18.28,0.0,0.04
1526670353.25717807,77973798,-1.01,-3.23,-1.35,23054.1972656,-0.65,-2.78,223.51,15.48,0.0,0.04
1526670353.35713792,78073758,-0.64,-2.75,-1.24,24037.2949219,-0.4,-1.52,223.51,12.45,0.0,0.03
1526670353.45709801,78173718,-0.26,-2.1,-1.03,22972.9550781,-0.28,-0.61,223.51,9.28,0.0,0.02
1526670353.55705810,78273678,0.02,-1.4,-0.73,21028.5351562,-0.25,-0.04,223.51,5.92,0.0,0.02
1526670353.65701795,78373638,0.23,-0.75,-0.41,18969.1445312,-0.27,0.25,223.51,2.44,0.0,0.02
1526670353.75697803,78473598,0.32,-0.2,-0.1,17126.9160156,-0.3,0.39,223.51,358.87,0.0,0.02
1526670353.85693812,78573558,0.28,0.2,0.15,15575.5644531,-0.35,0.4,223.51,355.17,0.0,0.02
1526670353.95689797,78673518,0.16,0.48,0.3,14292.2646484,-0.36,0.26,223.51,351.36,0.0,0.02
1526670354.05685806,78773478,-0.06,0.61,0.34,13233.3730469,-0.29,0.06,223.51,347.43,0.0,0.03
1526670354.15681791,78873438,-0.36,0.58,0.26,12353.65625,-0.17,-0.16,223.51,343.47,0.0,0.03
1526670354.25677800,78973398,-0.69,0.36,0.07,11592.0078125,0.08,-0.34,223.51,339.5,0.0,0.04
1526670354.35673809,79073358,-1.07,0.0,-0.22,10913.4755859,0.45,-0.4,223.51,335.54,0.0,0.04
1526670354.45753098,79174151,-1.29,-0.43,-0.58,10295.1113281,0.56,-0.29,223.51,331.57,0.0,0.04
1526670354.55749106,79274111,-1.37,-0.83,-0.93,9732.08496094,0.5,-0.14,223.51,327.6,0.0,0.04
1526670354.65745091,79374071,-1.55,-1.11,-1.24,9228.203125,0.43,-0.02,223.51,323.59,0.0,0.04
1526670354.75741100,79474031,-1.84,-1.36,-1.51,8778.03515625,0.3,0.0,223.51,319.6,0.0,0.03
1526670354.85737109,79573991,-2.19,-1.64,-1.78,8371.13574219,0.16,0.0,223.51,315.63,0.0,0.03
1526670354.95733094,79673951,-2.52,-1.92,-2.05,7999.77832031,-0.05,-0.07,223.51,311.6,0.0,0.03
1526670355.05729103,79773911,-2.87,-2.17,-2.33,7661.53613281,-0.33,-0.09,223.51,307.59,0.0,0.03
1526670355.15725112,79873871,-3.18,-2.34,-2.62,7364.58544922,-0.66,-0.15,223.51,303.67,0.0,0.03
1526670355.25721097,79973831,-3.42,-2.52,-2.91,7117.45947266,-1.03,-0.33,223.51,299.69,0.0,0.03
1526670355.35717106,80073791,-3.66,-2.71,-3.18,2275.09326172,-1.45,-0.67,223.51,295.66,0.0,0.04
1526670355.45713115,80173751,-3.86,-2.9,-3.44,2619.37646484,-1.89,-1.05,223.51,291.7,0.0,0.04
1526670355.55709100,80273711,-4.04,-3.07,-3.67,2973.98632812,-2.35,-1.49,223.51,287.78,0.0,0.04
1526670355.65705109,80373671,-4.17,-3.27,-3.88,3256.86157227,-2.82,-1.93,223.51,283.87,0.0,0.04
1526670355.75701094,80473631,-4.27,-3.48,-4.04,3321.12548828,-3.32,-2.42,223.51,279.94,0.0,0.04
1526670355.85697103,80573591,-4.35,-3.68,-4.18,3226.71289062,-3.82,-2.93,223.51,276.01,0.0,0.04
1526670355.95693111,80673551,-4.39,-3.85,-4.28,3059.69067383,-4.33,-3.49,223.51,272.12,0.0,0.04
1526670356.05689096,80773511,-4.26,-4.08,-4.33,2795.35791016,-4.82,-4.02,223.51,268.24,0.0,0.04
1526670356.15685105,80873471,-3.91,-4.22,-4.3,2485.02392578,-5.1,-4.45,223.51,264.34,0.0,0.03
1526670356.25681114,80973431,-3.51,-4.26,-4.16,2213.15014648,-5.29,-4.78,223.51,260.41,0.0,0.03
1526670356.35677099,81073391,-3.03,-4.15,-3.9,2023.13964844,-5.49,-4.97,223.51,256.48,0.0,0.03
1526670356.45673108,81173351,-2.5,-3.91,-3.54,1926.71582031,-5.71,-5.03,223.51,252.52,0.0,0.02
1526670356.55752397,81274144,-1.94,-3.55,-3.08,1919.2286377,-5.95,-5.09,223.51,248.5,0.0,0.02
1526670356.65748405,81374104,-1.41,-3.06,-2.55,1954.55969238,-6.18,-5.15,223.51,244.5,0.0,0.03
1526670356.75744414,81474064,-0.86,-2.43,-1.99,1974.78051758,-6.42,-5.27,223.51,240.46,0.0,0.03
1526670356.85740399,81574024,-0.33,-1.75,-1.4,1946.57128906,-6.64,-5.43,223.51,236.35,0.0,0.03
1526670356.95736408,81673984,0.17,-1.08,-0.82,1881.11938477,-6.84,-5.65,223.51,232.23,0.0,0.03
1526670357.05732393,81773944,0.66,-0.42,-0.27,1794.10705566,-7.03,-5.89,223.51,228.23,0.0,0.03
1526670357.15728402,81873904,1.07,0.25,0.24,1698.49658203,-7.2,-6.13,223.51,224.6,0.0,0.03
1526670357.25724411,81973864,1.4,0.92,0.7,1617.67358398,-7.39,-6.32,223.51,221.65,0.0,0.02
1526670357.35720396,82073824,1.57,1.48,1.09,1586.01501465,-7.59,-6.53,223.51,219.58,0.0,0.01
1526670357.45716405,82173784,1.58,1.81,1.38,1589.46325684,-7.85,-6.74,223.51,218.38,0.0,0.01
1526670357.55712414,82273744,1.46,2.02,1.54,1609.05664062,-8.34,-6.99,223.51,217.91,0.0,0.01
1526670357.65708399,82373704,1.2,2.12,1.56,1657.30664062,-8.93,-7.37,223.51,218.09,0.0,0.02
1526670357.75704408,82473664,0.87,2.08,1.44,1734.76074219,-9.54,-7.9,223.51,218.7,0.0,0.02
1526670357.85700393,82573624,0.51,1.93,1.2,1852.65905762,-10.16,-8.52,223.51,219.61,0.0,0.02
1526670357.95696402,82673584,0.08,1.63,0.86,5878.99511719,-10.74,-9.19,223.51,220.7,0.0,0.03
1526670358.05692410,82773544,-0.36,1.16,0.44,5617.46826172,-11.25,-9.83,223.51,221.88,0.0,0.03
1526670358.15688396,82873504,-0.8,0.64,-0.02,5213.98632812,-11.7,-10.43,223.51,223.01,0.0,0.03
1526670358.25684404,82973464,-1.17,0.09,-0.5,4799.1875,-12.09,-11.01,223.51,223.99,0.0,0.03
1526670358.35680413,83073424,-1.42,-0.43,-0.95,4387.07470703,-12.44,-11.52,223.51,224.72,0.0,0.02
1526670358.45676398,83173384,-1.56,-0.91,-1.35,3988.08544922,-12.8,-11.96,223.51,225.21,0.0,0.02
1526670358.55672407,83273344,-1.58,-1.28,-1.64,3597.63208008,-13.13,-12.34,223.51,225.41,0.0,0.02
1526670358.65751696,83374137,-1.51,-1.56,-1.82,3228.72314453,-13.46,-12.64,223.51,225.39,0.0,0.02
1526670358.75747705,83474097,-1.37,-1.71,-1.87,2883.12255859,-13.79,-12.89,223.51,225.2,0.0,0.01
1526670358.85743713,83574057,-1.17,-1.63,-1.81,2594.85107422,-14.14,-13.18,223.51,224.84,0.0,0.01
1526670358.95739698,83674017,-0.92,-1.44,-1.65,2376.17456055,-14.45,-13.48,223.51,224.42,0.0,0.01
1526670359.05735707,83773977,-0.73,-1.18,-1.41,2203.9855957,-14.53,-13.78,223.51,223.98,0.0,0.0
1526670359.15731692,83873937,-0.51,-0.93,-1.12,2060.9230957,-14.58,-14.04,223.51,223.53,0.0,0.0
1526670359.25727701,83973897,-0.34,-0.76,-0.82,1917.82189941,-14.58,-14.19,223.51,223.2,0.0,0.01
1526670359.35723710,84073857,-0.21,-0.6,-0.54,1781.86999512,-14.59,-14.32,223.51,222.95,0.0,0.01
1526670359.45719695,84173817,-0.14,-0.42,-0.31,1668.28112793,-14.6,-14.49,223.51,222.89,0.0,0.01
1526670359.55715704,84273777,-0.11,-0.27,-0.14,1573.51794434,-14.62,-14.7,223.51,222.94,0.0,0.01
1526670359.65711713,84373737,-0.1,-0.2,-0.03,1493.3182373,-14.63,-14.85,223.51,223.06,0.0,0.01
1526670359.75707698,84473697,-0.12,-0.15,0.01,1425.34765625,-14.64,-14.92,223.51,223.14,0.0,0.01
1526670359.85703707,84573657,-0.14,-0.12,0.0,1361.64196777,-14.65,-15.01,223.51,223.13,0.0,0.01
1526670359.95699692,84673617,-0.14,-0.18,-0.02,1303.11376953,-14.66,-15.06,223.51,223.11,0.0,0.01
1526670360.05695701,84773577,-0.15,-0.26,-0.08,1254.30419922,-14.68,-15.01,223.51,223.08,0.0,0.01
1526670360.15691710,84873537,-0.17,-0.37,-0.13,1217.46228027,-14.71,-14.92,223.51,223.1,0.0,0.02
1526670360.25687695,84973497,-0.18,-0.43,-0.19,1190.50244141,-14.78,-14.81,223.51,223.09,0.0,0.02
1526670360.35683703,85073457,-0.18,-0.41,-0.23,1158.5916748,-14.86,-14.77,223.51,223.14,0.0,0.01
1526670360.45679712,85173417,-0.21,-0.36,-0.26,1120.3840332,-14.99,-14.75,223.51,223.25,0.0,0.01
1526670360.55675697,85273377,-0.22,-0.3,-0.29,0.471940547228,-15.13,-14.79,223.51,223.34,0.0,0.01
1526670360.65671706,85373337,-0.23,-0.3,-0.3,1.01891648769,-15.3,-14.88,223.51,223.43,0.0,0.01
1526670360.75750995,85474130,-0.28,-0.37,-0.31,4.62342071533,-15.46,-14.96,223.51,223.56,0.0,0.01
1526670360.85747004,85574090,-0.33,-0.38,-0.33,13.7125415802,-15.62,-15.09,223.51,223.63,0.0,0.01
1526670360.95743012,85674050,-0.34,-0.31,-0.35,11.8927488327,-15.79,-15.27,223.51,223.62,0.0,0.01
1526670361.05738997,85774010,-0.33,-0.21,-0.37,32.4316825867,-15.95,-15.46,223.51,223.56,0.0,0.01
1526670361.15735006,85873970,-0.35,-0.14,-0.37,96.339630127,-16.08,-15.67,223.51,223.52,0.0,0.01
1526670361.25730991,85973930,-0.39,-0.15,-0.39,167.565704346,-15.75,-15.85,223.51,223.46,0.0,0.01
1526670361.35727000,86073890,-0.46,-0.29,-0.41,193.258636475,-14.34,-15.85,223.51,223.37,0.0,0.01
1526670361.45723009,86173850,-0.48,-0.52,-0.44,175.496261597,-13.85,-15.53,223.51,223.26,0.0,0.02
1526670361.55718994,86273810,-0.47,-0.69,-0.46,187.168273926,-13.72,-15.01,223.51,223.2,0.0,0.02
1526670361.65715003,86373770,-0.47,-0.71,-0.48,217.044494629,-13.46,-14.55,223.51,223.19,0.0,0.02
1526670361.75711012,86473730,-0.45,-0.67,-0.5,229.414840698,-13.56,-14.17,223.51,223.18,0.0,0.02
1526670361.85706997,86573690,-0.4,-0.64,-0.49,229.280487061,-13.78,-13.88,223.51,223.21,0.0,0.02
1526670361.95703006,86673650,-0.33,-0.55,-0.47,221.804763794,-14.3,-13.74,223.51,223.24,0.0,0.01
1526670362.05699015,86773610,-0.28,-0.38,-0.43,207.93270874,-14.37,-13.81,223.51,223.21,0.0,0.01
1526670362.15695000,86873570,-0.25,-0.3,-0.38,198.841049194,-14.6,-13.97,223.51,223.19,0.0,0.01
1526670362.25691009,86973530,-0.25,-0.18,-0.33,194.840515137,-14.82,-14.16,223.51,223.22,0.0,0.0
1526670362.35686994,87073490,-0.27,-0.08,-0.29,204.375564575,-14.83,-14.36,223.51,223.23,0.0,0.0
1526670362.45683002,87173450,-0.28,0.0,-0.27,225.833999634,-15.12,-14.57,223.51,223.23,0.0,0.0
1526670362.55679011,87273410,-0.33,0.04,-0.26,256.682312012,-15.23,-14.81,223.51,223.27,0.0,0.0
1526670362.65674996,87373370,-0.39,0.03,-0.28,292.495544434,-15.45,-15.01,223.51,223.3,0.0,0.0
1526670362.75671005,87473330,-0.47,0.0,-0.32,325.075439453,-15.65,-15.21,223.51,223.37,0.0,0.0
1526670362.85750294,87574123,-0.55,-0.08,-0.38,352.010070801,-15.66,-15.42,223.51,223.42,0.0,0.07
1526670362.95746303,87674083,-0.62,-0.16,-0.46,375.445495605,-15.66,-15.56,223.51,223.46,0.0,0.01
1526670363.05742311,87774043,-0.66,-0.26,-0.54,395.744293213,-15.69,-15.69,223.51,223.48,0.0,0.0
1526670363.15738297,87874003,-0.67,-0.36,-0.61,655.590026855,-15.92,-15.76,223.51,223.47,0.0,0.0
1526670363.25734305,87973963,-0.66,-0.37,-0.66,766.500976562,-15.88,-15.87,223.51,223.37,0.0,0.0
1526670363.35730314,88073923,-0.68,-0.37,-0.7,906.39276123,-15.71,-15.96,223.51,223.34,0.0,0.0
1526670363.45726299,88173883,-0.67,-0.49,-0.72,880.802185059,-15.82,-15.93,223.51,223.39,0.0,0.01
1526670363.55722308,88273843,-0.68,-0.61,-0.72,743.901367188,-15.79,-15.88,223.51,223.5,0.0,0.01
1526670363.65718293,88373803,-0.68,-0.74,-0.72,602.190124512,-16.25,-15.89,223.51,223.62,0.0,0.01
1526670363.75714302,88473763,-0.68,-0.84,-0.71,512.404418945,-15.91,-15.96,223.51,223.67,0.0,0.0
1526670363.85710311,88573723,-0.61,-0.85,-0.7,464.51776123,-15.93,-16.04,223.51,223.67,0.0,0.0
1526670363.95706296,88673683,-0.54,-0.88,-0.66,450.447235107,-15.91,-16.09,223.51,223.7,0.0,0.0
1526670364.05702305,88773643,-0.47,-0.86,-0.62,461.469482422,-15.88,-16.09,223.51,223.7,0.0,0.0
1526670364.15698314,88873603,-0.38,-0.82,-0.55,480.039550781,-16.13,-16.09,223.51,223.7,0.0,0.0
1526670364.25694299,88973563,-0.3,-0.75,-0.48,501.100921631,-16.02,-16.14,223.51,223.71,0.0,0.0
1526670364.35690308,89073523,-0.24,-0.73,-0.4,532.857299805,-15.98,-16.2,223.51,223.71,0.0,0.0
1526670364.45686293,89173483,-0.14,-0.66,-0.32,580.703186035,-16.0,-16.19,223.51,223.64,0.0,0.0
1526670364.55682302,89273443,-0.04,-0.58,-0.23,618.819213867,-16.11,-16.12,223.51,223.54,0.0,0.0
1526670364.65678310,89373403,0.03,-0.46,-0.14,654.515991211,-16.11,-16.03,223.51,223.42,0.0,0.0
1526670364.75674295,89473363,0.06,-0.33,-0.06,665.403198242,-16.07,-16.06,223.51,223.4,0.0,0.0
1526670364.85753608,89574156,0.09,-0.25,0.0,665.849182129,-15.95,-16.1,223.51,223.44,0.0,0.0
1526670364.95749593,89674116,0.09,-0.18,0.05,663.582885742,-16.13,-16.12,223.51,223.49,0.0,0.0
1526670365.05745602,89774076,0.11,-0.11,0.08,654.0546875,-16.11,-16.05,223.51,223.51,0.0,0.0
1526670365.15741611,89874036,0.12,0.01,0.1,632.197814941,-16.23,-15.99,223.51,223.52,0.0,0.0
1526670365.25737596,89973996,0.1,0.08,0.11,603.920349121,-16.04,-15.99,223.51,223.53,0.0,0.0
1526670365.35733604,90073956,0.06,0.13,0.1,576.641113281,-16.17,-16.0,223.51,223.52,0.0,0.0
1526670365.45729613,90173916,0.01,0.2,0.07,554.134338379,-16.42,-16.05,223.51,223.51,0.0,0.0
1526670365.55725598,90273876,-0.04,0.24,0.03,544.157836914,-16.27,-16.18,223.51,223.56,0.0,0.0
1526670365.65721607,90373836,-0.09,0.23,0.0,542.574279785,-16.44,-16.33,223.51,223.61,0.0,0.0
1526670365.75717592,90473796,-0.16,0.16,-0.06,507.110809326,-16.48,-16.45,223.51,223.65,0.0,0.0
1526670365.85713601,90573756,-0.21,0.1,-0.12,520.677001953,-16.48,-16.54,223.51,223.72,0.0,0.0
1526670365.95709610,90673716,-0.26,-0.05,-0.18,416.555511475,-16.54,-16.67,223.51,223.78,0.0,0.0
1526670366.05705595,90773676,-0.28,-0.19,-0.24,304.595458984,-16.66,-16.75,223.51,223.79,0.0,0.0
1526670366.15701604,90873636,-0.29,-0.29,-0.28,231.295684814,-16.63,-16.83,223.51,223.78,0.0,0.0
1526670366.25697613,90973596,-0.27,-0.37,-0.31,187.752792358,-16.5,-16.79,223.51,223.73,0.0,0.0
1526670366.35693598,91073556,-0.23,-0.44,-0.32,169.947738647,-16.33,-16.72,223.51,223.7,0.0,0.0
1526670366.45689607,91173516,-0.16,-0.46,-0.31,172.483657837,-16.39,-16.64,223.51,223.59,0.0,0.0
1526670366.55685592,91273476,-0.08,-0.43,-0.27,181.348876953,-16.41,-16.55,223.51,223.48,0.0,0.0
1526670366.65681601,91373436,-0.04,-0.4,-0.21,191.166748047,-16.26,-16.52,223.51,223.48,0.0,0.0
1526670366.75677609,91473396,0.0,-0.36,-0.14,211.747329712,-16.03,-16.41,223.51,223.53,0.0,0.0
1526670366.85673594,91573356,0.07,-0.33,-0.07,239.8800354,-15.77,-16.22,223.51,223.56,0.0,0.0
1526670366.95752907,91674149,0.14,-0.31,0.0,283.738342285,-15.5,-15.98,223.51,223.57,0.0,0.01
1526670367.05748892,91774109,0.18,-0.28,0.06,343.445831299,-15.21,-15.76,223.51,223.67,0.0,0.01
1526670367.15744901,91874069,0.21,-0.27,0.12,416.504333496,-14.91,-15.54,223.51,223.79,0.0,0.01
1526670367.25740910,91974029,0.24,-0.25,0.18,512.72076416,-14.58,-15.26,223.51,223.89,0.0,0.01
1526670367.35736895,92073989,0.28,-0.15,0.22,581.575195312,-14.28,-14.99,223.51,223.93,0.0,0.01
1526670367.45732903,92173949,0.33,-0.11,0.26,627.457092285,-13.93,-14.71,223.51,223.93,0.0,0.01
1526670367.55728912,92273909,0.37,-0.08,0.29,673.211181641,-13.56,-14.44,223.51,223.97,0.0,0.01
1526670367.65724897,92373869,0.43,0.0,0.33,706.656188965,-13.16,-14.13,223.51,223.9,0.0,0.0
1526670367.75720906,92473829,0.49,0.12,0.37,717.75958252,-12.75,-13.75,223.51,223.77,0.0,0.0
1526670367.85716891,92573789,0.53,0.29,0.42,701.407043457,-12.32,-13.37,223.51,223.64,0.0,0.0
1526670367.95712900,92673749,0.56,0.38,0.46,674.225708008,-11.87,-12.99,223.51,223.48,0.0,0.0
1526670368.05708909,92773709,0.57,0.4,0.5,648.72088623,-11.4,-12.51,223.51,223.39,0.0,0.01
1526670368.15704894,92873669,0.57,0.37,0.53,628.686218262,-10.9,-11.97,223.51,223.39,0.0,0.01
1526670368.25700903,92973629,0.59,0.36,0.55,616.580200195,-10.39,-11.43,223.51,223.36,0.0,0.01
1526670368.35696912,93073589,0.61,0.36,0.57,442.089355469,-9.86,-10.96,223.51,223.39,0.0,0.01
1526670368.45692897,93173549,0.64,0.39,0.58,396.373901367,-9.32,-10.52,223.51,223.4,0.0,0.01
1526670368.55688906,93273509,0.67,0.44,0.6,355.558624268,-8.87,-10.04,223.51,223.4,0.0,0.01
1526670368.65684915,93373469,0.7,0.47,0.62,321.865081787,-7.92,-9.51,223.51,223.4,0.0,0.01
1526670368.75680900,93473429,0.73,0.49,0.64,297.86541748,-7.31,-8.91,223.51,223.33,0.0,0.01
1526670368.85676908,93573389,0.75,0.5,0.67,292.12512207,-6.84,-8.29,223.51,223.18,0.0,0.01
1526670368.95672894,93673349,0.79,0.55,0.7,291.560882568,-6.4,-7.7,223.51,223.04,0.0,0.01
