timestamp,TimeUS,DesR,R,IR,IRErr,DesP,P,DesY,Y,ErrRP,ErrYaw
1526670428.27867389,24073700,0.0,0.81,0.0,7308.44287109,0.0,0.16,356.9,356.9,0.0,0.0
1526670428.37946701,24174493,0.0,0.82,0.0,7253.56054688,0.0,0.16,355.32,355.32,0.0,0.0
1526670428.47942686,24274453,0.0,0.82,0.0,7215.80224609,0.0,0.17,355.3,355.3,0.0,0.0
1526670428.57938695,24374413,0.0,0.83,0.0,7194.61083984,0.0,0.17,355.29,355.29,0.0,0.0
1526670428.67934704,24474373,0.0,0.82,0.0,7172.45068359,0.0,0.19,355.28,355.28,0.0,0.0
1526670428.77930689,24574333,0.0,0.8,0.0,7136.54785156,0.0,0.21,355.29,355.29,0.0,0.0
1526670428.87926698,24674293,0.0,0.79,0.0,7091.71582031,0.0,0.22,355.3,355.3,0.0,0.0
1526670428.97922683,24774253,0.0,0.78,0.0,7039.36669922,0.0,0.25,355.32,355.32,0.0,0.0
1526670429.07918692,24874213,0.0,0.77,0.0,6986.43310547,0.0,0.27,355.3,355.3,0.0,0.0
1526670429.17914701,24974173,0.0,0.77,0.0,6936.13916016,0.0,0.27,355.28,355.28,0.0,0.0
1526670429.27910686,25074133,0.0,0.76,0.0,6886.76513672,0.0,0.25,355.27,355.27,0.0,0.0
1526670429.37906694,25174093,0.0,0.75,0.0,6835.08056641,0.0,0.24,355.26,355.26,0.0,0.0
1526670429.47902703,25274053,0.0,0.75,0.0,6784.71289062,0.0,0.22,355.24,355.24,0.0,0.0
1526670429.57898688,25374013,0.0,0.76,0.0,6738.97412109,0.0,0.21,355.2,355.2,0.0,0.0
1526670429.67894697,25473973,0.0,0.76,0.0,5776.0,0.0,0.19,355.16,355.16,0.0,0.0
1526670429.77890682,25573933,0.0,0.76,0.0,5776.0,0.0,0.18,355.12,355.12,0.0,0.0
1526670429.87886691,25673893,0.0,0.78,0.0,5870.74072266,0.0,0.18,355.06,355.06,0.0,0.0
1526670429.97882700,25773853,0.0,0.78,0.0,5941.23974609,0.0,0.19,355.0,355.0,0.0,0.0
1526670430.07878685,25873813,0.0,0.78,0.0,6001.08691406,0.0,0.19,354.95,354.95,0.0,0.0
1526670430.17874694,25973773,0.0,0.78,0.0,6017.58691406,0.0,0.2,354.91,354.91,0.0,0.0
1526670430.27870703,26073733,0.0,0.78,0.0,6028.60986328,0.0,0.21,354.88,354.88,0.0,0.0
1526670430.37949991,26174526,0.0,0.78,0.0,6048.78662109,0.0,0.2,354.85,354.85,0.0,0.0
1526670431.32745385,27122480,0.0,0.79,0.0,6263.30712891,0.0,0.22,354.35,354.35,0.0,0.0
1526670431.42741394,27222440,0.0,0.78,0.0,6259.4609375,0.0,0.23,354.31,354.31,0.0,0.0
1526670431.52737403,27322400,0.0,0.76,0.0,6240.09423828,0.0,0.24,354.26,354.26,0.0,0.0
1526670431.62733388,27422360,0.0,0.74,0.0,6208.36914062,0.0,0.23,354.2,354.2,0.0,0.0
1526670431.72729397,27522320,0.0,0.75,0.0,6172.16845703,0.0,0.22,354.11,354.11,0.0,0.0
1526670431.82725382,27622280,0.0,0.78,0.0,6154.63720703,0.0,0.2,354.01,354.01,0.0,0.0
1526670431.92721391,27722240,0.0,0.82,0.0,6165.11914062,0.0,0.2,353.93,353.93,0.0,0.0
1526670432.02717400,27822200,0.0,0.86,0.0,6204.78515625,0.0,0.23,353.86,353.86,0.0,0.0
1526670432.12713385,27922160,0.0,0.89,0.0,6265.97412109,0.0,0.27,353.78,353.78,0.0,0.0
1526670432.22709394,28022120,0.0,0.92,0.0,6340.72412109,0.0,0.32,353.68,353.68,0.0,0.0
1526670432.32705402,28122080,0.0,0.96,0.0,9216.0,0.0,0.37,353.57,353.57,0.0,0.0
1526670432.42701387,28222040,0.0,0.98,0.0,9333.78027344,0.0,0.42,353.48,353.48,0.0,0.0
1526670432.52697396,28322000,0.0,1.02,0.0,9643.93847656,0.0,0.47,353.39,353.39,0.0,0.0
1526670432.62693405,28421960,0.0,1.06,0.0,10016.3632812,0.0,0.52,353.3,353.3,0.0,0.0
1526670432.72689390,28521920,0.0,1.09,0.0,10392.453125,0.0,0.56,353.19,353.19,0.0,0.0
1526670432.82685399,28621880,0.0,1.11,0.0,10727.9648438,0.0,0.59,353.07,353.07,0.0,0.0
1526670432.92681384,28721840,0.0,1.12,0.0,11012.7265625,0.0,0.61,352.94,352.94,0.0,0.0
1526670433.02677393,28821800,0.0,1.14,0.0,11278.8935547,0.0,0.61,352.82,352.82,0.0,0.0
1526670433.12673402,28921760,0.0,1.17,0.0,11533.6884766,0.0,0.62,352.7,352.7,0.0,0.0
1526670433.22669387,29021720,0.0,1.17,0.0,11772.5039062,0.0,0.61,352.59,352.59,0.0,0.0
1526670433.32665396,29121680,0.0,1.19,0.0,11993.6435547,0.0,0.61,352.47,352.47,0.0,0.0
1526670433.42744684,29222473,0.0,1.2,0.0,12208.6552734,0.0,0.64,352.33,352.33,0.0,0.0
1526670433.52740693,29322433,0.0,1.21,0.0,12403.4140625,0.0,0.66,352.18,352.18,0.0,0.0
1526670433.62736702,29422393,0.0,1.25,0.0,12616.5527344,0.0,0.67,352.05,352.05,0.0,0.0
1526670433.72732687,29522353,0.0,1.28,0.0,12859.3779297,0.0,0.67,351.94,351.94,0.0,0.0
1526670433.82728696,29622313,0.0,1.32,0.0,13130.5585938,0.0,0.67,351.83,351.83,0.0,0.0
1526670433.92724705,29722273,0.0,1.36,0.0,13430.5068359,0.0,0.67,351.73,351.73,0.0,0.0
1526670434.02720690,29822233,0.0,1.38,0.0,13743.7089844,0.0,0.67,351.59,351.59,0.0,0.0
1526670434.12716699,29922193,0.0,1.41,0.0,14062.0488281,0.0,0.68,351.47,351.47,0.0,0.0
1526670434.27710700,30072133,0.0,1.43,0.0,14387.4082031,0.0,0.7,351.25,351.25,0.0,0.0
1526670434.37789989,30172926,0.0,1.46,0.0,14714.8886719,0.0,0.7,351.11,351.11,0.0,0.0
1526670434.47785997,30272886,0.0,1.49,0.0,15050.1171875,0.0,0.69,350.99,350.99,0.0,0.0
1526670434.57781982,30372846,0.0,1.5,0.0,15383.9130859,0.0,0.69,350.89,350.89,0.0,0.0
1526670434.67777991,30472806,0.0,1.49,0.0,15684.8535156,0.0,0.67,350.78,350.78,0.0,0.0
1526670434.77774000,30572766,0.0,1.5,0.0,15959.2138672,0.0,0.65,350.68,350.68,0.0,0.0
1526670434.87769985,30672726,0.0,1.52,0.0,16236.5830078,0.0,0.64,350.58,350.58,0.0,0.0
1526670434.97765994,30772686,0.0,1.53,0.0,23409.0,0.0,0.64,350.49,350.49,0.0,0.0
1526670435.07762003,30872646,0.0,1.54,0.0,23467.4765625,0.0,0.64,350.43,350.43,0.0,0.0
1526670435.17757988,30972606,0.0,1.55,0.0,23630.1582031,0.0,0.65,350.38,350.38,0.0,0.0
1526670435.27753997,31072566,0.0,1.56,0.0,23769.8105469,0.0,0.68,350.35,350.35,0.0,0.0
1526670435.37749982,31172526,0.0,1.56,0.0,23909.6113281,0.0,0.68,350.31,350.31,0.0,0.0
1526670435.47745991,31272486,0.0,1.58,0.0,24060.7714844,0.0,0.68,350.28,350.28,0.0,0.0
1526670435.57742000,31372446,0.0,1.58,0.0,24210.0664062,0.0,0.69,350.27,350.27,0.0,0.0
1526670435.67737985,31472406,0.0,1.59,0.0,24324.875,0.0,0.68,350.3,350.3,0.0,0.0
1526670435.77733994,31572366,0.0,1.58,0.0,24432.8203125,0.0,0.65,350.35,350.35,0.0,0.0
1526670435.87730002,31672326,0.0,1.57,0.0,24468.0195312,0.0,0.61,350.39,350.39,0.0,0.0
1526670435.97725987,31772286,0.0,1.56,0.0,24459.5546875,0.0,0.59,350.44,350.44,0.0,0.0
1526670436.07721996,31872246,0.0,1.53,0.0,24414.0097656,0.0,0.59,350.5,350.5,0.0,0.0
1526670436.17718005,31972206,0.0,1.48,0.0,24270.9355469,0.0,0.6,350.56,350.56,0.0,0.0
1526670436.27713990,32072166,0.0,1.44,0.0,24039.6171875,0.0,0.6,350.62,350.62,0.0,0.0
1526670436.37793303,32172959,0.0,1.44,0.0,23804.484375,0.0,0.61,350.69,350.69,0.0,0.0
1526670436.47789288,32272919,0.0,1.43,0.0,23593.4472656,0.0,0.6,350.78,350.78,0.0,0.0
1526670436.57785296,32372879,0.0,1.42,0.0,23388.2089844,0.0,0.6,350.89,350.89,0.0,0.0
1526670436.67781305,32472839,0.0,1.4,0.0,23173.4433594,0.0,0.58,350.99,350.99,0.0,0.0
1526670436.77777290,32572799,0.0,1.4,0.0,22975.46875,0.0,0.57,351.09,351.09,0.0,0.0
1526670436.87773299,32672759,0.0,1.4,0.0,22800.1152344,0.0,0.55,351.17,351.17,0.0,0.0
1526670436.97769284,32772719,0.0,1.41,0.0,22650.2851562,0.0,0.54,351.26,351.26,0.0,0.0
1526670437.07765293,32872679,0.0,1.44,0.0,22539.9667969,0.0,0.54,351.35,351.35,0.0,0.0
1526670437.17761302,32972639,0.0,1.48,0.0,22487.828125,0.0,0.52,351.44,351.44,0.0,0.0
1526670437.32588696,33120913,0.0,1.52,0.0,22490.3769531,0.0,0.5,351.55,351.55,0.0,0.0
1526670437.42584705,33220873,0.0,1.52,0.0,22515.8925781,0.0,0.48,351.62,351.62,0.0,0.0
1526670437.52580690,33320833,0.0,1.53,0.0,22548.7753906,0.0,0.47,351.69,351.69,0.0,0.0
1526670437.62576699,33420793,0.0,1.53,0.0,23409.0,0.0,0.47,351.78,351.78,0.0,0.0
1526670437.72572684,33520753,0.0,1.52,0.0,23358.1660156,0.0,0.46,351.9,351.9,0.0,0.0
1526670437.82568693,33620713,0.0,1.5,0.0,23079.3046875,0.0,0.44,352.01,352.01,0.0,0.0
1526670437.92564702,33720673,0.0,1.47,0.0,22694.2207031,0.0,0.41,352.14,352.14,0.0,0.0
1526670438.02560687,33820633,0.0,1.46,0.0,22382.8574219,0.0,0.39,352.27,352.27,0.0,0.0
1526670438.12556696,33920593,0.0,1.46,0.0,22149.9902344,0.0,0.35,352.4,352.4,0.0,0.0
1526670438.22552705,34020553,0.0,1.45,0.0,22000.1152344,0.0,0.31,352.52,352.52,0.0,0.0
1526670438.32548690,34120513,0.0,1.42,0.0,21806.6035156,0.0,0.25,352.64,352.64,0.0,0.0
1526670438.42544699,34220473,0.0,1.38,0.0,21530.0722656,0.0,0.2,352.75,352.75,0.0,0.0
1526670438.52540684,34320433,0.0,1.36,0.0,21228.0644531,0.0,0.16,352.87,352.87,0.0,0.0
1526670438.62536693,34420393,0.0,1.35,0.0,20944.7558594,0.0,0.13,353.01,353.01,0.0,0.0
1526670438.72532701,34520353,0.0,1.35,0.0,20701.6894531,0.0,0.12,353.16,353.16,0.0,0.0
1526670438.82528687,34620313,0.0,1.35,0.0,20496.15625,0.0,0.11,353.3,353.3,0.0,0.0
1526670438.92524695,34720273,0.0,1.36,0.0,20340.8105469,0.0,0.12,353.43,353.43,0.0,0.0
1526670439.02520704,34820233,0.0,1.35,0.0,20195.0410156,0.0,0.13,353.53,353.53,0.0,0.0
1526670439.12516689,34920193,0.0,1.35,0.0,20057.4394531,0.0,0.13,353.6,353.6,0.0,0.0
1526670439.22512698,35020153,0.0,1.37,0.0,19961.8847656,0.0,0.14,353.65,353.65,0.0,0.0
1526670439.32508683,35120113,0.0,1.37,0.0,19891.9199219,0.0,0.14,353.68,353.68,0.0,0.0
1526670439.42587996,35220906,0.0,1.37,0.0,19829.7089844,0.0,0.14,353.69,353.69,0.0,0.0
1526670439.52584004,35320866,0.0,1.38,0.0,19787.7421875,0.0,0.15,353.67,353.67,0.0,0.0
1526670439.62579989,35420826,0.0,1.38,0.0,19750.6484375,0.0,0.17,353.67,353.67,0.0,0.0
1526670439.72575998,35520786,0.0,1.37,0.0,19715.4453125,0.0,0.19,353.67,353.67,0.0,0.0
1526670439.82571983,35620746,0.0,1.38,0.0,19677.4960938,0.0,0.2,353.71,353.71,0.0,0.0
1526670439.92567992,35720706,0.0,1.38,0.0,19650.0136719,0.0,0.24,353.75,353.75,0.0,0.0
1526670440.02564001,35820666,0.0,1.38,0.0,19624.8144531,0.0,0.28,353.79,353.79,0.0,0.0
1526670440.12559986,35920626,0.0,1.36,0.0,19592.8417969,0.0,0.32,353.84,353.84,0.0,0.0
1526670440.27553988,36070566,0.0,1.35,0.0,18225.0,0.0,0.36,353.91,353.91,0.0,0.0
1526670440.37633300,36171359,0.0,1.35,0.0,18225.0,0.0,0.37,353.96,353.96,0.0,0.0
1526670440.47629285,36271319,0.0,1.36,0.0,18238.0605469,0.0,0.38,354.01,354.01,0.0,0.0
1526670440.57625294,36371279,0.0,1.38,0.0,18386.40625,0.0,0.37,354.05,354.05,0.0,0.0
1526670443.32431984,39119346,0.0,1.37,0.0,19014.1835938,0.0,0.22,354.44,354.44,0.0,0.0
1526670443.42427993,39219306,0.0,1.36,0.0,18937.6308594,0.0,0.2,354.49,354.49,0.0,0.0
1526670443.52424002,39319266,0.0,1.36,0.0,18864.9335938,0.0,0.19,354.54,354.54,0.0,0.0
1526670443.62419987,39419226,0.0,1.36,0.0,18812.7871094,0.0,0.21,354.59,354.59,0.0,0.0
1526670443.72415996,39519186,0.0,1.37,0.0,18798.0683594,0.0,0.22,354.64,354.64,0.0,0.0
1526670443.82412004,39619146,0.0,1.39,0.0,18835.8515625,0.0,0.25,354.68,354.68,0.0,0.0
1526670443.92407990,39719106,0.0,1.42,0.0,18931.9785156,0.0,0.25,354.73,354.73,0.0,0.0
1526670444.02403998,39819066,0.0,1.44,0.0,19067.7050781,0.0,0.26,354.78,354.78,0.0,0.0
1526670444.12399983,39919026,0.0,1.45,0.0,19216.6347656,0.0,0.27,354.83,354.83,0.0,0.0
1526670444.22395992,40018986,0.0,1.47,0.0,19388.4042969,0.0,0.27,354.88,354.88,0.0,0.0
1526670444.32392001,40118946,0.0,1.48,0.0,19567.1308594,0.0,0.25,354.91,354.91,0.0,0.0
1526670444.42387986,40218906,0.0,1.49,0.0,19740.8632812,0.0,0.25,354.96,354.96,0.0,0.0
1526670444.52383995,40318866,0.0,1.49,0.0,19893.9042969,0.0,0.25,355.03,355.03,0.0,0.0
1526670444.62380004,40418826,0.0,1.5,0.0,20042.5917969,0.0,0.25,355.09,355.09,0.0,0.0
1526670444.72375989,40518786,0.0,1.52,0.0,20189.8046875,0.0,0.23,355.14,355.14,0.0,0.0
1526670444.82371998,40618746,0.0,1.54,0.0,20356.9941406,0.0,0.21,355.18,355.18,0.0,0.0
1526670444.92367983,40718706,0.0,1.55,0.0,20530.859375,0.0,0.21,355.22,355.22,0.0,0.0
1526670445.02363992,40818666,0.0,1.56,0.0,20706.984375,0.0,0.2,355.26,355.26,0.0,0.0
1526670445.12360001,40918626,0.0,1.56,0.0,20871.3789062,0.0,0.19,355.29,355.29,0.0,0.0
1526670445.22355986,41018586,0.0,1.54,0.0,21005.0351562,0.0,0.18,355.31,355.31,0.0,0.0
1526670445.32351995,41118546,0.0,1.53,0.0,21109.0058594,0.0,0.18,355.32,355.32,0.0,0.0
1526670445.42431283,41219339,0.0,1.53,0.0,21200.6894531,0.0,0.17,355.34,355.34,0.0,0.0
1526670445.52427292,41319299,0.0,1.53,0.0,23409.0,0.0,0.2,355.35,355.35,0.0,0.0
1526670445.62423301,41419259,0.0,1.53,0.0,23409.0,0.0,0.22,355.35,355.35,0.0,0.0
1526670445.72419286,41519219,0.0,1.56,0.0,23594.5429688,0.0,0.24,355.34,355.34,0.0,0.0
1526670445.82415295,41619179,0.0,1.59,0.0,24017.0722656,0.0,0.26,355.32,355.32,0.0,0.0
1526670445.92411304,41719139,0.0,1.61,0.0,24399.7363281,0.0,0.27,355.3,355.3,0.0,0.0
1526670446.02407289,41819099,0.0,1.63,0.0,24755.2714844,0.0,0.26,355.24,355.24,0.0,0.0
1526670446.12403297,41919059,0.0,1.67,0.0,25187.8730469,0.0,0.25,355.18,355.18,0.0,0.0
1526670446.27147388,42066500,0.0,1.72,0.0,25669.5722656,0.0,0.22,355.1,355.1,0.0,0.0
1526670446.37226701,42167293,0.0,1.74,0.0,26183.1835938,0.0,0.21,355.06,355.06,0.0,0.0
1526670446.47222686,42267253,0.0,1.75,0.0,26657.2558594,0.0,0.22,355.01,355.01,0.0,0.0
1526670446.57218695,42367213,0.0,1.74,0.0,27039.8183594,0.0,0.22,354.96,354.96,0.0,0.0
1526670446.67214704,42467173,0.0,1.73,0.0,27330.4589844,0.0,0.22,354.9,354.9,0.0,0.0
1526670446.77210689,42567133,0.0,1.74,0.0,27556.4355469,0.0,0.24,354.82,354.82,0.0,0.0
1526670446.87206697,42667093,0.0,1.73,0.0,27739.8828125,0.0,0.26,354.75,354.75,0.0,0.0
1526670446.97202682,42767053,0.0,1.72,0.0,27889.9003906,0.0,0.28,354.67,354.67,0.0,0.0
1526670447.07198691,42867013,0.0,1.7,0.0,27989.2011719,0.0,0.29,354.59,354.59,0.0,0.0
1526670447.17194700,42966973,0.0,1.69,0.0,28043.2167969,0.0,0.26,354.54,354.54,0.0,0.0
1526670447.27190685,43066933,0.0,1.68,0.0,28062.6582031,0.0,0.24,354.48,354.48,0.0,0.0
1526670447.37186694,43166893,0.0,1.65,0.0,28043.8183594,0.0,0.23,354.41,354.41,0.0,0.0
1526670447.47182703,43266853,0.0,1.62,0.0,27982.8046875,0.0,0.23,354.31,354.31,0.0,0.0
1526670447.57178688,43366813,0.0,1.6,0.0,27877.2910156,0.0,0.23,354.2,354.2,0.0,0.0
1526670447.67174697,43466773,0.0,1.6,0.0,27769.234375,0.0,0.24,354.09,354.09,0.0,0.0
1526670447.77170682,43566733,0.0,1.59,0.0,27662.6328125,0.0,0.23,353.99,353.99,0.0,0.0
1526670447.87166691,43666693,0.0,1.58,0.0,27548.078125,0.0,0.21,353.9,353.9,0.0,0.0
1526670447.97162700,43766653,0.0,1.58,0.0,27440.7441406,0.0,0.18,353.83,353.83,0.0,0.0
1526670448.07158685,43866613,0.0,1.57,0.0,27341.3398438,0.0,0.15,353.79,353.79,0.0,0.0
1526670448.17154694,43966573,0.0,1.54,0.0,23716.0,0.0,0.13,353.77,353.77,0.0,0.0
1526670448.27150702,44066533,0.0,1.52,0.0,23359.7675781,0.0,0.13,353.76,353.76,0.0,0.0
1526670448.37229991,44167326,0.0,1.48,0.0,22913.4335938,0.0,0.12,353.73,353.73,0.0,0.0
1526670448.47226000,44267286,0.0,1.46,0.0,22491.7890625,0.0,0.12,353.71,353.71,0.0,0.0
1526670448.57221985,44367246,0.0,1.45,0.0,22151.4785156,0.0,0.11,353.71,353.71,0.0,0.0
1526670448.67217994,44467206,0.0,1.43,0.0,21859.8808594,0.0,0.09,353.7,353.7,0.0,0.0
1526670448.77214003,44567166,0.0,1.39,0.0,21532.0078125,0.0,0.09,353.7,353.7,0.0,0.0
1526670448.87209988,44667126,0.0,1.36,0.0,21147.40625,0.0,0.09,353.67,353.67,0.0,0.0
1526670448.97205997,44767086,0.0,1.32,0.0,20750.6621094,0.0,0.09,353.62,353.62,0.0,0.0
1526670449.07202005,44867046,0.0,1.31,0.0,20366.6992188,0.0,0.06,353.57,353.57,0.0,0.0
1526670449.17197990,44967006,0.0,1.3,0.0,20040.7441406,0.0,0.03,353.53,353.53,0.0,0.0
1526670449.32025385,45115280,0.0,1.31,0.0,19768.9394531,0.0,0.06,353.4,353.4,0.0,0.0
1526670449.42021394,45215240,0.0,1.31,0.0,19552.9609375,0.0,0.06,353.31,353.31,0.0,0.0
1526670449.52017403,45315200,0.0,1.33,0.0,19379.0742188,0.0,0.05,353.2,353.2,0.0,0.0
1526670449.62013388,45415160,0.0,1.36,0.0,19287.5800781,0.0,0.06,353.08,353.08,0.0,0.0
1526670449.72009397,45515120,0.0,1.38,0.0,19253.6601562,0.0,0.07,352.96,352.96,0.0,0.0
1526670449.82005405,45615080,0.0,1.38,0.0,19240.6171875,0.0,0.09,352.84,352.84,0.0,0.0
1526670449.92001390,45715040,0.0,1.37,0.0,19224.2714844,0.0,0.11,352.71,352.71,0.0,0.0
1526670450.01997399,45815000,0.0,1.37,0.0,19199.0820312,0.0,0.13,352.58,352.58,0.0,0.0
1526670450.11993384,45914960,0.0,1.37,0.0,19171.5273438,0.0,0.13,352.46,352.46,0.0,0.0
1526670450.21989393,46014920,0.0,1.37,0.0,19151.4765625,0.0,0.15,352.37,352.37,0.0,0.0
1526670450.31985402,46114880,0.0,1.4,0.0,19159.2246094,0.0,0.15,352.31,352.31,0.0,0.0
1526670450.41981387,46214840,0.0,1.43,0.0,19201.2324219,0.0,0.15,352.27,352.27,0.0,0.0
1526670450.51977396,46314800,0.0,1.44,0.0,19262.1269531,0.0,0.17,352.23,352.23,0.0,0.0
1526670450.61973405,46414760,0.0,1.45,0.0,19329.0292969,0.0,0.19,352.21,352.21,0.0,0.0
1526670450.71969390,46514720,0.0,1.43,0.0,19385.140625,0.0,0.23,352.2,352.2,0.0,0.0
1526670450.81965399,46614680,0.0,1.41,0.0,19881.0,0.0,0.24,352.21,352.21,0.0,0.0
1526670450.91961384,46714640,0.0,1.42,0.0,19992.8828125,0.0,0.26,352.21,352.21,0.0,0.0
1526670451.01957393,46814600,0.0,1.45,0.0,20309.7832031,0.0,0.27,352.19,352.19,0.0,0.0
1526670451.11953402,46914560,0.0,1.49,0.0,20747.203125,0.0,0.28,352.18,352.18,0.0,0.0
1526670451.21949387,47014520,0.0,1.52,0.0,21232.8828125,0.0,0.29,352.17,352.17,0.0,0.0
1526670451.31945395,47114480,0.0,1.52,0.0,21601.5761719,0.0,0.31,352.16,352.16,0.0,0.0
1526670451.42024684,47215273,0.0,1.51,0.0,21799.0117188,0.0,0.33,352.16,352.16,0.0,0.0
1526670451.52020693,47315233,0.0,1.51,0.0,21940.6367188,0.0,0.34,352.17,352.17,0.0,0.0
1526670451.62016702,47415193,0.0,1.5,0.0,22041.5917969,0.0,0.34,352.19,352.19,0.0,0.0
1526670451.72012687,47515153,0.0,1.48,0.0,22055.9394531,0.0,0.35,352.2,352.2,0.0,0.0
1526670451.82008696,47615113,0.0,1.44,0.0,21986.2265625,0.0,0.33,352.23,352.23,0.0,0.0
1526670451.92004704,47715073,0.0,1.42,0.0,21846.1875,0.0,0.32,352.25,352.25,0.0,0.0
1526670452.02000690,47815033,0.0,1.38,0.0,21653.3027344,0.0,0.31,352.27,352.27,0.0,0.0
1526670452.11996698,47914993,0.0,1.36,0.0,21433.2695312,0.0,0.31,352.29,352.29,0.0,0.0
1526670452.26990700,48064933,0.0,1.37,0.0,21204.3730469,0.0,0.37,352.29,352.29,0.0,0.0
1526670452.37069988,48165726,0.0,1.38,0.0,21051.7402344,0.0,0.38,352.29,352.29,0.0,0.0
1526670452.47065997,48265686,0.0,1.4,0.0,20945.9921875,0.0,0.37,352.3,352.3,0.0,0.0
1526670452.57061982,48365646,0.0,1.43,0.0,20893.65625,0.0,0.34,352.3,352.3,0.0,0.0
1526670452.67057991,48465606,0.0,1.43,0.0,20869.0898438,0.0,0.31,352.31,352.31,0.0,0.0
1526670452.77054000,48565566,0.0,1.43,0.0,20859.8671875,0.0,0.3,352.31,352.31,0.0,0.0
1526670455.31868696,51113713,0.0,1.21,0.0,16098.3574219,0.0,0.57,351.93,351.93,0.0,0.0
1526670455.41864705,51213673,0.0,1.17,0.0,15997.9160156,0.0,0.57,351.9,351.9,0.0,0.0
1526670455.51860690,51313633,0.0,1.14,0.0,15872.3642578,0.0,0.58,351.9,351.9,0.0,0.0
1526670455.61856699,51413593,0.0,1.09,0.0,15707.8681641,0.0,0.6,351.91,351.91,0.0,0.0
1526670455.71852684,51513553,0.0,1.07,0.0,15520.5166016,0.0,0.61,351.96,351.96,0.0,0.0
1526670455.81848693,51613513,0.0,1.05,0.0,15333.6826172,0.0,0.61,352.0,352.0,0.0,0.0
1526670455.91844702,51713473,0.0,1.03,0.0,15148.8388672,0.0,0.6,352.04,352.04,0.0,0.0
1526670456.01840687,51813433,0.0,1.01,0.0,14961.4453125,0.0,0.59,352.1,352.1,0.0,0.0
1526670456.11836696,51913393,0.0,1.01,0.0,10201.0,0.0,0.57,352.18,352.18,0.0,0.0
1526670456.21832705,52013353,0.0,1.0,0.0,10132.4775391,0.0,0.56,352.28,352.28,0.0,0.0
1526670456.31828690,52113313,0.0,0.98,0.0,9998.39257812,0.0,0.53,352.38,352.38,0.0,0.0
1526670456.41824698,52213273,0.0,0.98,0.0,9871.16894531,0.0,0.5,352.48,352.48,0.0,0.0
1526670456.51820683,52313233,0.0,0.96,0.0,9762.13378906,0.0,0.46,352.58,352.58,0.0,0.0
1526670456.61816692,52413193,0.0,0.93,0.0,9590.8671875,0.0,0.42,352.68,352.68,0.0,0.0
1526670456.71812701,52513153,0.0,0.89,0.0,9368.20507812,0.0,0.4,352.77,352.77,0.0,0.0
1526670456.81808686,52613113,0.0,0.86,0.0,9115.51074219,0.0,0.4,352.84,352.84,0.0,0.0
1526670456.91804695,52713073,0.0,0.86,0.0,8903.22558594,0.0,0.38,352.89,352.89,0.0,0.0
1526670457.01800704,52813033,0.0,0.89,0.0,8767.22265625,0.0,0.37,352.94,352.94,0.0,0.0
1526670457.11796689,52912993,0.0,0.91,0.0,8702.56445312,0.0,0.36,352.99,352.99,0.0,0.0
1526670457.21792698,53012953,0.0,0.93,0.0,8686.0859375,0.0,0.36,353.0,353.0,0.0,0.0
1526670457.31788683,53112913,0.0,0.93,0.0,8692.6796875,0.0,0.35,353.0,353.0,0.0,0.0
1526670457.41867995,53213706,0.0,0.92,0.0,8684.75585938,0.0,0.36,352.98,352.98,0.0,0.0
1526670457.51864004,53313666,0.0,0.92,0.0,8669.09960938,0.0,0.38,352.97,352.97,0.0,0.0
1526670457.61859989,53413626,0.0,0.92,0.0,8655.51660156,0.0,0.39,352.95,352.95,0.0,0.0
1526670457.71855998,53513586,0.0,0.93,0.0,8652.52636719,0.0,0.39,352.92,352.92,0.0,0.0
1526670457.81851983,53613546,0.0,0.94,0.0,8655.60058594,0.0,0.41,352.88,352.88,0.0,0.0
1526670457.91847992,53713506,0.0,0.94,0.0,8665.56738281,0.0,0.41,352.83,352.83,0.0,0.0
1526670458.01844001,53813466,0.0,0.96,0.0,8685.65722656,0.0,0.41,352.76,352.76,0.0,0.0
1526670458.11839986,53913426,0.0,0.97,0.0,8720.92382812,0.0,0.44,352.7,352.7,0.0,0.0
1526670458.26833987,54063366,0.0,0.98,0.0,8761.92578125,0.0,0.46,352.63,352.63,0.0,0.0
1526670458.36913300,54164159,0.0,0.98,0.0,8799.98535156,0.0,0.47,352.6,352.6,0.0,0.0
1526670458.46909285,54264119,0.0,0.95,0.0,8817.58984375,0.0,0.45,352.6,352.6,0.0,0.0
1526670458.56905293,54364079,0.0,0.92,0.0,8815.08007812,0.0,0.44,352.62,352.62,0.0,0.0
1526670458.66901302,54464039,0.0,0.92,0.0,8801.10644531,0.0,0.44,352.63,352.63,0.0,0.0
1526670458.76897287,54563999,0.0,0.92,0.0,8464.0,0.0,0.43,352.66,352.66,0.0,0.0
1526670458.86893296,54663959,0.0,0.92,0.0,8464.0,0.0,0.43,352.7,352.7,0.0,0.0
1526670458.96889305,54763919,0.0,0.93,0.0,8479.23535156,0.0,0.43,352.76,352.76,0.0,0.0
1526670459.06885290,54863879,0.0,0.94,0.0,8566.47167969,0.0,0.45,352.83,352.83,0.0,0.0
1526670459.16881299,54963839,0.0,0.99,0.0,8735.99414062,0.0,0.47,352.88,352.88,0.0,0.0
1526670459.26877284,55063799,0.0,1.04,0.0,9031.17089844,0.0,0.49,352.93,352.93,0.0,0.0
1526670459.36873293,55163759,0.0,1.08,0.0,9386.26953125,0.0,0.48,352.99,352.99,0.0,0.0
1526670459.46869302,55263719,0.0,1.09,0.0,9742.58203125,0.0,0.45,353.03,353.03,0.0,0.0
1526670459.56865287,55363679,0.0,1.1,0.0,10007.1201172,0.0,0.45,353.09,353.09,0.0,0.0
1526670459.66861296,55463639,0.0,1.15,0.0,10284.1318359,0.0,0.42,353.13,353.13,0.0,0.0
1526670459.76857305,55563599,0.0,1.19,0.0,10621.7236328,0.0,0.37,353.17,353.17,0.0,0.0
1526670459.86853290,55663559,0.0,1.22,0.0,10971.1591797,0.0,0.35,353.2,353.2,0.0,0.0
1526670459.96849298,55763519,0.0,1.24,0.0,11319.1796875,0.0,0.36,353.24,353.24,0.0,0.0
1526670460.06845284,55863479,0.0,1.25,0.0,11632.5390625,0.0,0.37,353.3,353.3,0.0,0.0
1526670460.16841292,55963439,0.0,1.26,0.0,11927.6298828,0.0,0.37,353.31,353.31,0.0,0.0
1526670460.26837301,56063399,0.0,1.26,0.0,12174.5732422,0.0,0.38,353.32,353.32,0.0,0.0
1526670460.36916590,56164192,0.0,1.27,0.0,12410.3955078,0.0,0.39,353.33,353.33,0.0,0.0
1526670460.46912599,56264152,0.0,1.27,0.0,12627.5400391,0.0,0.41,353.33,353.33,0.0,0.0
1526670460.56908584,56364112,0.0,1.26,0.0,12815.8388672,0.0,0.43,353.32,353.32,0.0,0.0
1526670460.66904593,56464072,0.0,1.24,0.0,12962.1005859,0.0,0.44,353.29,353.29,0.0,0.0
1526670460.76900601,56564032,0.0,1.22,0.0,13074.6845703,0.0,0.45,353.26,353.26,0.0,0.0
1526670460.86896586,56663992,0.0,1.21,0.0,13152.2802734,0.0,0.46,353.24,353.24,0.0,0.0
1526670460.96892595,56763952,0.0,1.2,0.0,13209.21875,0.0,0.48,353.25,353.25,0.0,0.0
1526670461.06888604,56863912,0.0,1.21,0.0,13269.3105469,0.0,0.5,353.25,353.25,0.0,0.0
1526670461.16884589,56963872,0.0,1.24,0.0,13344.3896484,0.0,0.51,353.23,353.23,0.0,0.0
1526670461.31711984,57112146,0.0,1.28,0.0,13446.4726562,0.0,0.55,353.19,353.19,0.0,0.0
1526670461.41707993,57212106,0.0,1.27,0.0,16333.0,0.0,0.56,353.19,353.19,0.0,0.0
1526670461.51704001,57312066,0.0,1.26,0.0,16084.2001953,0.0,0.57,353.21,353.21,0.0,0.0
1526670461.61699986,57412026,0.0,1.23,0.0,15809.8466797,0.0,0.59,353.25,353.25,0.0,0.0
1526670461.71695995,57511986,0.0,1.18,0.0,15430.6240234,0.0,0.59,353.3,353.3,0.0,0.0
1526670461.81692004,57611946,0.0,1.14,0.0,14952.4365234,0.0,0.62,353.35,353.35,0.0,0.0
1526670461.91687989,57711906,0.0,1.11,0.0,14477.15625,0.0,0.63,353.39,353.39,0.0,0.0
1526670462.01683998,57811866,0.0,1.1,0.0,14089.9511719,0.0,0.65,353.46,353.46,0.0,0.0
1526670462.11679983,57911826,0.0,1.09,0.0,13793.7539062,0.0,0.66,353.57,353.57,0.0,0.0
1526670462.21675992,58011786,0.0,1.09,0.0,13558.3388672,0.0,0.66,353.66,353.66,0.0,0.0
1526670462.31672001,58111746,0.0,1.11,0.0,13390.7539062,0.0,0.64,353.76,353.76,0.0,0.0
1526670462.41667986,58211706,0.0,1.14,0.0,13322.7480469,0.0,0.62,353.89,353.89,0.0,0.0
1526670462.51663995,58311666,0.0,1.16,0.0,13318.6474609,0.0,0.59,354.01,354.01,0.0,0.0
1526670462.61660004,58411626,0.0,1.17,0.0,13342.4658203,0.0,0.58,354.12,354.12,0.0,0.0
1526670462.71655989,58511586,0.0,1.17,0.0,13368.8681641,0.0,0.59,354.21,354.21,0.0,0.0
1526670462.81651998,58611546,0.0,1.15,0.0,13373.0,0.0,0.61,354.31,354.31,0.0,0.0
1526670462.91647983,58711506,0.0,1.15,0.0,13363.2148438,0.0,0.64,354.42,354.42,0.0,0.0
1526670463.01643991,58811466,0.0,1.14,0.0,13343.2822266,0.0,0.65,354.49,354.49,0.0,0.0
1526670463.11640000,58911426,0.0,1.14,0.0,13323.0029297,0.0,0.65,354.53,354.53,0.0,0.0
1526670463.21635985,59011386,0.0,1.15,0.0,13310.015625,0.0,0.63,354.58,354.58,0.0,0.0
1526670463.31631994,59111346,0.0,1.13,0.0,13300.4833984,0.0,0.62,354.6,354.6,0.0,0.0
1526670463.41711283,59212139,0.0,1.1,0.0,13259.3203125,0.0,0.59,354.61,354.61,0.0,0.0
1526670463.51707292,59312099,0.0,1.09,0.0,13203.9228516,0.0,0.55,354.61,354.61,0.0,0.0
1526670463.61703300,59412059,0.0,1.07,0.0,13135.5703125,0.0,0.55,354.61,354.61,0.0,0.0
1526670463.71699286,59512019,0.0,1.07,0.0,13055.0390625,0.0,0.56,354.61,354.61,0.0,0.0
1526670463.81695294,59611979,0.0,1.08,0.0,12993.3691406,0.0,0.59,354.61,354.61,0.0,0.0
1526670463.91691303,59711939,0.0,1.1,0.0,12950.4033203,0.0,0.62,354.63,354.63,0.0,0.0
1526670464.01687288,59811899,0.0,1.1,0.0,12100.0,0.0,0.65,354.64,354.64,0.0,0.0
1526670464.11683297,59911859,0.0,1.1,0.0,12100.0,0.0,0.68,354.64,354.64,0.0,0.0
1526670464.21679282,60011819,0.0,1.08,0.0,12022.7998047,0.0,0.71,354.63,354.63,0.0,0.0
1526670464.36506701,60160093,0.0,1.1,0.0,12001.9677734,0.0,0.71,354.59,354.59,0.0,0.0
1526670464.46502686,60260053,0.0,1.12,0.0,12068.703125,0.0,0.7,354.61,354.61,0.0,0.0
1526670464.56498694,60360013,0.0,1.16,0.0,12250.9609375,0.0,0.67,354.64,354.64,0.0,0.0
1526670464.66494703,60459973,0.0,1.19,0.0,12504.0898438,0.0,0.64,354.67,354.67,0.0,0.0
1526670464.76490688,60559933,0.0,1.21,0.0,12758.4775391,0.0,0.63,354.68,354.68,0.0,0.0
1526670464.86486697,60659893,0.0,1.21,0.0,12990.171875,0.0,0.62,354.68,354.68,0.0,0.0
1526670464.96482682,60759853,0.0,1.19,0.0,13146.0488281,0.0,0.61,354.66,354.66,0.0,0.0
1526670467.31305385,63108080,0.0,1.25,0.0,14415.9101562,0.0,0.58,353.73,353.73,0.0,0.0
1526670467.41301394,63208040,0.0,1.26,0.0,14611.1474609,0.0,0.59,353.68,353.68,0.0,0.0
1526670467.51297402,63308000,0.0,1.28,0.0,14801.9013672,0.0,0.58,353.63,353.63,0.0,0.0
1526670467.61293387,63407960,0.0,1.3,0.0,15004.2275391,0.0,0.56,353.57,353.57,0.0,0.0
1526670467.71289396,63507920,0.0,1.32,0.0,15218.5605469,0.0,0.55,353.5,353.5,0.0,0.0
1526670467.81285405,63607880,0.0,1.34,0.0,15441.2851562,0.0,0.54,353.44,353.44,0.0,0.0
1526670467.91281390,63707840,0.0,1.35,0.0,15670.3154297,0.0,0.53,353.33,353.33,0.0,0.0
1526670468.01277399,63807800,0.0,1.35,0.0,15864.9580078,0.0,0.51,353.21,353.21,0.0,0.0
1526670468.11273384,63907760,0.0,1.35,0.0,16032.0410156,0.0,0.49,353.08,353.08,0.0,0.0
1526670468.21269393,64007720,0.0,1.36,0.0,16190.4677734,0.0,0.48,352.95,352.95,0.0,0.0
1526670468.31265402,64107680,0.0,1.37,0.0,16338.1025391,0.0,0.49,352.82,352.82,0.0,0.0
1526670468.41261387,64207640,0.0,1.35,0.0,16460.9550781,0.0,0.49,352.68,352.68,0.0,0.0
1526670468.51257396,64307600,0.0,1.35,0.0,16558.28125,0.0,0.48,352.53,352.53,0.0,0.0
1526670468.61253405,64407560,0.0,1.36,0.0,16647.2011719,0.0,0.46,352.38,352.38,0.0,0.0
1526670468.71249390,64507520,0.0,1.37,0.0,16742.4589844,0.0,0.46,352.2,352.2,0.0,0.0
1526670468.81245399,64607480,0.0,1.38,0.0,16842.9453125,0.0,0.45,352.02,352.02,0.0,0.0
1526670468.91241384,64707440,0.0,1.38,0.0,16942.4277344,0.0,0.44,351.85,351.85,0.0,0.0
1526670469.01237392,64807400,0.0,1.42,0.0,17055.5976562,0.0,0.43,351.69,351.69,0.0,0.0
1526670469.11233401,64907360,0.0,1.45,0.0,17201.046875,0.0,0.42,351.54,351.54,0.0,0.0
1526670469.21229386,65007320,0.0,1.49,0.0,17377.9980469,0.0,0.42,351.39,351.39,0.0,0.0
1526670469.31225395,65107280,0.0,1.52,0.0,23104.0,0.0,0.41,351.26,351.26,0.0,0.0
1526670469.41304684,65208073,0.0,1.56,0.0,23587.5332031,0.0,0.38,351.14,351.14,0.0,0.0
1526670469.51300693,65308033,0.0,1.6,0.0,24172.8007812,0.0,0.37,351.04,351.04,0.0,0.0
1526670469.61296701,65407993,0.0,1.64,0.0,24823.1601562,0.0,0.39,350.97,350.97,0.0,0.0
1526670469.71292686,65507953,0.0,1.65,0.0,25379.5039062,0.0,0.41,350.9,350.9,0.0,0.0
1526670469.81288695,65607913,0.0,1.67,0.0,25831.8105469,0.0,0.44,350.83,350.83,0.0,0.0
1526670469.91284704,65707873,0.0,1.65,0.0,26109.2578125,0.0,0.44,350.77,350.77,0.0,0.0
1526670470.01280689,65807833,0.0,1.64,0.0,26249.6914062,0.0,0.43,350.71,350.71,0.0,0.0
1526670470.11276698,65907793,0.0,1.63,0.0,26309.1132812,0.0,0.44,350.64,350.64,0.0,0.0
1526670470.26270700,66057733,0.0,1.64,0.0,26348.9472656,0.0,0.43,350.51,350.51,0.0,0.0
1526670470.36349988,66158526,0.0,1.63,0.0,26402.0390625,0.0,0.4,350.45,350.45,0.0,0.0
1526670470.46345997,66258486,0.0,1.62,0.0,26401.7109375,0.0,0.39,350.38,350.38,0.0,0.0
1526670470.56341982,66358446,0.0,1.59,0.0,26356.2597656,0.0,0.38,350.32,350.32,0.0,0.0
1526670470.66337991,66458406,0.0,1.57,0.0,26248.0195312,0.0,0.4,350.26,350.26,0.0,0.0
1526670470.76334000,66558366,0.0,1.57,0.0,26137.2402344,0.0,0.4,350.19,350.19,0.0,0.0
1526670470.86329985,66658326,0.0,1.57,0.0,26046.8027344,0.0,0.39,350.15,350.15,0.0,0.0
1526670470.96325994,66758286,0.0,1.55,0.0,25949.6054688,0.0,0.4,350.09,350.09,0.0,0.0
1526670471.06322002,66858246,0.0,1.52,0.0,25812.2148438,0.0,0.41,350.05,350.05,0.0,0.0
1526670471.16317987,66958206,0.0,1.5,0.0,25646.7265625,0.0,0.42,350.01,350.01,0.0,0.0
1526670471.26313996,67058166,0.0,1.49,0.0,25471.8320312,0.0,0.41,349.98,349.98,0.0,0.0
1526670471.36310005,67158126,0.0,1.47,0.0,25296.2382812,0.0,0.39,349.94,349.94,0.0,0.0
1526670471.46305990,67258086,0.0,1.45,0.0,25109.4277344,0.0,0.38,349.93,349.93,0.0,0.0
1526670471.56301999,67358046,0.0,1.45,0.0,24924.984375,0.0,0.37,349.93,349.93,0.0,0.0
1526670471.66297984,67458006,0.0,1.45,0.0,24756.4746094,0.0,0.36,349.95,349.95,0.0,0.0
1526670471.76293993,67557966,0.0,1.44,0.0,24595.6601562,0.0,0.33,349.95,349.95,0.0,0.0
1526670471.86290002,67657926,0.0,1.43,0.0,24431.3164062,0.0,0.3,349.95,349.95,0.0,0.0
1526670471.96285987,67757886,0.0,1.43,0.0,20688.1660156,0.0,0.26,349.93,349.93,0.0,0.0
1526670472.06281996,67857846,0.0,1.43,0.0,20498.9121094,0.0,0.22,349.93,349.93,0.0,0.0
1526670472.16278005,67957806,0.0,1.42,0.0,20449.1855469,0.0,0.17,349.91,349.91,0.0,0.0
1526670472.26273990,68057766,0.0,1.41,0.0,20302.5,0.0,0.13,349.88,349.88,0.0,0.0
1526670472.36353302,68158559,0.0,1.39,0.0,20145.15625,0.0,0.12,349.85,349.85,0.0,0.0
1526670472.46349287,68258519,0.0,1.37,0.0,19940.78125,0.0,0.13,349.85,349.85,0.0,0.0
1526670472.56345296,68358479,0.0,1.37,0.0,19750.2480469,0.0,0.13,349.84,349.84,0.0,0.0
1526670472.66341305,68458439,0.0,1.38,0.0,19626.4726562,0.0,0.11,349.85,349.85,0.0,0.0
1526670472.76337290,68558399,0.0,1.36,0.0,19528.859375,0.0,0.11,349.87,349.87,0.0,0.0
1526670472.86333299,68658359,0.0,1.35,0.0,19396.7265625,0.0,0.11,349.88,349.88,0.0,0.0
1526670472.96329284,68758319,0.0,1.33,0.0,19263.421875,0.0,0.11,349.85,349.85,0.0,0.0
1526670473.06325293,68858279,0.0,1.31,0.0,19098.4902344,0.0,0.13,349.81,349.81,0.0,0.0
1526670473.16321301,68958239,0.0,1.31,0.0,18939.0273438,0.0,0.14,349.77,349.77,0.0,0.0
1526670473.31148696,69106513,0.0,1.31,0.0,18810.8164062,0.0,0.17,349.68,349.68,0.0,0.0
1526670473.41144705,69206473,0.0,1.29,0.0,18685.4628906,0.0,0.2,349.64,349.64,0.0,0.0
1526670473.51140690,69306433,0.0,1.29,0.0,18550.515625,0.0,0.19,349.63,349.63,0.0,0.0
1526670473.61136699,69406393,0.0,1.3,0.0,18441.0996094,0.0,0.18,349.62,349.62,0.0,0.0
1526670473.71132684,69506353,0.0,1.3,0.0,18351.2382812,0.0,0.16,349.61,349.61,0.0,0.0
1526670473.81128693,69606313,0.0,1.29,0.0,18258.4375,0.0,0.13,349.59,349.59,0.0,0.0
1526670473.91124701,69706273,0.0,1.28,0.0,18167.9375,0.0,0.09,349.57,349.57,0.0,0.0
1526670474.01120687,69806233,0.0,1.26,0.0,18065.8183594,0.0,0.05,349.53,349.53,0.0,0.0
1526670474.11116695,69906193,0.0,1.25,0.0,17954.5664062,0.0,0.03,349.48,349.48,0.0,0.0
1526670474.21112704,70006153,0.0,1.23,0.0,17834.8144531,0.0,0.02,349.43,349.43,0.0,0.0
1526670474.31108689,70106113,0.0,1.19,0.0,17696.625,0.0,0.01,349.37,349.37,0.0,0.0
1526670474.41104698,70206073,0.0,1.16,0.0,17540.4257812,0.0,0.0,349.33,349.33,0.0,0.0
1526670474.51100683,70306033,0.0,1.13,0.0,17364.0722656,0.0,-0.02,349.32,349.32,0.0,0.0
1526670474.61096692,70405993,0.0,1.11,0.0,12321.0,0.0,-0.02,349.3,349.3,0.0,0.0
1526670474.71092701,70505953,0.0,1.09,0.0,12115.0214844,0.0,-0.02,349.27,349.27,0.0,0.0
1526670474.81088686,70605913,0.0,1.09,0.0,12006.1748047,0.0,-0.02,349.24,349.24,0.0,0.0
1526670474.91084695,70705873,0.0,1.1,0.0,11985.5556641,0.0,-0.03,349.23,349.23,0.0,0.0
1526670475.01080704,70805833,0.0,1.13,0.0,12125.7109375,0.0,-0.04,349.25,349.25,0.0,0.0
1526670475.11076689,70905793,0.0,1.16,0.0,12327.0917969,0.0,-0.06,349.28,349.28,0.0,0.01
1526670475.21072698,71005753,0.0,1.18,0.0,12528.6582031,0.0,-0.08,349.28,349.28,0.0,0.07
1526670475.31068683,71105713,0.0,1.19,0.0,12742.8710938,0.0,-0.08,349.27,349.27,0.0,0.07
1526670475.41147995,71206506,0.0,1.17,0.0,12896.5673828,0.0,-0.07,349.24,349.24,0.0,0.05
1526670475.51144004,71306466,0.0,1.14,0.0,12929.4150391,0.0,-0.06,349.14,349.14,0.0,0.0
1526670475.61139989,71406426,0.0,1.11,0.0,12901.4433594,0.0,-0.07,349.02,349.02,0.0,0.0
1526670475.71135998,71506386,0.0,1.08,0.0,12819.8027344,0.0,-0.09,348.93,348.93,0.0,0.0
1526670475.81131983,71606346,0.0,1.07,0.0,12712.2880859,0.0,-0.12,348.81,348.81,0.0,0.0
1526670475.91127992,71706306,0.0,1.05,0.0,12596.4199219,0.0,-0.16,348.67,348.67,0.0,0.0
1526670476.01124001,71806266,0.0,1.03,0.0,12475.0371094,0.0,-0.21,348.54,348.54,0.0,0.0
1526670476.11119986,71906226,0.0,1.02,0.0,12344.7626953,0.0,-0.24,348.42,348.42,0.0,0.0
1526670476.26113987,72056166,0.0,1.04,0.0,12224.3154297,0.0,-0.25,348.29,348.29,0.0,0.0
1526670476.36193299,72156959,0.0,1.02,0.0,12136.5986328,0.0,-0.26,348.25,348.25,0.0,0.0
1526670476.46189284,72256919,0.0,1.01,0.0,12037.3603516,0.0,-0.27,348.23,348.23,0.0,0.0
1526670476.56185293,72356879,0.0,1.01,0.0,11941.5917969,0.0,-0.27,348.19,348.19,0.0,0.0
1526670476.66181302,72456839,0.0,1.0,0.0,11845.6035156,0.0,-0.28,348.15,348.15,0.0,0.0
1526670476.76177287,72556799,0.0,0.98,0.0,11749.0693359,0.0,-0.3,348.1,348.1,0.0,0.0
1526670476.86173296,72656759,0.0,0.94,0.0,11634.0205078,0.0,-0.32,348.03,348.03,0.0,0.0
1526670476.96169305,72756719,0.0,0.9,0.0,11497.3027344,0.0,-0.3,347.98,347.98,0.0,0.0
1526670477.06165290,72856679,0.0,0.86,0.0,11341.2070312,0.0,-0.29,347.91,347.91,0.0,0.0
1526670477.16161299,72956639,0.0,0.82,0.0,11167.3994141,0.0,-0.29,347.86,347.86,0.0,0.0
1526670479.30991983,75104946,0.0,0.84,0.0,7383.26123047,0.0,-0.27,346.76,346.76,0.0,0.0
1526670479.40987992,75204906,0.0,0.84,0.0,7367.80615234,0.0,-0.29,346.71,346.71,0.0,0.0
1526670479.50984001,75304866,0.0,0.87,0.0,7364.28955078,0.0,-0.32,346.66,346.66,0.0,0.0
1526670479.60979986,75404826,0.0,0.9,0.0,7382.42089844,0.0,-0.34,346.62,346.62,0.0,0.0
1526670479.70975995,75504786,0.0,0.93,0.0,7424.35693359,0.0,-0.36,346.61,346.61,0.0,0.0
1526670479.80972004,75604746,0.0,0.97,0.0,7493.29003906,0.0,-0.35,346.6,346.6,0.0,0.0
1526670479.90967989,75704706,0.0,1.01,0.0,10172.2861328,0.0,-0.34,346.57,346.57,0.0,0.0
1526670480.00963998,75804666,0.0,1.04,0.0,10453.0849609,0.0,-0.34,346.53,346.53,0.0,0.0
1526670480.10959983,75904626,0.0,1.09,0.0,10872.8623047,0.0,-0.37,346.49,346.49,0.0,0.0
1526670480.20955992,76004586,0.0,1.16,0.0,11464.1181641,0.0,-0.41,346.42,346.42,0.0,0.0
1526670480.30952001,76104546,0.0,1.21,0.0,12072.1914062,0.0,-0.43,346.35,346.35,0.0,0.0
1526670480.40947986,76204506,0.0,1.25,0.0,12662.0146484,0.0,-0.46,346.32,346.32,0.0,0.0
1526670480.50943995,76304466,0.0,1.28,0.0,13194.8789062,0.0,-0.47,346.3,346.3,0.0,0.0
1526670480.60940003,76404426,0.0,1.27,0.0,13634.9130859,0.0,-0.47,346.3,346.3,0.0,0.0
1526670480.70935988,76504386,0.0,1.26,0.0,13919.1103516,0.0,-0.48,346.31,346.31,0.0,0.0
1526670480.80931997,76604346,0.0,1.24,0.0,14096.9023438,0.0,-0.49,346.32,346.32,0.0,0.0
1526670480.90927982,76704306,0.0,1.24,0.0,14222.6113281,0.0,-0.47,346.34,346.34,0.0,0.0
1526670481.00923991,76804266,0.0,1.24,0.0,14325.8232422,0.0,-0.45,346.36,346.36,0.0,0.0
1526670481.10920000,76904226,0.0,1.24,0.0,14412.0800781,0.0,-0.42,346.34,346.34,0.0,0.0
1526670481.20915985,77004186,0.0,1.24,0.0,14485.2431641,0.0,-0.4,346.32,346.32,0.0,0.0
1526670481.30911994,77104146,0.0,1.23,0.0,14539.8056641,0.0,-0.38,346.28,346.28,0.0,0.0
1526670481.40991282,77204939,0.0,1.23,0.0,14570.9638672,0.0,-0.36,346.23,346.23,0.0,0.0
1526670481.50987291,77304899,0.0,1.24,0.0,14608.8994141,0.0,-0.34,346.18,346.18,0.0,0.0
1526670481.60983300,77404859,0.0,1.26,0.0,14672.0976562,0.0,-0.33,346.15,346.15,0.0,0.0
1526670481.70979285,77504819,0.0,1.28,0.0,14758.5732422,0.0,-0.31,346.15,346.15,0.0,0.0
1526670481.80975294,77604779,0.0,1.28,0.0,14843.3417969,0.0,-0.28,346.16,346.16,0.0,0.0
1526670481.90971303,77704739,0.0,1.27,0.0,14912.1230469,0.0,-0.27,346.18,346.18,0.0,0.0
1526670482.00967288,77804699,0.0,1.24,0.0,14954.4111328,0.0,-0.26,346.22,346.22,0.0,0.0
1526670482.10963297,77904659,0.0,1.22,0.0,14963.1376953,0.0,-0.23,346.23,346.23,0.0,0.0
1526670482.25707388,78052100,0.0,1.2,0.0,14954.2197266,0.0,-0.18,346.22,346.22,0.0,0.0
1526670482.35786700,78152893,0.0,1.2,0.0,14931.2949219,0.0,-0.16,346.24,346.24,0.0,0.0
1526670482.45782685,78252853,0.0,1.19,0.0,14904.96875,0.0,-0.14,346.25,346.25,0.0,0.0
1526670482.55778694,78352813,0.0,1.19,0.0,14161.0,0.0,-0.14,346.27,346.27,0.0,0.0
1526670482.65774703,78452773,0.0,1.17,0.0,13959.4257812,0.0,-0.13,346.3,346.3,0.0,0.0
1526670482.75770688,78552733,0.0,1.15,0.0,13736.2988281,0.0,-0.1,346.32,346.32,0.0,0.0
1526670482.85766697,78652693,0.0,1.11,0.0,13407.1181641,0.0,-0.09,346.32,346.32,0.0,0.0
1526670482.95762682,78752653,0.0,1.08,0.0,13074.5205078,0.0,-0.08,346.3,346.3,0.0,0.0
1526670483.05758691,78852613,0.0,1.07,0.0,12777.0292969,0.0,-0.08,346.26,346.26,0.0,0.0
1526670483.15754700,78952573,0.0,1.04,0.0,12493.4287109,0.0,-0.09,346.21,346.21,0.0,0.0
1526670483.25750685,79052533,0.0,1.03,0.0,12233.6757812,0.0,-0.1,346.17,346.17,0.0,0.0
1526670483.35746694,79152493,0.0,1.02,0.0,12012.9970703,0.0,-0.08,346.13,346.13,0.0,0.0
1526670483.45742702,79252453,0.0,1.02,0.0,11837.6298828,0.0,-0.07,346.09,346.09,0.0,0.0
1526670483.55738688,79352413,0.0,1.03,0.0,11708.8203125,0.0,-0.06,346.03,346.03,0.0,0.0
1526670483.65734696,79452373,0.0,1.05,0.0,11635.9443359,0.0,-0.09,345.97,345.97,0.0,0.0
1526670483.75730705,79552333,0.0,1.05,0.0,11591.8291016,0.0,-0.14,345.93,345.93,0.0,0.0
1526670483.85726690,79652293,0.0,1.03,0.0,11533.7705078,0.0,-0.19,345.87,345.87,0.0,0.0
1526670483.95722699,79752253,0.0,1.01,0.0,11454.8310547,0.0,-0.22,345.8,345.8,0.0,0.0
1526670484.05718684,79852213,0.0,1.0,0.0,11360.9472656,0.0,-0.22,345.75,345.75,0.0,0.0
1526670484.15714693,79952173,0.0,0.98,0.0,11266.3632812,0.0,-0.21,345.71,345.71,0.0,0.0
1526670484.25710702,80052133,0.0,0.97,0.0,11161.6259766,0.0,-0.23,345.63,345.63,0.0,0.0
1526670484.35789990,80152926,0.0,0.96,0.0,11055.3730469,0.0,-0.25,345.56,345.56,0.0,0.0
1526670484.45785999,80252886,0.0,0.98,0.0,10965.7509766,0.0,-0.25,345.51,345.51,0.0,0.0
1526670484.55781984,80352846,0.0,1.0,0.0,10909.0351562,0.0,-0.24,345.48,345.48,0.0,0.0
1526670484.65777993,80452806,0.0,1.02,0.0,10878.4804688,0.0,-0.24,345.43,345.43,0.0,0.0
1526670484.75774002,80552766,0.0,1.04,0.0,10862.8632812,0.0,-0.26,345.39,345.39,0.0,0.0
1526670484.85769987,80652726,0.0,1.07,0.0,10871.4902344,0.0,-0.31,345.37,345.37,0.0,0.0
1526670484.95765996,80752686,0.0,1.07,0.0,10895.3789062,0.0,-0.38,345.35,345.35,0.0,0.0
1526670485.05762005,80852646,0.0,1.06,0.0,10911.6582031,0.0,-0.45,345.35,345.35,0.0,0.0
1526670485.15757990,80952606,0.0,1.03,0.0,10786.4287109,0.0,-0.51,345.34,345.34,0.0,0.0
1526670485.30585384,81100880,0.0,1.03,0.0,10670.6591797,0.0,-0.58,345.33,345.33,0.0,0.0
1526670485.40581393,81200840,0.0,1.0,0.0,10531.9082031,0.0,-0.59,345.33,345.33,0.0,0.0
1526670485.50577402,81300800,0.0,0.96,0.0,10257.1572266,0.0,-0.61,345.32,345.32,0.0,0.0
1526670485.60573387,81400760,0.0,0.92,0.0,9921.63476562,0.0,-0.62,345.32,345.32,0.0,0.0
1526670485.70569396,81500720,0.0,0.89,0.0,9589.87402344,0.0,-0.62,345.29,345.29,0.0,0.0
1526670485.80565405,81600680,0.0,0.86,0.0,9283.234375,0.0,-0.61,345.23,345.23,0.0,0.0
1526670485.90561390,81700640,0.0,0.82,0.0,8981.24414062,0.0,-0.6,345.18,345.18,0.0,0.0
1526670486.00557399,81800600,0.0,0.78,0.0,8663.28417969,0.0,-0.59,345.13,345.13,0.0,0.0
1526670486.10553384,81900560,0.0,0.74,0.0,8345.77929688,0.0,-0.59,345.1,345.1,0.0,0.0
1526670486.20549393,82000520,0.0,0.73,0.0,8061.20898438,0.0,-0.58,345.07,345.07,0.0,0.0
1526670486.30545402,82100480,0.0,0.71,0.0,7811.85888672,0.0,-0.58,345.07,345.07,0.0,0.0
1526670486.40541387,82200440,0.0,0.67,0.0,7561.42724609,0.0,-0.58,345.07,345.07,0.0,0.0
1526670486.50537395,82300400,0.0,0.61,0.0,7295.69433594,0.0,-0.57,345.05,345.05,0.0,0.0
1526670486.60533404,82400360,0.0,0.54,0.0,7016.5625,0.0,-0.58,345.01,345.01,0.0,0.0
1526670486.70529389,82500320,0.0,0.5,0.0,6731.64404297,0.0,-0.6,344.95,344.95,0.0,0.0
1526670486.80525398,82600280,0.0,0.46,0.0,6456.05419922,0.0,-0.61,344.86,344.86,0.0,0.0
1526670486.90521383,82700240,0.0,0.45,0.0,6200.17919922,0.0,-0.61,344.79,344.79,0.0,0.0
1526670487.00517392,82800200,0.0,0.42,0.0,5961.29150391,0.0,-0.6,344.73,344.73,0.0,0.0
1526670487.10513401,82900160,0.0,0.4,0.0,5738.40673828,0.0,-0.58,344.68,344.68,0.0,0.0
1526670487.20509386,83000120,0.0,0.4,0.0,5533.28125,0.0,-0.56,344.65,344.65,0.0,0.0
1526670487.30505395,83100080,0.0,0.41,0.0,5348.86914062,0.0,-0.53,344.63,344.63,0.0,0.0
1526670487.40584683,83200873,0.0,0.42,0.0,5185.89648438,0.0,-0.51,344.62,344.62,0.0,0.0
1526670487.50580692,83300833,0.0,0.42,0.0,5040.62548828,0.0,-0.51,344.61,344.61,0.0,0.0
1526670487.60576701,83400793,0.0,0.41,0.0,4904.40136719,0.0,-0.49,344.61,344.61,0.0,0.0
1526670487.70572686,83500753,0.0,0.39,0.0,4772.05761719,0.0,-0.49,344.62,344.62,0.0,0.0
1526670487.80568695,83600713,0.0,0.41,0.0,1681.0,0.0,-0.49,344.62,344.62,0.0,0.0
1526670487.90564704,83700673,0.0,0.44,0.0,1786.29785156,0.0,-0.47,344.63,344.63,0.0,0.0
1526670488.00560689,83800633,0.0,0.48,0.0,1931.29882812,0.0,-0.45,344.64,344.64,0.0,0.0
1526670488.10556698,83900593,0.0,0.51,0.0,2095.01586914,0.0,-0.42,344.64,344.64,0.0,0.0
1526670488.25550699,84050533,0.0,0.51,0.0,2218.5,0.0,-0.36,344.66,344.66,0.0,0.0
1526670488.35629988,84151326,0.0,0.53,0.0,2309.4855957,0.0,-0.35,344.7,344.7,0.0,0.0
1526670491.30428696,87099313,0.0,0.69,0.0,5107.14013672,0.0,-0.48,345.65,345.65,0.0,0.01
1526670491.40424705,87199273,0.0,0.7,0.0,5078.58154297,0.0,-0.49,345.65,345.65,0.0,0.01
1526670491.50420690,87299233,0.0,0.73,0.0,5087.56884766,0.0,-0.5,345.66,345.66,0.0,0.01
1526670491.60416698,87399193,0.0,0.75,0.0,5123.93066406,0.0,-0.49,345.66,345.66,0.0,0.01
1526670491.70412683,87499153,0.0,0.76,0.0,5173.35644531,0.0,-0.48,345.69,345.69,0.0,0.01
1526670491.80408692,87599113,0.0,0.78,0.0,5235.00585938,0.0,-0.47,345.7,345.7,0.0,0.01
1526670491.90404701,87699073,0.0,0.81,0.0,5309.51416016,0.0,-0.45,345.71,345.71,0.0,0.01
1526670492.00400686,87799033,0.0,0.82,0.0,5398.55078125,0.0,-0.43,345.72,345.72,0.0,0.01
1526670492.10396695,87898993,0.0,0.84,0.0,5491.09423828,0.0,-0.4,345.71,345.71,0.0,0.01
1526670492.20392704,87998953,0.0,0.88,0.0,5599.92578125,0.0,-0.39,345.68,345.68,0.0,0.01
1526670492.30388689,88098913,0.0,0.94,0.0,5748.67285156,0.0,-0.38,345.67,345.67,0.0,0.01
1526670492.40384698,88198873,0.0,0.96,0.0,5920.828125,0.0,-0.34,345.69,345.69,0.0,0.01
1526670492.50380683,88298833,0.0,0.97,0.0,6091.59912109,0.0,-0.31,345.73,345.73,0.0,0.01
1526670492.60376692,88398793,0.0,0.96,0.0,6246.71484375,0.0,-0.3,345.77,345.77,0.0,0.01
1526670492.70372701,88498753,0.0,0.95,0.0,6375.94921875,0.0,-0.31,345.79,345.79,0.0,0.0
1526670492.80368686,88598713,0.0,0.96,0.0,6497.13037109,0.0,-0.33,345.82,345.82,0.0,0.0
1526670492.90364695,88698673,0.0,0.96,0.0,6608.88867188,0.0,-0.35,345.86,345.86,0.0,0.0
1526670493.00360703,88798633,0.0,0.97,0.0,6715.40869141,0.0,-0.36,345.9,345.9,0.0,0.0
1526670493.10356688,88898593,0.0,0.99,0.0,9702.5,0.0,-0.37,345.95,345.95,0.0,0.0
1526670493.20352697,88998553,0.0,1.01,0.0,9955.14550781,0.0,-0.4,346.0,346.0,0.0,0.0
1526670493.30348682,89098513,0.0,1.02,0.0,10115.3408203,0.0,-0.45,346.06,346.06,0.0,0.0
1526670493.40427995,89199306,0.0,1.04,0.0,10247.265625,0.0,-0.48,346.1,346.1,0.0,0.0
1526670493.50424004,89299266,0.0,1.04,0.0,10382.6787109,0.0,-0.5,346.14,346.14,0.0,0.0
1526670493.60419989,89399226,0.0,1.03,0.0,10428.1923828,0.0,-0.51,346.17,346.17,0.0,0.0
1526670493.70415998,89499186,0.0,1.03,0.0,10469.875,0.0,-0.55,346.22,346.22,0.0,0.0
1526670493.80411983,89599146,0.0,1.04,0.0,10517.9482422,0.0,-0.59,346.3,346.3,0.0,0.0
1526670493.90407991,89699106,0.0,1.05,0.0,10573.4111328,0.0,-0.61,346.37,346.37,0.0,0.0
1526670494.00404000,89799066,0.0,1.06,0.0,10634.5380859,0.0,-0.61,346.44,346.44,0.0,0.0
1526670494.10399985,89899026,0.0,1.08,0.0,10722.8378906,0.0,-0.59,346.5,346.5,0.0,0.0
1526670494.25393987,90048966,0.0,1.09,0.0,10822.3115234,0.0,-0.59,346.59,346.59,0.0,0.0
1526670494.35473299,90149759,0.0,1.1,0.0,10910.703125,0.0,-0.6,346.65,346.65,0.0,0.0
1526670494.45469284,90249719,0.0,1.12,0.0,11015.2910156,0.0,-0.61,346.71,346.71,0.0,0.0
1526670494.55465293,90349679,0.0,1.15,0.0,11139.0224609,0.0,-0.64,346.78,346.78,0.0,0.0
1526670494.65461302,90449639,0.0,1.16,0.0,11283.2392578,0.0,-0.66,346.86,346.86,0.0,0.0
1526670494.75457287,90549599,0.0,1.19,0.0,11442.4179688,0.0,-0.68,346.95,346.95,0.0,0.0
1526670494.85453296,90649559,0.0,1.21,0.0,11616.5751953,0.0,-0.72,347.06,347.06,0.0,0.0
1526670494.95449305,90749519,0.0,1.21,0.0,11782.5244141,0.0,-0.76,347.16,347.16,0.0,0.0
1526670495.05445290,90849479,0.0,1.23,0.0,11941.3339844,0.0,-0.81,347.26,347.26,0.0,0.0
1526670495.15441298,90949439,0.0,1.23,0.0,12098.9443359,0.0,-0.83,347.36,347.36,0.0,0.0
1526670495.25437284,91049399,0.0,1.24,0.0,12253.0498047,0.0,-0.84,347.47,347.47,0.0,0.0
1526670495.35433292,91149359,0.0,1.24,0.0,12393.5644531,0.0,-0.87,347.56,347.56,0.0,0.0
1526670495.45429301,91249319,0.0,1.24,0.0,12521.9794922,0.0,-0.89,347.64,347.64,0.0,0.0
1526670495.55425286,91349279,0.0,1.25,0.0,12645.4462891,0.0,-0.93,347.74,347.74,0.0,0.0
1526670495.65421295,91449239,0.0,1.25,0.0,12763.5644531,0.0,-0.96,347.86,347.86,0.0,0.0
1526670495.75417304,91549199,0.0,1.26,0.0,15876.0,0.0,-0.96,347.99,347.99,0.0,0.0
1526670495.85413289,91649159,0.0,1.25,0.0,15794.0410156,0.0,-0.94,348.1,348.1,0.0,0.0
1526670495.95409298,91749119,0.0,1.23,0.0,15572.8759766,0.0,-0.94,348.24,348.24,0.0,0.0
1526670496.05405283,91849079,0.0,1.22,0.0,15410.5507812,0.0,-0.94,348.4,348.4,0.0,0.0
1526670496.15401292,91949039,0.0,1.19,0.0,15177.2480469,0.0,-0.95,348.57,348.57,0.0,0.0
1526670496.25397301,92048999,0.0,1.18,0.0,14937.3925781,0.0,-0.93,348.75,348.75,0.0,0.0
1526670496.35476589,92149792,0.0,1.17,0.0,14762.3291016,0.0,-0.94,348.92,348.92,0.0,0.0
1526670496.45472598,92249752,0.0,1.15,0.0,14587.2011719,0.0,-0.95,349.11,349.11,0.0,0.0
1526670496.55468583,92349712,0.0,1.16,0.0,14425.09375,0.0,-0.99,349.3,349.3,0.0,0.0
1526670496.65464592,92449672,0.0,1.17,0.0,14329.5146484,0.0,-1.0,349.46,349.46,0.0,0.0
1526670496.75460601,92549632,0.0,1.21,0.0,14315.5039062,0.0,-0.99,349.63,349.63,0.0,0.0
1526670496.85456586,92649592,0.0,1.25,0.0,14391.3789062,0.0,-0.99,349.78,349.78,0.0,0.0
1526670496.95452595,92749552,0.0,1.26,0.0,14507.1738281,0.0,-0.96,349.93,349.93,0.0,0.0
1526670497.05448604,92849512,0.0,1.26,0.0,14621.6767578,0.0,-0.93,350.11,350.11,0.0,0.0
1526670497.15444589,92949472,0.0,1.22,0.0,14679.1474609,0.0,-0.87,350.28,350.28,0.0,0.0
1526670497.30271983,93097746,0.0,1.18,0.0,14658.6318359,0.0,-0.85,350.54,350.54,0.0,0.0
1526670497.40267992,93197706,0.0,1.16,0.0,14590.6132812,0.0,-0.86,350.71,350.71,0.0,0.0
1526670497.50264001,93297666,0.0,1.14,0.0,14509.6738281,0.0,-0.86,350.87,350.87,0.0,0.0
1526670497.60259986,93397626,0.0,1.14,0.0,14426.6191406,0.0,-0.87,351.02,351.02,0.0,0.0
1526670497.70255995,93497586,0.0,1.13,0.0,14351.9091797,0.0,-0.88,351.14,351.14,0.0,0.0
1526670497.80252004,93597546,0.0,1.12,0.0,14268.6376953,0.0,-0.89,351.23,351.23,0.0,0.0
1526670497.90247989,93697506,0.0,1.11,0.0,14178.4521484,0.0,-0.92,351.31,351.31,0.0,0.0
1526670498.00243998,93797466,0.0,1.1,0.0,14089.4082031,0.0,-0.95,351.37,351.37,0.0,0.0
1526670498.10239983,93897426,0.0,1.08,0.0,13992.2246094,0.0,-0.97,351.42,351.42,0.0,0.0
1526670498.20235991,93997386,0.0,1.05,0.0,13882.8662109,0.0,-1.0,351.46,351.46,0.0,0.0
1526670498.30232000,94097346,0.0,1.03,0.0,13760.8925781,0.0,-1.04,351.48,351.48,0.0,0.0
1526670498.40227985,94197306,0.0,1.01,0.0,10201.0,0.0,-1.09,351.5,351.5,0.0,0.0
1526670498.50223994,94297266,0.0,0.99,0.0,10004.6328125,0.0,-1.12,351.51,351.51,0.0,0.0
1526670498.60220003,94397226,0.0,0.99,0.0,9913.11230469,0.0,-1.14,351.55,351.55,0.0,0.0
1526670498.70215988,94497186,0.0,1.01,0.0,9906.13183594,0.0,-1.13,351.59,351.59,0.0,0.0
1526670498.80211997,94597146,0.0,1.01,0.0,9975.92285156,0.0,-1.13,351.64,351.64,0.0,0.0
1526670498.90207982,94697106,0.0,1.0,0.0,9999.765625,0.0,-1.15,351.71,351.71,0.0,0.0
1526670499.00203991,94797066,0.0,0.97,0.0,9959.97167969,0.0,-1.14,351.79,351.79,0.0,0.0
1526670499.10200000,94897026,0.0,0.95,0.0,9857.09667969,0.0,-1.14,351.88,351.88,0.0,0.0
1526670499.20195985,94996986,0.0,0.92,0.0,9716.54101562,0.0,-1.13,351.97,351.97,0.0,0.0
1526670499.30191994,95096946,0.0,0.89,0.0,9546.27148438,0.0,-1.15,352.04,352.04,0.0,0.0
1526670499.40271282,95197739,0.0,0.86,0.0,9354.68945312,0.0,-1.17,352.1,352.1,0.0,0.0
1526670499.50267291,95297699,0.0,0.86,0.0,9172.57910156,0.0,-1.2,352.16,352.16,0.0,0.0
1526670499.60263300,95397659,0.0,0.84,0.0,9014.0078125,0.0,-1.21,352.24,352.24,0.0,0.0
1526670499.70259285,95497619,0.0,0.81,0.0,8846.18359375,0.0,-1.23,352.28,352.28,0.0,0.0
1526670499.80255294,95597579,0.0,0.77,0.0,8665.93164062,0.0,-1.22,352.31,352.31,0.0,0.0
1526670499.90251303,95697539,0.0,0.74,0.0,8469.49121094,0.0,-1.22,352.31,352.31,0.0,0.0
1526670500.00247288,95797499,0.0,0.73,0.0,8275.93261719,0.0,-1.21,352.31,352.31,0.0,0.0
1526670500.10243297,95897459,0.0,0.73,0.0,8104.84765625,0.0,-1.18,352.32,352.32,0.0,0.0
1526670500.24987388,96044900,0.0,0.71,0.0,7946.9765625,0.0,-1.16,352.36,352.36,0.0,0.0
1526670500.35066700,96145693,0.0,0.68,0.0,7783.44091797,0.0,-1.14,352.38,352.38,0.0,0.0
1526670500.45062685,96245653,0.0,0.69,0.0,7628.41162109,0.0,-1.12,352.41,352.41,0.0,0.0
1526670500.55058694,96345613,0.0,0.73,0.0,7505.75488281,0.0,-1.11,352.44,352.44,0.0,0.0
1526670503.29865384,99093680,0.0,0.83,0.0,7734.96191406,0.0,-1.1,352.31,352.31,0.0,0.0
1526670503.39861393,99193640,0.0,0.82,0.0,7694.98486328,0.0,-1.08,352.31,352.31,0.0,0.0
1526670503.49857402,99293600,0.0,0.8,0.0,7648.85742188,0.0,-1.07,352.35,352.35,0.0,0.0
1526670503.59853387,99393560,0.0,0.78,0.0,7593.69384766,0.0,-1.04,352.38,352.38,0.0,0.0
1526670503.69849396,99493520,0.0,0.75,0.0,5625.0,0.0,-1.01,352.4,352.4,0.0,0.0
1526670503.79845405,99593480,0.0,0.73,0.0,5497.3671875,0.0,-1.0,352.42,352.42,0.0,0.0
1526670503.89841390,99693440,0.0,0.71,0.0,5364.89892578,0.0,-1.01,352.44,352.44,0.0,0.0
1526670503.99837399,99793400,0.0,0.7,0.0,5240.41845703,0.0,-1.03,352.46,352.46,0.0,0.0
1526670504.09833384,99893360,0.0,0.68,0.0,5144.24267578,0.0,-1.07,352.48,352.48,0.0,0.0
1526670504.19829392,99993320,0.0,0.68,0.0,5044.67480469,0.0,-1.1,352.54,352.54,0.0,0.02
1526670504.29825401,100093280,0.0,0.66,0.0,4952.20458984,0.0,-1.12,352.65,352.65,0.0,0.07
1526670504.39821386,100193240,0.0,0.65,0.0,4856.99316406,0.0,-1.12,352.77,352.77,0.0,0.07
1526670504.49817395,100293200,0.0,0.66,0.0,4787.32226562,0.0,-1.12,352.88,352.88,0.0,0.07
1526670504.59813404,100393160,0.0,0.69,0.0,4754.33886719,0.0,-1.11,352.98,352.98,0.0,0.07
1526670504.69809389,100493120,0.0,0.74,0.0,4780.16113281,0.0,-1.11,353.06,353.06,0.0,0.07
1526670504.79805398,100593080,0.0,0.79,0.0,4873.46337891,0.0,-1.12,353.12,353.12,0.0,0.06
1526670504.89801383,100693040,0.0,0.83,0.0,5011.30078125,0.0,-1.11,353.17,353.17,0.0,0.06
1526670504.99797392,100793000,0.0,0.86,0.0,5171.09277344,0.0,-1.1,353.22,353.22,0.0,0.06
1526670505.09793401,100892960,0.0,0.93,0.0,5375.38476562,0.0,-1.11,353.29,353.29,0.0,0.06
1526670505.19789386,100992920,0.0,0.97,0.0,5623.63720703,0.0,-1.12,353.36,353.36,0.0,0.06
1526670505.29785395,101092880,0.0,0.99,0.0,5866.26171875,0.0,-1.14,353.43,353.43,0.0,0.06
1526670505.39864683,101193673,0.0,1.01,0.0,6104.83154297,0.0,-1.15,353.49,353.49,0.0,0.04
1526670505.49860692,101293633,0.0,1.01,0.0,6329.58691406,0.0,-1.16,353.54,353.54,0.0,0.01
1526670505.59856701,101393593,0.0,1.03,0.0,6539.69042969,0.0,-1.19,353.6,353.6,0.0,0.01
1526670505.69852686,101493553,0.0,1.03,0.0,6740.89257812,0.0,-1.22,353.63,353.63,0.0,0.01
1526670505.79848695,101593513,0.0,1.04,0.0,6931.18115234,0.0,-1.25,353.67,353.67,0.0,0.01
1526670505.89844704,101693473,0.0,1.02,0.0,7095.52099609,0.0,-1.27,353.73,353.73,0.0,0.01
1526670505.99840689,101793433,0.0,1.01,0.0,7229.67041016,0.0,-1.29,353.8,353.8,0.0,0.01
1526670506.09836698,101893393,0.0,1.0,0.0,7350.04443359,0.0,-1.31,353.87,353.87,0.0,0.01
1526670506.24830699,102043333,0.0,0.98,0.0,7451.31787109,0.0,-1.34,353.98,353.98,0.0,0.01
1526670506.34909987,102144126,0.0,0.96,0.0,9216.0,0.0,-1.37,354.06,354.06,0.0,0.01
1526670506.44905996,102244086,0.0,0.95,0.0,9112.86035156,0.0,-1.39,354.14,354.14,0.0,0.01
1526670506.54902005,102344046,0.0,0.95,0.0,9027.61132812,0.0,-1.4,354.21,354.21,0.0,0.01
1526670506.64897990,102444006,0.0,0.97,0.0,9060.61523438,0.0,-1.43,354.26,354.26,0.0,0.01
1526670506.74893999,102543966,0.0,1.0,0.0,9196.77050781,0.0,-1.43,354.29,354.29,0.0,0.01
1526670506.84889984,102643926,0.0,1.02,0.0,9390.09082031,0.0,-1.43,354.36,354.36,0.0,0.01
1526670506.94885993,102743886,0.0,1.04,0.0,9576.97167969,0.0,-1.41,354.47,354.47,0.0,0.01
1526670507.04882002,102843846,0.0,1.06,0.0,9782.57617188,0.0,-1.4,354.56,354.56,0.0,0.01
1526670507.14877987,102943806,0.0,1.08,0.0,9983.95800781,0.0,-1.39,354.64,354.64,0.0,0.01
1526670507.24873996,103043766,0.0,1.09,0.0,10180.2460938,0.0,-1.38,354.73,354.73,0.0,0.01
1526670507.34870005,103143726,0.0,1.12,0.0,10363.8583984,0.0,-1.38,354.84,354.84,0.0,0.01
1526670507.44865990,103243686,0.0,1.14,0.0,10575.6884766,0.0,-1.39,354.95,354.95,0.0,0.01
1526670507.54861999,103343646,0.0,1.16,0.0,10792.0126953,0.0,-1.39,355.05,355.05,0.0,0.01
1526670507.64857984,103443606,0.0,1.18,0.0,11015.9814453,0.0,-1.36,355.14,355.14,0.0,0.01
1526670507.74853992,103543566,0.0,1.2,0.0,11239.2070312,0.0,-1.33,355.23,355.23,0.0,0.01
1526670507.84850001,103643526,0.0,1.21,0.0,11452.3984375,0.0,-1.3,355.32,355.32,0.0,0.01
1526670507.94845986,103743486,0.0,1.23,0.0,11656.4765625,0.0,-1.26,355.42,355.42,0.0,0.01
1526670508.04841995,103843446,0.0,1.25,0.0,11870.6894531,0.0,-1.24,355.51,355.51,0.0,0.01
1526670508.14838004,103943406,0.0,1.27,0.0,12085.0039062,0.0,-1.22,355.57,355.57,0.0,0.01
1526670508.24833989,104043366,0.0,1.29,0.0,12304.3671875,0.0,-1.21,355.63,355.63,0.0,0.01
1526670508.34913301,104144159,0.0,1.32,0.0,12534.8886719,0.0,-1.22,355.69,355.69,0.0,0.01
1526670508.44909286,104244119,0.0,1.33,0.0,12774.0058594,0.0,-1.22,355.75,355.75,0.0,0.01
1526670508.54905295,104344079,0.0,1.31,0.0,12988.3603516,0.0,-1.23,355.8,355.8,0.0,0.01
1526670508.64901304,104444039,0.0,1.27,0.0,13146.6445312,0.0,-1.24,355.85,355.85,0.0,0.01
1526670508.74897289,104543999,0.0,1.22,0.0,13243.0185547,0.0,-1.24,355.91,355.91,0.0,0.01
1526670508.84893298,104643959,0.0,1.18,0.0,13288.8847656,0.0,-1.23,355.97,355.97,0.0,0.01
1526670508.94889283,104743919,0.0,1.16,0.0,13665.7001953,0.0,-1.23,356.02,356.02,0.0,0.01
1526670509.04885292,104843879,0.0,1.16,0.0,13497.9404297,0.0,-1.23,356.1,356.1,0.0,0.01
1526670509.14881301,104943839,0.0,1.14,0.0,13399.8886719,0.0,-1.2,356.19,356.19,0.0,0.01
1526670509.29708695,105092113,0.0,1.12,0.0,13211.1308594,0.0,-1.15,356.3,356.3,0.0,0.01
1526670509.39704704,105192073,0.0,1.08,0.0,12953.90625,0.0,-1.12,356.37,356.37,0.0,0.0
1526670509.49700689,105292033,0.0,1.06,0.0,12664.2998047,0.0,-1.08,356.44,356.44,0.0,0.0
1526670509.59696698,105391993,0.0,1.04,0.0,12403.7802734,0.0,-1.07,356.5,356.5,0.0,0.0
1526670509.69692683,105491953,0.0,1.0,0.0,12132.2998047,0.0,-1.08,356.57,356.57,0.0,0.0
1526670509.79688692,105591913,0.0,1.0,0.0,11873.8398438,0.0,-1.09,356.65,356.65,0.0,0.0
1526670509.89684701,105691873,0.0,1.0,0.0,11671.2617188,0.0,-1.09,356.7,356.7,0.0,0.0
1526670509.99680686,105791833,0.0,0.99,0.0,11492.6806641,0.0,-1.11,356.78,356.78,0.0,0.0
1526670510.09676695,105891793,0.0,1.0,0.0,11353.8066406,0.0,-1.14,356.87,356.87,0.0,0.0
1526670510.19672704,105991753,0.0,1.02,0.0,11258.9042969,0.0,-1.16,356.97,356.97,0.0,0.0
1526670510.29668689,106091713,0.0,1.03,0.0,11197.4775391,0.0,-1.2,357.05,357.05,0.0,0.0
1526670510.39664698,106191673,0.0,1.03,0.0,11156.1806641,0.0,-1.21,357.11,357.11,0.0,0.0
1526670510.49660683,106291633,0.0,1.01,0.0,11103.5429688,0.0,-1.2,357.17,357.17,0.0,0.0
1526670510.59656692,106391593,0.0,1.01,0.0,11048.0019531,0.0,-1.2,357.22,357.22,0.0,0.0
1526670510.69652700,106491553,0.0,1.01,0.0,11003.6074219,0.0,-1.2,357.27,357.27,0.0,0.0
1526670510.79648685,106591513,0.0,1.0,0.0,10953.0205078,0.0,-1.19,357.32,357.32,0.0,0.0
1526670510.89644694,106691473,0.0,1.0,0.0,10906.3847656,0.0,-1.17,357.34,357.34,0.0,0.0
1526670510.99640703,106791433,0.0,1.0,0.0,10861.625,0.0,-1.15,357.34,357.34,0.0,0.0
1526670511.09636688,106891393,0.0,0.97,0.0,10810.3623047,0.0,-1.13,357.34,357.34,0.0,0.0
1526670511.19632697,106991353,0.0,0.93,0.0,10732.3144531,0.0,-1.1,357.34,357.34,0.0,0.0
1526670511.29628682,107091313,0.0,0.9,0.0,10630.0664062,0.0,-1.07,357.34,357.34,0.0,0.0
1526670511.39707994,107192106,0.0,0.88,0.0,10514.7089844,0.0,-1.03,357.34,357.34,0.0,0.0
1526670511.49704003,107292066,0.0,0.87,0.0,10404.4580078,0.0,-1.01,357.33,357.33,0.0,0.0
1526670511.59699988,107392026,0.0,0.88,0.0,7621.5,0.0,-0.98,357.34,357.34,0.0,0.0
1526670511.69695997,107491986,0.0,0.89,0.0,7765.52001953,0.0,-0.95,357.34,357.34,0.0,0.0
1526670511.79691982,107591946,0.0,0.9,0.0,7908.2109375,0.0,-0.93,357.35,357.35,0.0,0.0
1526670511.89687991,107691906,0.0,0.89,0.0,7950.70019531,0.0,-0.91,357.38,357.38,0.0,0.0
1526670511.99684000,107791866,0.0,0.88,0.0,7908.31152344,0.0,-0.9,357.41,357.41,0.0,0.0
1526670512.09679985,107891826,0.0,0.87,0.0,7847.01416016,0.0,-0.9,357.45,357.45,0.0,0.0
1526670512.24673986,108041766,0.0,0.88,0.0,7802.29882812,0.0,-0.89,357.5,357.5,0.0,0.0
1526670512.34753299,108142559,0.0,0.88,0.0,7801.58398438,0.0,-0.9,357.54,357.54,0.0,0.0
1526670512.44749284,108242519,0.0,0.85,0.0,7766.20263672,0.0,-0.91,357.58,357.58,0.0,0.0
1526670512.54745293,108342479,0.0,0.84,0.0,7702.38525391,0.0,-0.93,357.63,357.63,0.0,0.0
1526670512.64741302,108442439,0.0,0.82,0.0,7620.04150391,0.0,-0.95,357.69,357.69,0.0,0.0
1526670512.74737287,108542399,0.0,0.78,0.0,7509.45019531,0.0,-0.94,357.74,357.74,0.0,0.0
1526670515.29551983,111090546,0.0,0.61,0.0,3534.16552734,0.0,-0.84,358.05,358.05,0.0,0.0
1526670515.39547992,111190506,0.0,0.61,0.0,3550.73608398,0.0,-0.84,358.03,358.03,0.0,0.0
1526670515.49544001,111290466,0.0,0.59,0.0,3554.06713867,0.0,-0.83,358.0,358.0,0.0,0.0
1526670515.59539986,111390426,0.0,0.58,0.0,3540.19018555,0.0,-0.84,357.94,357.94,0.0,0.0
1526670515.69535995,111490386,0.0,0.57,0.0,3524.02099609,0.0,-0.84,357.88,357.88,0.0,0.0
1526670515.79532003,111590346,0.0,0.56,0.0,3503.42724609,0.0,-0.85,357.82,357.82,0.0,0.0
1526670515.89527988,111690306,0.0,0.53,0.0,3473.90332031,0.0,-0.85,357.76,357.76,0.0,0.0
1526670515.99523997,111790266,0.0,0.49,0.0,3424.19384766,0.0,-0.85,357.71,357.71,0.0,0.0
1526670516.09519982,111890226,0.0,0.49,0.0,3366.61279297,0.0,-0.86,357.65,357.65,0.0,0.0
1526670516.19515991,111990186,0.0,0.5,0.0,3319.21264648,0.0,-0.87,357.59,357.59,0.0,0.0
1526670516.29512000,112090146,0.0,0.52,0.0,3283.91625977,0.0,-0.87,357.5,357.5,0.0,0.0
