timestamp,TimeUS,DesR,R,IR,IRErr,DesP,P,DesY,Y,ErrRP,ErrYaw
1526670935.76067400,29073366,0.0,1.02,0.0,9363.48632812,0.0,0.4,355.35,355.35,0.0,0.0
1526670935.86146712,29174159,0.0,1.03,0.0,9475.99316406,0.0,0.42,353.25,353.25,0.0,0.0
1526670935.96142697,29274119,0.0,1.03,0.0,9570.21386719,0.0,0.45,353.15,353.15,0.0,0.0
1526670936.06138706,29374079,0.0,1.05,0.0,9660.71777344,0.0,0.46,353.03,353.03,0.0,0.0
1526670936.16134715,29474039,0.0,1.08,0.0,9781.81640625,0.0,0.47,352.96,352.96,0.0,0.0
1526670936.26130700,29573999,0.0,1.11,0.0,9928.87011719,0.0,0.46,352.89,352.89,0.0,0.0
1526670936.36126709,29673959,0.0,1.15,0.0,10107.5898438,0.0,0.46,352.82,352.82,0.0,0.0
1526670936.46122718,29773919,0.0,1.18,0.0,10310.4541016,0.0,0.46,352.73,352.73,0.0,0.0
1526670936.56118703,29873879,0.0,1.2,0.0,10522.7890625,0.0,0.47,352.63,352.63,0.0,0.0
1526670936.66114712,29973839,0.0,1.22,0.0,10740.5527344,0.0,0.48,352.53,352.53,0.0,0.0
1526670936.76110697,30073799,0.0,1.23,0.0,10956.6425781,0.0,0.49,352.42,352.42,0.0,0.0
1526670936.86106706,30173759,0.0,1.26,0.0,11170.4248047,0.0,0.49,352.31,352.31,0.0,0.0
1526670936.96102715,30273719,0.0,1.28,0.0,11394.4238281,0.0,0.48,352.22,352.22,0.0,0.0
1526670937.06098700,30373679,0.0,1.29,0.0,11619.7763672,0.0,0.48,352.15,352.15,0.0,0.0
1526670937.16094708,30473639,0.0,1.28,0.0,11820.7529297,0.0,0.45,352.07,352.07,0.0,0.0
1526670937.26090717,30573599,0.0,1.28,0.0,12003.1005859,0.0,0.44,352.0,352.0,0.0,0.0
1526670937.36086702,30673559,0.0,1.3,0.0,16900.0,0.0,0.43,351.92,351.92,0.0,0.0
1526670937.46082711,30773519,0.0,1.31,0.0,16950.9277344,0.0,0.42,351.86,351.86,0.0,0.0
1526670937.56078696,30873479,0.0,1.31,0.0,17054.6660156,0.0,0.43,351.83,351.83,0.0,0.0
1526670937.66074705,30973439,0.0,1.32,0.0,17131.1152344,0.0,0.44,351.81,351.81,0.0,0.0
1526670937.76070714,31073399,0.0,1.32,0.0,17203.8828125,0.0,0.46,351.8,351.8,0.0,0.0
1526670937.86150002,31174192,0.0,1.33,0.0,17254.2792969,0.0,0.47,351.78,351.78,0.0,0.0
1526670937.96146011,31274152,0.0,1.34,0.0,17340.8339844,0.0,0.47,351.78,351.78,0.0,0.0
1526670938.06141996,31374112,0.0,1.34,0.0,17428.4023438,0.0,0.47,351.79,351.79,0.0,0.0
1526670938.16138005,31474072,0.0,1.34,0.0,17494.1464844,0.0,0.46,351.85,351.85,0.0,0.0
1526670938.26134014,31574032,0.0,1.33,0.0,17538.6640625,0.0,0.43,351.92,351.92,0.0,0.0
1526670938.36129999,31673992,0.0,1.31,0.0,17532.5292969,0.0,0.4,351.98,351.98,0.0,0.0
1526670938.46126008,31773952,0.0,1.3,0.0,17495.8710938,0.0,0.38,352.06,352.06,0.0,0.0
1526670938.56122017,31873912,0.0,1.27,0.0,17423.7988281,0.0,0.37,352.13,352.13,0.0,0.0
1526670938.66118002,31973872,0.0,1.22,0.0,17275.8203125,0.0,0.38,352.22,352.22,0.0,0.0
1526670938.76114011,32073832,0.0,1.17,0.0,17060.6640625,0.0,0.38,352.3,352.3,0.0,0.0
1526670938.86109996,32173792,0.0,1.17,0.0,16836.2597656,0.0,0.39,352.38,352.38,0.0,0.0
1526670938.96106005,32273752,0.0,1.16,0.0,16633.6835938,0.0,0.39,352.49,352.49,0.0,0.0
1526670939.06102014,32373712,0.0,1.14,0.0,16434.5019531,0.0,0.39,352.62,352.62,0.0,0.0
1526670939.16097999,32473672,0.0,1.12,0.0,16229.921875,0.0,0.37,352.74,352.74,0.0,0.0
1526670939.26094007,32573632,0.0,1.12,0.0,16036.1816406,0.0,0.35,352.85,352.85,0.0,0.0
1526670939.36090016,32673592,0.0,1.12,0.0,15861.7900391,0.0,0.33,352.95,352.95,0.0,0.0
1526670939.46086001,32773552,0.0,1.13,0.0,15705.8613281,0.0,0.32,353.05,353.05,0.0,0.0
1526670939.56082010,32873512,0.0,1.15,0.0,15581.0439453,0.0,0.33,353.16,353.16,0.0,0.0
1526670939.66078019,32973472,0.0,1.19,0.0,15501.7314453,0.0,0.31,353.27,353.27,0.0,0.0
1526670939.76074004,33073432,0.0,1.21,0.0,15456.6455078,0.0,0.29,353.37,353.37,0.0,0.0
1526670939.86070013,33173392,0.0,1.22,0.0,15430.1210938,0.0,0.27,353.46,353.46,0.0,0.0
1526670939.96149302,33274185,0.0,1.23,0.0,15129.0,0.0,0.26,353.54,353.54,0.0,0.0
1526670940.06145310,33374145,0.0,1.23,0.0,15129.0,0.0,0.26,353.63,353.63,0.0,0.0
1526670940.16141295,33474105,0.0,1.22,0.0,15008.0126953,0.0,0.25,353.75,353.75,0.0,0.0
1526670940.26137304,33574065,0.0,1.2,0.0,14892.8925781,0.0,0.24,353.88,353.88,0.0,0.0
1526670940.36133313,33674025,0.0,1.17,0.0,14670.0244141,0.0,0.21,354.01,354.01,0.0,0.0
1526670940.46129298,33773985,0.0,1.15,0.0,14414.6464844,0.0,0.18,354.16,354.16,0.0,0.0
1526670940.56125307,33873945,0.0,1.14,0.0,14189.6386719,0.0,0.16,354.29,354.29,0.0,0.0
1526670940.66121316,33973905,0.0,1.14,0.0,14019.7255859,0.0,0.12,354.43,354.43,0.0,0.0
1526670940.76117301,34073865,-0.09,0.89,0.0,13630.3876953,-0.09,-0.02,354.45,354.55,0.0,0.0
1526670940.86113310,34173825,-0.27,0.54,-0.03,12709.2382812,-0.09,-0.16,354.45,354.61,0.0,0.01
1526670940.96109319,34273785,-0.38,0.25,-0.11,11655.9287109,-0.08,-0.24,354.45,354.65,0.0,0.01
1526670941.06105304,34373745,-0.5,0.03,-0.21,10677.6894531,-0.14,-0.29,354.45,354.66,0.0,0.01
1526670941.16101313,34473705,-0.58,-0.15,-0.33,9827.27734375,-0.16,-0.3,354.45,354.66,0.0,0.0
1526670941.26097298,34573665,-0.64,-0.3,-0.44,9093.8046875,-0.17,-0.31,354.45,354.63,0.0,0.0
1526670941.36093307,34673625,-0.63,-0.39,-0.55,8462.30078125,-0.16,-0.29,354.45,354.57,0.0,0.0
1526670941.46089315,34773585,-0.59,-0.5,-0.61,7913.28955078,-0.16,-0.28,354.45,354.49,0.0,0.0
1526670941.56085300,34873545,-0.52,-0.56,-0.64,7425.58496094,-0.13,-0.26,354.45,354.36,0.0,0.0
1526670941.66081309,34973505,-0.48,-0.56,-0.63,6992.53466797,-0.04,-0.25,354.45,354.22,0.0,0.0
1526670941.76077318,35073465,-0.42,-0.58,-0.59,6606.20507812,0.03,-0.2,354.45,354.07,0.0,0.0
1526670941.86073303,35173425,-0.38,-0.6,-0.53,6259.65087891,0.08,-0.16,354.45,353.96,0.0,0.0
1526670941.96069312,35273385,-0.27,-0.58,-0.45,5951.49267578,0.1,-0.1,354.45,353.8,0.0,0.0
1526670942.06148601,35374178,-0.19,-0.56,-0.37,5680.54736328,0.09,0.02,354.45,353.74,0.0,0.0
1526670942.16144609,35474138,-0.09,-0.54,-0.27,5446.17480469,0.06,0.13,354.45,353.81,0.0,0.0
1526670942.26140618,35574098,-0.05,-0.44,-0.17,5242.05810547,0.03,0.23,354.45,353.96,0.0,0.0
1526670942.36136603,35674058,0.0,-0.32,-0.09,5048.67138672,-0.02,0.33,354.45,354.2,0.0,0.0
1526670942.46132612,35774018,0.0,-0.13,-0.02,4858.98486328,-0.14,0.39,354.45,354.45,0.0,0.0
1526670942.56128597,35873978,0.0,-0.01,0.02,10.1767244339,-0.29,0.35,354.45,354.67,0.0,0.0
1526670942.66124606,35973938,-0.01,0.06,0.04,3.66963720322,-0.39,0.27,354.45,354.84,0.0,0.0
1526670942.76120615,36073898,-0.06,0.18,0.04,34.9111976624,-0.51,0.11,354.45,354.98,0.0,0.0
1526670942.86116600,36173858,-0.2,0.23,0.01,130.322723389,-0.58,-0.09,354.45,355.05,0.0,0.0
1526670942.96112609,36273818,-0.35,0.22,-0.06,261.211730957,-0.6,-0.34,354.45,355.05,0.0,0.0
1526670943.06108618,36373778,-0.53,0.14,-0.17,394.802093506,-0.57,-0.6,354.45,355.0,0.0,0.0
1526670943.16104603,36473738,-0.66,-0.06,-0.32,472.355682373,-0.51,-0.74,354.45,354.89,0.0,0.01
1526670943.26100612,36573698,-0.74,-0.29,-0.47,472.356201172,-0.39,-0.75,354.45,354.74,0.0,0.01
1526670943.36096597,36673658,-0.78,-0.49,-0.61,447.421875,-0.25,-0.77,354.45,354.58,0.0,0.01
1526670943.46092606,36773618,-0.73,-0.72,-0.72,404.58694458,-0.08,-0.74,356.29,356.25,0.0,0.01
1526670943.56088614,36873578,-0.56,-0.91,-0.78,369.423126221,0.08,-0.6,356.29,356.11,0.0,0.01
1526670943.66084599,36973538,-0.34,-0.98,-0.75,365.418426514,0.24,-0.37,356.29,356.01,0.0,0.0
1526670943.76080608,37073498,-0.08,-0.96,-0.64,401.81451416,0.4,-0.05,356.29,355.94,0.0,0.0
1526670943.86076617,37173458,0.14,-0.79,-0.45,448.654388428,0.46,0.2,356.29,355.85,0.0,0.0
1526670943.96072602,37273418,0.36,-0.6,-0.22,504.945617676,0.48,0.44,356.29,355.83,0.0,0.0
1526670944.06068611,37373378,0.55,-0.38,0.02,578.604370117,0.43,0.62,356.29,355.86,0.0,0.0
1526670944.16147900,37474171,0.66,-0.04,0.27,625.145263672,0.35,0.78,356.29,355.87,0.0,0.0
1526670944.26143909,37574131,0.74,0.23,0.5,643.286987305,0.24,0.8,356.29,355.95,0.0,0.0
1526670944.36139917,37674091,0.82,0.45,0.68,642.625244141,0.09,0.69,356.29,356.02,0.0,0.0
1526670944.46135902,37774051,0.83,0.64,0.81,632.082580566,-0.02,0.58,299.43,356.13,0.0,0.0
1526670944.56131911,37874011,0.79,0.82,0.88,608.954772949,-0.1,0.41,299.43,355.97,0.0,0.0
1526670944.66127896,37973971,-0.33,0.96,0.82,582.028625488,-0.85,0.11,299.43,354.92,0.0,0.01
1526670944.76123905,38073931,-1.83,0.74,0.36,587.317016602,-1.88,-0.51,299.43,353.11,0.0,0.02
1526670944.86119914,38173891,-3.18,0.14,-0.45,671.143127441,-2.89,-1.43,299.43,350.71,0.0,0.04
1526670944.96115899,38273851,-4.38,-0.82,-1.55,833.65435791,-3.93,-2.54,299.43,348.01,0.0,0.05
1526670945.06111908,38373811,-5.39,-1.97,-2.81,1054.3013916,-4.98,-3.64,299.43,345.0,0.0,0.06
1526670945.16107917,38473771,-5.91,-3.18,-4.06,7892.58837891,-5.73,-4.65,299.43,341.77,0.0,0.07
1526670945.26103902,38573731,-6.02,-4.21,-5.13,8124.83691406,-6.25,-5.45,299.43,338.42,0.0,0.07
1526670945.36099911,38673691,-5.86,-4.98,-5.89,8389.2578125,-6.71,-6.14,299.43,334.93,0.0,0.06
1526670945.46095896,38773651,-5.47,-5.5,-6.29,8059.04296875,-7.16,-6.64,299.43,331.38,0.0,0.06
1526670945.56091905,38873611,-4.88,-5.7,-6.3,7295.03417969,-7.58,-7.03,299.43,327.69,0.0,0.05
1526670945.66087914,38973571,-4.13,-5.68,-5.96,6252.52197266,-7.96,-7.31,299.43,323.97,0.0,0.05
1526670945.76083899,39073531,-3.16,-5.38,-5.3,5249.86083984,-8.04,-7.46,299.43,320.19,0.0,0.04
1526670945.86079907,39173491,-2.23,-4.83,-4.4,4617.59326172,-7.93,-7.44,299.43,317.81,0.0,0.03
1526670945.96075916,39273451,-1.16,-4.07,-3.33,4484.27050781,-7.88,-7.36,299.43,314.01,0.0,0.03
1526670946.06071901,39373411,-0.2,-3.11,-2.18,4773.11621094,-8.11,-7.23,299.43,310.16,0.0,0.02
1526670946.16067910,39473371,0.69,-1.96,-1.02,5193.68310547,-8.47,-7.18,299.43,306.3,0.0,0.02
1526670946.26147199,39574164,1.51,-0.67,0.07,5380.52001953,-8.89,-7.29,299.43,302.56,0.0,0.02
1526670946.36143208,39674124,2.18,0.63,1.08,5240.99560547,-9.3,-7.56,299.43,299.27,0.0,0.02
1526670946.46139216,39774084,2.59,1.78,1.92,4910.84082031,-9.76,-7.92,299.43,296.71,0.0,0.02
1526670946.56135201,39874044,2.77,2.7,2.55,4565.62744141,-10.23,-8.35,299.43,294.93,0.0,0.01
1526670946.66131210,39974004,2.69,3.35,2.94,4317.74853516,-10.71,-8.92,299.43,294.0,0.0,0.01
1526670946.76127219,40073964,2.4,3.65,3.08,4203.97851562,-11.16,-9.61,299.43,293.73,0.0,0.01
1526670946.86123204,40173924,1.92,3.61,2.96,4178.54589844,-11.56,-10.27,299.43,294.11,0.0,0.01
1526670946.96119213,40273884,1.31,3.29,2.6,4197.47509766,-11.93,-10.87,299.43,295.02,0.0,0.01
1526670947.06115198,40373844,0.67,2.75,2.05,4230.93066406,-12.26,-11.46,299.43,296.18,0.0,0.01
1526670947.16111207,40473804,0.09,2.06,1.38,4254.3515625,-12.53,-12.01,299.43,297.37,0.0,0.01
1526670947.26107216,40573764,-0.41,1.29,0.66,4255.70947266,-12.73,-12.44,299.43,298.52,0.0,0.01
1526670947.36103201,40673724,-0.83,0.52,-0.04,4223.81689453,-12.9,-12.75,299.43,299.52,0.0,0.01
1526670947.46099210,40773684,-1.11,-0.16,-0.67,4163.56445312,-13.03,-12.94,299.43,300.31,0.0,0.01
1526670947.56095219,40873644,-1.24,-0.76,-1.17,4080.12719727,-12.99,-13.09,299.43,300.86,0.0,0.01
1526670947.66091204,40973604,-1.19,-1.28,-1.5,3959.79272461,-12.87,-13.16,299.43,301.15,0.0,0.01
1526670947.76087213,41073564,-1.02,-1.59,-1.65,40.8225364685,-12.74,-13.09,299.43,301.16,0.0,0.01
1526670947.86083198,41173524,-0.73,-1.7,-1.61,19.7187519073,-12.61,-12.94,299.43,301.01,0.0,0.0
1526670947.96079206,41273484,-0.38,-1.6,-1.41,101.399208069,-12.5,-12.73,299.43,300.73,0.0,0.0
1526670948.06075215,41373444,-0.03,-1.32,-1.08,226.972106934,-12.48,-12.47,299.43,300.36,0.0,0.0
1526670948.16071200,41473404,0.3,-0.93,-0.66,336.423950195,-12.49,-12.33,299.43,299.93,0.0,0.0
1526670948.26150513,41574197,0.59,-0.43,-0.22,380.913818359,-12.57,-12.23,299.43,299.5,0.0,0.0
1526670948.36146498,41674157,0.81,0.0,0.21,389.772155762,-12.69,-12.23,299.43,299.11,0.0,0.0
1526670948.46142507,41774117,1.01,0.42,0.6,390.569915771,-12.86,-12.31,299.43,298.75,0.0,0.0
1526670948.56138515,41874077,1.14,0.84,0.92,364.75793457,-13.02,-12.46,299.43,298.45,0.0,0.0
1526670948.66134501,41974037,1.21,1.15,1.16,327.005371094,-13.18,-12.67,299.43,298.31,0.0,0.0
1526670948.76130509,42073997,1.19,1.33,1.3,294.580932617,-13.35,-12.88,299.43,298.31,0.0,0.0
1526670948.86126518,42173957,1.08,1.43,1.35,269.931304932,-13.48,-13.06,299.43,298.42,0.0,0.0
1526670948.96122503,42273917,0.94,1.45,1.31,257.245117188,-13.64,-13.23,299.43,298.57,0.0,0.0
1526670949.06118512,42373877,0.77,1.36,1.2,252.825042725,-13.79,-13.44,299.43,298.74,0.0,0.01
1526670949.16114497,42473837,0.61,1.24,1.02,258.940429688,-13.89,-13.64,299.43,298.92,0.0,0.01
1526670949.26110506,42573797,0.46,1.1,0.82,281.721801758,-13.83,-13.79,299.43,299.04,0.0,0.01
1526670949.36106515,42673757,0.35,0.92,0.61,318.014129639,-13.67,-13.89,299.43,299.16,0.0,0.01
1526670949.46102500,42773717,0.29,0.69,0.42,348.81628418,-13.46,-13.94,299.43,299.25,0.0,0.01
1526670949.56098509,42873677,0.26,0.43,0.27,355.682830811,-13.23,-13.91,299.43,299.36,0.0,0.0
1526670949.66094518,42973637,0.22,0.16,0.16,341.39932251,-12.99,-13.83,299.43,299.52,0.0,0.0
1526670949.76090503,43073597,0.22,-0.06,0.09,329.048492432,-12.74,-13.61,299.43,299.64,0.0,0.0
1526670949.86086512,43173557,0.29,-0.18,0.07,334.889892578,-12.5,-13.29,299.43,299.64,0.0,0.0
1526670949.96082497,43273517,0.4,-0.21,0.1,357.106872559,-12.28,-12.97,299.43,299.53,0.0,0.0
1526670950.06078506,43373477,0.52,-0.11,0.18,384.60256958,-12.05,-12.62,299.43,299.38,0.0,0.0
1526670950.16074514,43473437,0.65,0.03,0.3,400.297485352,-11.86,-12.35,299.43,299.26,0.0,0.0
1526670950.26070499,43573397,0.76,0.16,0.43,415.096008301,-11.69,-12.14,299.43,299.2,0.0,0.0
1526670950.36149812,43674190,0.85,0.3,0.58,824.645202637,-11.54,-11.95,299.43,299.2,0.0,0.0
1526670950.46145797,43774150,0.92,0.42,0.72,891.504638672,-11.36,-11.8,299.43,299.27,0.0,0.0
1526670950.56141806,43874110,0.95,0.49,0.85,991.122131348,-11.17,-11.67,299.43,299.45,0.0,0.0
1526670950.66137815,43974070,0.96,0.49,0.94,1203.94030762,-10.97,-11.43,299.43,299.62,0.0,0.0
1526670950.76133800,44074030,0.97,0.56,0.99,1406.06506348,-10.75,-11.22,299.43,299.77,0.0,0.0
1526670950.86129808,44173990,0.98,0.59,1.02,1526.56066895,-10.47,-11.03,299.43,299.84,0.0,0.0
1526670950.96125817,44273950,0.99,0.65,1.03,1560.57421875,-10.2,-10.83,299.43,299.86,0.0,0.0
1526670951.06121802,44373910,0.97,0.69,1.03,1529.59680176,-9.88,-10.63,299.43,299.9,0.0,0.0
1526670951.16117811,44473870,0.96,0.7,1.01,1466.79724121,-9.51,-10.39,299.43,299.87,0.0,0.0
1526670951.26113796,44573830,0.94,0.67,0.98,1412.72546387,-9.14,-10.06,299.43,299.8,0.0,0.0
1526670951.36109805,44673790,0.94,0.7,0.96,1354.42248535,-8.72,-9.71,299.43,299.64,0.0,0.0
1526670951.46105814,44773750,0.96,0.73,0.93,1281.54907227,-8.33,-9.35,299.43,299.44,0.0,0.0
1526670951.56101799,44873710,0.99,0.77,0.93,1202.48730469,-7.65,-8.99,299.43,299.25,0.0,0.0
1526670951.66097808,44973670,1.01,0.8,0.93,1126.28027344,-7.27,-8.53,299.43,299.13,0.0,0.0
1526670951.76093817,45073630,1.05,0.87,0.95,1054.43884277,-6.99,-8.02,299.43,298.96,0.0,0.0
1526670951.86089802,45173590,1.02,0.95,0.97,985.84954834,-6.73,-7.59,299.43,298.83,0.0,0.0
1526670951.96085811,45273550,0.97,1.04,0.98,924.641479492,-6.51,-7.26,299.43,298.74,0.0,0.0
1526670952.06081796,45373510,0.9,1.16,0.98,878.511169434,-6.3,-6.99,299.43,298.69,0.0,0.0
1526670952.16077805,45473470,0.83,1.2,0.96,854.866149902,-6.05,-6.76,299.43,298.66,0.0,0.0
1526670952.26073813,45573430,0.74,1.17,0.91,841.931091309,-5.81,-6.52,299.43,298.76,0.0,0.0
1526670952.36069798,45673390,0.66,1.07,0.85,827.503173828,-5.56,-6.28,299.43,298.84,0.0,0.0
1526670952.46149111,45774183,0.58,0.96,0.78,805.631469727,-5.27,-6.03,299.43,298.91,0.0,0.0
1526670952.56145096,45874143,0.51,0.81,0.69,779.88848877,-4.94,-5.8,299.43,299.05,0.0,0.0
1526670952.66141105,45974103,0.42,0.7,0.61,750.318786621,-4.56,-5.5,299.43,299.24,0.0,0.0
1526670952.76137114,46074063,0.32,0.6,0.51,721.587402344,-4.13,-5.17,299.43,299.52,0.0,0.0
1526670952.86133099,46174023,0.25,0.47,0.42,694.414733887,-3.66,-4.84,299.43,299.8,0.0,0.0
1526670952.96129107,46273983,0.22,0.32,0.34,4.639564991,-3.22,-4.41,299.43,299.97,0.0,0.0
1526670953.06125116,46373943,0.21,0.19,0.27,39.3486251831,-2.68,-3.91,299.43,300.13,0.0,0.0
1526670953.16121101,46473903,0.2,0.07,0.22,86.3451843262,-2.1,-3.34,253.37,300.2,0.0,0.01
1526670953.26117110,46573863,-3.19,-0.23,-0.15,127.837348938,-3.79,-3.1,253.37,299.8,0.0,0.0
1526670953.36113119,46673823,-5.73,-1.09,-1.29,125.340934753,-5.16,-3.62,253.37,298.58,0.0,0.02
1526670953.46109104,46773783,-7.26,-2.44,-2.89,343.953704834,-6.15,-4.6,253.37,296.63,0.0,0.05
1526670953.56105113,46873743,-8.17,-4.0,-4.66,819.720703125,-7.04,-5.66,253.37,294.18,0.0,0.06
1526670953.66101098,46973703,-8.58,-5.5,-6.33,1522.75439453,-7.91,-6.63,253.37,291.37,0.0,0.06
1526670953.76097107,47073663,-8.53,-6.73,-7.67,2344.53125,-8.72,-7.4,253.37,288.34,0.0,0.06
1526670953.86093116,47173623,-8.0,-7.55,-8.53,3137.06762695,-9.47,-8.04,253.37,285.1,0.0,0.05
1526670953.96089101,47273583,-7.12,-7.9,-8.82,3761.72167969,-10.15,-8.6,253.37,281.71,0.0,0.05
1526670954.06085110,47373543,-5.97,-7.83,-8.53,4047.13671875,-10.75,-9.03,253.37,278.21,0.0,0.04
1526670954.16081119,47473503,-4.63,-7.36,-7.73,3960.11328125,-11.27,-9.33,253.37,274.59,0.0,0.04
1526670954.26077104,47573463,-3.1,-6.48,-6.5,3694.35180664,-11.74,-9.63,253.37,270.88,0.0,0.04
1526670954.36073112,47673423,-1.56,-5.28,-4.95,3456.21191406,-12.15,-9.93,253.37,267.17,0.0,0.03
1526670954.46069098,47773383,-0.03,-3.85,-3.22,3387.59619141,-12.5,-10.22,253.37,263.38,0.0,0.04
1526670954.56148410,47874176,1.37,-2.21,-1.43,3499.90673828,-12.77,-10.55,253.37,259.5,0.0,0.04
1526670954.66144419,47974136,2.56,-0.4,0.29,3631.00366211,-12.94,-10.8,253.37,255.82,0.0,0.04
1526670954.76140404,48074096,3.48,1.39,1.85,3622.94995117,-13.07,-11.1,253.37,252.56,0.0,0.04
1526670954.86136413,48174056,4.08,2.94,3.15,3492.78320312,-13.19,-11.45,253.37,250.0,0.0,0.03
1526670954.96132398,48274016,4.32,4.13,4.11,3325.29296875,-13.35,-11.82,253.37,248.28,0.0,0.02
1526670955.06128407,48373976,4.2,4.93,4.7,3176.53100586,-13.38,-12.23,71.1,247.34,0.0,0.02
1526670955.16124415,48473936,3.57,4.8,4.88,3043.90039062,-10.24,-13.01,71.1,246.7,0.0,0.02
1526670955.26120400,48573896,2.19,3.39,4.56,3104.71850586,-4.16,-12.69,71.1,245.48,0.0,0.0
1526670955.36116409,48673856,1.16,1.32,3.79,4486.52148438,-0.89,-10.67,71.1,243.71,0.0,0.03
1526670955.46112418,48773816,0.47,-0.37,2.74,7625.87158203,1.04,-7.65,71.1,241.41,0.0,0.05
1526670955.56108403,48873776,0.05,-1.31,1.63,86901.2421875,2.32,-4.45,71.1,238.65,0.0,0.05
1526670955.66104412,48973736,-0.15,-1.63,0.62,69347.5703125,3.11,-1.64,71.1,235.6,0.0,0.04
1526670955.76100397,49073696,-0.29,-1.56,-0.18,51389.859375,3.52,0.62,71.1,232.34,0.0,0.02
1526670955.86096406,49173656,-0.38,-1.29,-0.75,37526.46875,3.56,2.26,71.1,228.89,0.0,0.01
1526670955.96092415,49273616,-0.53,-0.97,-1.09,28379.0214844,3.36,3.3,71.1,225.23,0.0,0.01
1526670956.06088400,49373576,-0.78,-0.63,-1.27,23091.5292969,2.95,3.79,71.1,221.44,0.0,0.02
1526670956.16084409,49473536,-1.03,-0.34,-1.35,20471.1035156,2.44,3.84,71.1,217.6,0.0,0.03
1526670956.26080418,49573496,-1.28,-0.16,-1.39,19409.7597656,1.89,3.54,71.1,213.67,0.0,0.03
1526670956.36076403,49673456,-1.56,-0.17,-1.43,18954.0585938,1.33,3.03,71.1,209.65,0.0,0.03
1526670956.46072412,49773416,-1.79,-0.31,-1.5,18546.6894531,0.82,2.43,71.1,205.58,0.0,0.03
1526670956.56068397,49873376,-1.99,-0.49,-1.6,18029.578125,0.4,1.83,71.1,201.5,0.0,0.03
1526670956.66147709,49974169,-2.02,-0.72,-1.73,17424.4199219,-0.06,1.23,71.1,197.36,0.0,0.03
1526670956.76143718,50074129,-2.08,-0.96,-1.84,16725.09375,-0.43,0.7,71.1,193.33,0.0,0.02
1526670956.86139703,50174089,-2.22,-1.18,-1.95,15978.1855469,-0.7,0.26,71.1,189.32,0.0,0.02
1526670956.96135712,50274049,-2.38,-1.39,-2.07,15217.0195312,-0.88,-0.13,71.1,185.35,0.0,0.02
1526670957.06131697,50374009,-2.57,-1.61,-2.2,14476.5576172,-0.99,-0.46,71.1,181.38,0.0,0.02
1526670957.16127706,50473969,-2.76,-1.83,-2.36,13775.4052734,-1.07,-0.81,71.1,177.38,0.0,0.02
1526670957.26123714,50573929,-2.98,-2.1,-2.53,13103.5976562,-1.17,-1.13,71.1,173.29,0.0,0.02
1526670957.36119699,50673889,-3.18,-2.43,-2.72,12449.2519531,-1.21,-1.37,71.1,169.24,0.0,0.02
1526670957.46115708,50773849,-3.37,-2.8,-2.92,11817.6123047,-1.22,-1.49,71.1,165.26,0.0,0.02
1526670957.56111717,50873809,-3.57,-3.18,-3.12,11228.7939453,-1.26,-1.54,71.1,161.33,0.0,0.01
1526670957.66107702,50973769,-3.76,-3.45,-3.33,10699.0585938,-1.36,-1.54,71.1,157.36,0.0,0.02
1526670957.76103711,51073729,-3.95,-3.69,-3.54,10220.3046875,-1.52,-1.58,71.1,153.34,0.0,0.02
1526670957.86099696,51173689,-4.16,-3.97,-3.74,9792.23632812,-1.72,-1.69,71.1,149.33,0.0,0.02
1526670957.96095705,51273649,-4.32,-4.16,-3.94,9406.06933594,-2.02,-1.77,71.1,145.36,0.0,0.02
1526670958.06091714,51373609,-4.43,-4.38,-4.13,9051.73242188,-2.42,-1.87,71.1,141.47,0.0,0.02
1526670958.16087699,51473569,-4.5,-4.47,-4.28,332.401184082,-2.87,-2.0,71.1,137.61,0.0,0.02
1526670958.26083708,51573529,-4.52,-4.45,-4.4,139.949951172,-3.4,-2.24,71.1,133.77,0.0,0.02
1526670958.36079717,51673489,-4.42,-4.38,-4.48,87.3649291992,-3.86,-2.58,71.1,129.88,0.0,0.02
1526670958.46075702,51773449,-4.18,-4.28,-4.48,143.408233643,-4.17,-2.95,71.1,125.96,0.0,0.02
1526670958.56071711,51873409,-3.9,-4.13,-4.38,244.67956543,-4.47,-3.33,71.1,122.12,0.0,0.02
1526670958.66067696,51973369,-3.6,-3.93,-4.21,345.628601074,-4.79,-3.69,71.1,118.27,0.0,0.02
1526670958.76147008,52074162,-3.27,-3.75,-3.96,392.041625977,-5.09,-4.07,71.1,114.37,0.0,0.02
1526670958.86143017,52174122,-2.93,-3.51,-3.65,380.793701172,-5.41,-4.45,71.1,110.49,0.0,0.02
1526670958.96139002,52274082,-2.58,-3.25,-3.3,347.808868408,-5.71,-4.8,71.1,106.58,0.0,0.02
1526670959.06135011,52374042,-2.24,-3.02,-2.94,310.939178467,-6.0,-5.16,71.1,102.62,0.0,0.02
1526670959.16130996,52474002,-1.86,-2.77,-2.57,299.689361572,-6.27,-5.44,71.1,98.66,0.0,0.02
1526670959.26127005,52573962,-1.37,-2.46,-2.18,328.991699219,-6.53,-5.67,71.1,94.62,0.0,0.02
1526670959.36123013,52673922,-0.85,-2.0,-1.76,360.481933594,-6.78,-5.87,71.1,90.52,0.0,0.02
1526670959.46118999,52773882,-0.34,-1.43,-1.32,356.552825928,-7.01,-6.1,71.1,86.42,0.0,0.02
1526670959.56115007,52873842,0.16,-0.85,-0.86,333.504425049,-7.25,-6.34,71.1,82.34,0.0,0.02
1526670959.66111016,52973802,0.64,-0.26,-0.38,314.924468994,-7.71,-6.58,71.1,78.19,0.0,0.02
1526670959.76107001,53073762,1.11,0.38,0.09,323.90524292,-8.26,-6.87,71.1,74.13,0.0,0.02
1526670959.86103010,53173722,1.57,1.05,0.57,387.486999512,-8.86,-7.18,71.1,70.55,0.0,0.01
1526670959.96099019,53273682,1.93,1.77,1.03,570.060180664,-9.46,-7.52,71.1,67.72,0.0,0.01
1526670960.06095004,53373642,2.15,2.4,1.44,927.129821777,-10.05,-7.99,71.1,65.81,0.0,0.0
1526670960.16091013,53473602,2.19,2.89,1.78,1423.02185059,-10.63,-8.57,71.1,64.76,0.0,0.01
1526670960.26086998,53573562,2.07,3.17,2.0,1974.27124023,-11.19,-9.19,71.1,64.51,0.0,0.02
1526670960.36083007,53673522,1.76,3.21,2.07,2501.15966797,-11.72,-9.89,71.1,64.94,0.0,0.03
1526670960.46079016,53773482,1.28,3.05,1.97,2922.87280273,-12.16,-10.62,71.1,65.83,0.0,0.03
1526670960.56075001,53873442,0.77,2.66,1.7,3238.74658203,-12.57,-11.29,71.1,67.02,0.0,0.03
1526670960.66071010,53973402,0.28,2.1,1.29,3422.40209961,-12.9,-11.92,71.1,68.35,0.0,0.03
1526670960.76150298,54074195,-0.2,1.41,0.79,3736.32250977,-13.18,-12.48,71.1,69.74,0.0,0.03
1526670960.86146307,54174155,-0.61,0.65,0.25,2672.63647461,-13.42,-12.93,71.1,71.0,0.0,0.03
1526670960.96142316,54274115,-0.92,-0.09,-0.28,1786.0378418,-13.62,-13.3,71.1,72.08,0.0,0.02
1526670961.06138301,54374075,-1.08,-0.72,-0.77,1245.73132324,-13.79,-13.55,71.1,72.88,0.0,0.02
1526670961.16134310,54474035,-1.09,-1.12,-1.14,938.84954834,-13.78,-13.72,71.1,73.35,0.0,0.02
1526670961.26130319,54573995,-0.98,-1.41,-1.36,752.85546875,-13.69,-13.85,71.1,73.5,0.0,0.01
1526670961.36126304,54673955,-0.78,-1.6,-1.42,647.567626953,-13.57,-13.86,71.1,73.43,0.0,0.01
1526670961.46122313,54773915,-0.51,-1.62,-1.34,627.048828125,-13.45,-13.8,71.1,73.17,0.0,0.01
1526670961.56118298,54873875,-0.19,-1.49,-1.11,685.232727051,-13.37,-13.64,71.1,72.78,0.0,0.0
1526670961.66114306,54973835,0.16,-1.14,-0.79,759.004333496,-13.33,-13.44,71.1,72.23,0.0,0.0
1526670961.76110315,55073795,0.49,-0.71,-0.39,792.414916992,-13.33,-13.29,71.1,71.68,0.0,0.0
1526670961.86106300,55173755,0.76,-0.28,0.02,807.043762207,-13.37,-13.27,71.1,71.15,0.0,0.01
1526670961.96102309,55273715,0.98,0.04,0.42,835.359863281,-13.43,-13.26,71.1,70.67,0.0,0.01
1526670962.06098318,55373675,1.16,0.43,0.78,888.247619629,-13.51,-13.2,71.1,70.34,0.0,0.01
1526670962.16094303,55473635,1.27,0.89,1.06,877.508361816,-13.62,-13.32,71.1,70.08,0.0,0.01
1526670962.26090312,55573595,1.29,1.23,1.27,827.977111816,-13.78,-13.47,71.1,69.9,0.0,0.01
1526670962.36086297,55673555,1.24,1.46,1.38,777.092102051,-13.93,-13.58,71.1,69.84,0.0,0.01
1526670962.46082306,55773515,1.15,1.56,1.41,738.801635742,-14.1,-13.67,71.1,69.92,0.0,0.01
1526670962.56078315,55873475,0.99,1.56,1.34,714.799072266,-14.27,-13.83,71.1,70.1,0.0,0.01
1526670962.66074300,55973435,0.86,1.5,1.22,711.140441895,-14.45,-14.03,71.1,70.16,0.0,0.01
1526670962.76070309,56073395,0.73,1.42,1.05,726.357727051,-14.61,-14.2,71.1,70.28,0.0,0.01
1526670962.86149597,56174188,0.56,1.28,0.86,765.374084473,-14.78,-14.4,71.1,70.43,0.0,0.01
1526670962.96145606,56274148,0.39,1.09,0.65,814.042541504,-14.92,-14.59,71.1,70.57,0.0,0.01
1526670963.06141615,56374108,0.25,0.89,0.45,858.708251953,-15.06,-14.75,71.1,70.63,0.0,0.01
1526670963.16137600,56474068,0.16,0.71,0.28,899.010131836,-15.19,-14.88,71.1,70.65,0.0,0.01
1526670963.26133609,56574028,0.09,0.56,0.13,938.346191406,-15.29,-15.01,71.1,70.68,0.0,0.01
1526670963.36129618,56673988,0.01,0.4,0.02,1438.8458252,-15.37,-15.13,71.1,70.78,0.0,0.01
1526670963.46125603,56773948,-0.05,0.29,-0.06,1356.51550293,-15.48,-15.22,71.1,70.92,0.0,0.01
1526670963.56121612,56873908,-0.08,0.22,-0.12,1261.95056152,-15.58,-15.33,71.1,71.01,0.0,0.01
1526670963.66117597,56973868,-0.09,0.17,-0.15,1216.99487305,-15.68,-15.48,71.1,71.03,0.0,0.01
1526670963.76113605,57073828,-0.09,0.11,-0.15,1132.75,-15.77,-15.59,71.1,71.05,0.0,0.01
1526670963.86109614,57173788,-0.08,0.02,-0.14,1009.51696777,-15.87,-15.66,71.1,71.05,0.0,0.01
1526670963.96105599,57273748,-0.08,-0.1,-0.12,862.23425293,-15.95,-15.73,71.1,71.14,0.0,0.01
1526670964.06101608,57373708,-0.07,-0.28,-0.1,749.95892334,-14.74,-15.72,71.1,71.22,0.0,0.01
1526670964.16097617,57473668,-0.05,-0.5,-0.07,771.7109375,-14.19,-15.47,71.1,71.34,0.0,0.0
1526670964.26093602,57573628,0.0,-0.67,-0.05,1010.9041748,-14.14,-15.06,71.1,71.39,0.0,0.0
1526670964.36089611,57673588,0.09,-0.64,-0.01,1321.81567383,-14.12,-14.64,71.1,71.37,0.0,0.0
1526670964.46085596,57773548,0.18,-0.51,0.04,1527.0970459,-14.17,-14.36,71.1,71.39,0.0,0.0
1526670964.56081605,57873508,0.26,-0.31,0.11,1596.56420898,-14.31,-14.17,71.1,71.47,0.0,0.0
1526670964.66077614,57973468,0.31,-0.11,0.18,1572.53930664,-14.46,-14.13,71.1,71.52,0.0,0.0
1526670964.76073599,58073428,0.36,0.08,0.26,1501.50170898,-14.71,-14.21,71.1,71.47,0.0,0.01
1526670964.86069608,58173388,0.4,0.29,0.32,1409.17993164,-14.92,-14.41,71.1,71.48,0.0,0.01
1526670964.96148896,58274181,0.41,0.4,0.38,1321.46936035,-15.02,-14.65,71.1,71.43,0.0,0.01
1526670965.06144905,58374141,0.41,0.48,0.41,1244.73950195,-15.22,-14.84,71.1,71.33,0.0,0.01
1526670965.16140914,58474101,0.41,0.52,0.43,1178.4934082,-15.37,-14.97,71.1,71.17,0.0,0.0
1526670965.26136899,58574061,0.39,0.53,0.44,1120.09094238,-15.47,-15.06,71.1,71.02,0.0,0.0
1526670965.36132908,58674021,0.35,0.54,0.43,1069.0300293,-15.69,-15.18,71.1,70.91,0.0,0.0
1526670965.46128917,58773981,0.33,0.58,0.4,1027.83190918,-15.76,-15.33,71.1,70.77,0.0,0.0
1526670965.56124902,58873941,0.35,0.64,0.37,1002.55297852,-15.76,-15.51,71.1,70.53,0.0,0.0
1526670965.66120911,58973901,0.34,0.69,0.35,998.857788086,-15.89,-15.7,71.1,70.36,0.0,0.0
1526670965.76116896,59073861,0.36,0.69,0.33,1006.73950195,-15.9,-15.85,71.1,70.23,0.0,0.0
1526670965.86112905,59173821,0.38,0.58,0.33,1003.39746094,-15.97,-16.0,71.1,70.14,0.0,0.0
1526670965.96108913,59273781,0.38,0.52,0.33,341.131774902,-15.95,-16.13,71.1,70.07,0.0,0.0
1526670966.06104898,59373741,0.37,0.42,0.34,201.30809021,-15.93,-16.16,71.1,70.12,0.0,0.0
1526670966.16100907,59473701,0.36,0.35,0.34,108.067878723,-16.0,-16.08,71.1,70.21,0.0,0.0
1526670966.26096916,59573661,0.35,0.4,0.35,74.2353744507,-15.97,-15.99,71.1,70.35,0.0,0.0
1526670966.36092901,59673621,0.31,0.41,0.35,63.0178565979,-15.88,-15.91,71.1,70.55,0.0,0.0
1526670966.46088910,59773581,0.25,0.4,0.34,57.2490921021,-15.89,-15.83,71.1,70.78,0.0,0.0
1526670966.56084919,59873541,0.19,0.39,0.3,55.7563247681,-15.97,-15.83,71.1,70.92,0.0,0.0
1526670966.66080904,59973501,0.11,0.34,0.26,57.6879005432,-16.0,-15.85,71.1,71.01,0.0,0.0
1526670966.76076913,60073461,0.08,0.3,0.2,57.6880912781,-15.96,-15.94,71.1,71.02,0.0,0.0
1526670966.86072898,60173421,0.06,0.28,0.15,68.072013855,-15.89,-16.03,71.1,71.09,0.0,0.0
1526670966.96068907,60273381,0.0,0.2,0.1,74.2693405151,-15.89,-16.14,71.1,71.22,0.0,0.0
1526670967.06148219,60374174,-0.06,0.08,0.04,71.6127929688,-15.93,-16.24,71.1,71.35,0.0,0.0
1526670967.16144204,60474134,-0.09,-0.05,0.0,65.9774475098,-15.89,-16.27,71.1,71.39,0.0,0.0
1526670967.26140213,60574094,-0.06,-0.14,-0.04,65.4434509277,-15.89,-16.23,71.1,71.34,0.0,0.0
1526670967.36136198,60674054,0.0,-0.24,-0.06,72.1929092407,-15.79,-16.17,71.1,71.22,0.0,0.0
1526670967.46132207,60774014,0.08,-0.31,-0.05,99.5293960571,-15.69,-16.03,71.1,71.04,0.0,0.0
1526670967.56128216,60873974,0.17,-0.31,-0.01,142.570297241,-15.69,-15.85,71.1,70.93,0.0,0.0
1526670967.66124201,60973934,0.28,-0.22,0.05,182.806350708,-15.75,-15.72,71.1,70.82,0.0,0.0
1526670967.76120210,61073894,0.37,-0.07,0.14,208.192459106,-15.71,-15.6,71.1,70.73,0.0,0.0
1526670967.86116219,61173854,0.45,0.12,0.25,214.541366577,-15.79,-15.51,71.1,70.66,0.0,0.0
1526670967.96112204,61273814,0.49,0.32,0.35,207.380859375,-15.84,-15.48,71.1,70.61,0.0,0.0
1526670968.06108212,61373774,0.5,0.49,0.44,197.804229736,-15.98,-15.51,71.1,70.55,0.0,0.0
1526670968.16104198,61473734,0.5,0.64,0.5,192.739379883,-16.02,-15.59,71.1,70.44,0.0,0.0
1526670968.26100206,61573694,0.51,0.8,0.54,201.538528442,-16.05,-15.69,71.1,70.32,0.0,0.0
1526670968.36096215,61673654,0.49,0.99,0.56,234.318481445,-15.71,-15.75,182.61,70.26,0.0,0.0
1526670968.46092200,61773614,0.32,1.25,0.55,365.493041992,-12.21,-15.36,182.61,70.72,0.0,0.0
1526670968.56088209,61873574,-0.02,1.12,0.47,4183.31103516,-10.49,-14.33,182.61,72.0,0.0,0.0
1526670968.66084218,61973534,-0.47,0.9,0.29,3916.94360352,-9.53,-13.02,182.61,73.84,0.0,0.01
1526670968.76080203,62073494,-1.0,0.61,0.0,3789.04125977,-8.87,-11.8,182.61,76.18,0.0,0.0
1526670968.86076212,62173454,-1.55,0.25,-0.38,3760.91333008,-8.43,-10.78,182.61,78.91,0.0,0.0
1526670968.96072197,62273414,-2.15,-0.17,-0.86,3937.1171875,-8.04,-9.94,182.61,81.89,0.0,0.0
1526670969.06068206,62373374,-2.75,-0.65,-1.42,4257.71972656,-7.7,-9.26,182.61,85.09,0.0,0.01
1526670969.16147518,62474167,-3.38,-1.22,-2.04,4609.37255859,-7.34,-8.7,182.61,88.58,0.0,0.01
1526670969.26143503,62574127,-3.99,-1.84,-2.68,4963.91162109,-6.94,-8.26,182.61,92.13,0.0,0.02
1526670969.36139512,62674087,-4.55,-2.49,-3.33,5242.73974609,-6.51,-7.78,182.61,95.76,0.0,0.02
1526670969.46135497,62774047,-5.06,-3.07,-3.96,5497.1875,-6.03,-7.3,182.61,99.48,0.0,0.02
1526670969.56131506,62874007,-5.51,-3.66,-4.55,5769.10986328,-5.5,-6.87,182.61,103.22,0.0,0.02
1526670969.66127515,62973967,-5.8,-4.26,-5.07,5920.06835938,-5.01,-6.39,182.61,107.0,0.0,0.02
1526670969.76123500,63073927,-6.08,-4.88,-5.52,5884.92675781,-4.41,-5.83,182.61,110.74,0.0,0.02
1526670969.86119509,63173887,-6.23,-5.34,-5.88,5703.046875,-3.75,-5.15,182.61,114.56,0.0,0.02
1526670969.96115518,63273847,-6.24,-5.68,-6.12,5475.43164062,-3.1,-4.52,182.61,118.35,0.0,0.02
1526670970.06111503,63373807,-6.1,-5.89,-6.24,5217.27099609,-2.49,-3.9,182.61,122.17,0.0,0.02
1526670970.16107512,63473767,-5.83,-5.99,-6.22,4948.54443359,-1.91,-3.25,182.61,125.97,0.0,0.02
1526670970.26103497,63573727,-5.44,-5.9,-6.06,4679.52294922,-1.35,-2.59,182.61,129.8,0.0,0.02
1526670970.36099505,63673687,-4.95,-5.71,-5.76,4427.97460938,-0.88,-1.97,182.61,133.57,0.0,0.01
1526670970.46095514,63773647,-4.4,-5.41,-5.35,4195.81152344,-0.51,-1.42,182.61,137.31,0.0,0.01
1526670970.56091499,63873607,-3.76,-5.0,-4.83,3992.90429688,-0.22,-0.95,182.61,141.07,0.0,0.01
1526670970.66087508,63973567,-3.05,-4.47,-4.23,3822.61621094,-0.02,-0.54,182.61,144.85,0.0,0.01
1526670970.76083517,64073527,-2.23,-3.82,-3.55,3677.77636719,0.08,-0.18,182.61,148.68,0.0,0.01
1526670970.86079502,64173487,-1.27,-3.13,-2.79,3557.90917969,0.03,0.03,182.61,152.49,0.0,0.01
1526670970.96075511,64273447,-0.29,-2.34,-1.95,3465.34204102,-0.2,0.12,182.61,156.34,0.0,0.01
1526670971.06071496,64373407,0.86,-1.44,-1.03,3390.37524414,-0.61,0.07,182.61,160.21,0.0,0.01
1526670971.16067505,64473367,2.25,-0.43,0.0,1766.75683594,-1.21,-0.12,182.61,164.02,0.0,0.01
1526670971.26146817,64574160,3.74,0.74,1.16,1753.51196289,-1.93,-0.46,182.61,167.84,0.0,0.0
1526670971.36142802,64674120,4.19,1.93,2.34,1767.42993164,-2.72,-0.99,182.61,171.68,0.0,0.0
1526670971.46138811,64774080,4.0,2.93,3.3,1719.50292969,-3.52,-1.75,182.61,175.57,0.0,0.0
1526670971.56134796,64874040,3.42,3.51,3.88,1627.46105957,-4.21,-2.66,182.61,179.32,0.0,0.01
1526670971.66130805,64974000,2.64,3.61,4.01,1601.55773926,-4.79,-3.61,182.61,182.62,0.0,0.01
1526670971.76126814,65073960,1.76,3.27,3.71,1627.02783203,-5.23,-4.49,182.61,185.23,0.0,0.01
1526670971.86122799,65173920,0.93,2.63,3.06,1678.81433105,-5.48,-5.22,182.61,187.06,0.0,0.01
1526670971.96118808,65273880,0.24,1.85,2.18,1664.4564209,-5.68,-5.74,182.61,188.09,0.0,0.01
1526670972.06114817,65373840,-0.24,1.12,1.21,1539.70568848,-5.84,-6.02,182.61,188.42,0.0,0.01
1526670972.16110802,65473800,-0.53,0.49,0.3,1395.12536621,-6.03,-6.17,182.61,188.07,0.0,0.01
1526670972.26106811,65573760,-0.63,0.05,-0.45,1383.77441406,-6.27,-6.26,182.61,187.25,0.0,0.01
1526670972.36102796,65673720,-0.55,-0.28,-0.97,1584.80407715,-6.53,-6.35,182.61,186.15,0.0,0.02
1526670972.46098804,65773680,-0.48,-0.49,-1.25,1884.40649414,-6.45,-6.48,182.61,184.95,0.0,0.02
1526670972.56094813,65873640,-0.38,-0.58,-1.31,2159.49658203,-6.23,-6.47,182.61,183.74,0.0,0.02
1526670972.66090798,65973600,-0.22,-0.56,-1.21,2340.35986328,-6.07,-6.44,182.61,182.63,0.0,0.03
1526670972.76086807,66073560,-0.03,-0.48,-0.97,2404.0871582,-5.96,-6.35,182.61,181.77,0.0,0.02
1526670972.86082816,66173520,0.18,-0.38,-0.66,2353.04882812,-5.91,-6.21,182.61,181.23,0.0,0.02
1526670972.96078801,66273480,0.35,-0.21,-0.31,2242.9230957,-5.91,-6.02,182.61,180.94,0.0,0.02
1526670973.06074810,66373440,0.52,-0.03,0.01,2126.44506836,-5.96,-5.86,182.61,180.89,0.0,0.02
1526670973.16070819,66473400,0.66,0.24,0.32,2023.6965332,-6.08,-5.75,182.61,181.04,0.0,0.02
1526670973.26150107,66574193,0.73,0.52,0.57,1929.66186523,-6.25,-5.79,182.61,181.32,0.0,0.02
1526670973.36146116,66674153,0.76,0.7,0.75,1843.62329102,-6.46,-5.91,182.61,181.72,0.0,0.02
1526670973.46142101,66774113,0.76,0.8,0.85,1765.15808105,-6.7,-6.03,182.61,182.12,0.0,0.01
1526670973.56138110,66874073,0.72,0.85,0.89,1693.19055176,-7.01,-6.23,182.61,182.51,0.0,0.01
1526670973.66134119,66974033,0.64,0.91,0.87,1625.74145508,-7.59,-6.52,182.61,182.87,0.0,0.01
1526670973.76130104,67073993,0.49,0.93,0.79,175.347854614,-8.28,-6.95,182.61,183.16,0.0,0.01
1526670973.86126113,67173953,0.36,0.9,0.67,342.450286865,-9.0,-7.51,182.61,183.33,0.0,0.01
1526670973.96122098,67273913,0.23,0.81,0.51,502.232971191,-9.68,-8.1,182.61,183.46,0.0,0.01
1526670974.06118107,67373873,0.13,0.73,0.35,715.899414062,-10.31,-8.75,182.61,183.57,0.0,0.01
1526670974.16114116,67473833,0.05,0.61,0.19,939.428771973,-10.89,-9.41,182.61,183.58,0.0,0.01
1526670974.26110101,67573793,0.02,0.45,0.06,1067.1862793,-11.41,-10.06,182.61,183.47,0.0,0.01
1526670974.36106110,67673753,0.03,0.36,-0.02,1132.25439453,-11.89,-10.66,182.61,183.3,0.0,0.02
1526670974.46102118,67773713,0.09,0.3,-0.07,1184.40185547,-12.3,-11.2,182.61,183.05,0.0,0.02
1526670974.56098104,67873673,0.16,0.24,-0.07,1187.54614258,-12.68,-11.67,182.61,182.89,0.0,0.02
1526670974.66094112,67973633,0.27,0.2,-0.03,1140.50561523,-13.02,-12.09,182.61,182.65,0.0,0.02
1526670974.76090097,68073593,0.38,0.23,0.05,1066.4954834,-13.35,-12.41,182.61,182.46,0.0,0.02
1526670974.86086106,68173553,0.48,0.31,0.17,992.393127441,-13.67,-12.71,182.61,182.32,0.0,0.02
1526670974.96082115,68273513,0.54,0.42,0.29,922.601257324,-14.01,-13.02,182.61,182.32,0.0,0.02
1526670975.06078100,68373473,0.62,0.53,0.42,861.76159668,-14.31,-13.39,182.61,182.34,0.0,0.02
1526670975.16074109,68473433,0.67,0.62,0.53,809.008605957,-14.43,-13.79,182.61,182.43,0.0,0.02
1526670975.26070118,68573393,0.69,0.59,0.62,756.477905273,-14.47,-14.08,182.61,182.57,0.0,0.01
1526670975.36149406,68674186,0.7,0.59,0.69,713.280639648,-14.45,-14.27,182.61,182.63,0.0,0.01
1526670975.46145415,68774146,0.75,0.57,0.73,682.309997559,-14.43,-14.42,182.61,182.6,0.0,0.01
1526670975.56141400,68874106,0.82,0.56,0.77,665.373046875,-14.43,-14.46,182.61,182.54,0.0,0.01
1526670975.66137409,68974066,0.88,0.6,0.8,653.179199219,-14.44,-14.47,182.61,182.49,0.0,0.01
1526670975.76133418,69074026,0.94,0.66,0.83,638.953857422,-14.49,-14.47,182.61,182.43,0.0,0.01
1526670975.86129403,69173986,1.0,0.68,0.87,625.77355957,-14.51,-14.44,182.61,182.43,0.0,0.01
1526670975.96125412,69273946,1.01,0.72,0.91,617.038513184,-14.58,-14.48,182.61,182.53,0.0,0.01
1526670976.06121397,69373906,0.99,0.79,0.95,605.412475586,-14.65,-14.54,182.61,182.66,0.0,0.01
1526670976.16117406,69473866,0.98,0.83,0.97,588.438659668,-14.73,-14.63,182.61,182.75,0.0,0.01
1526670976.26113415,69573826,0.99,0.83,0.98,574.09954834,-14.82,-14.73,182.61,182.82,0.0,0.01
1526670976.36109400,69673786,0.98,0.83,0.98,236.649703979,-14.92,-14.87,182.61,182.85,0.0,0.01
1526670976.46105409,69773746,0.94,0.81,0.97,271.035675049,-15.03,-15.01,182.61,182.84,0.0,0.01
1526670976.56101418,69873706,0.93,0.8,0.96,274.313354492,-15.15,-15.1,182.61,182.76,0.0,0.01
1526670976.66097403,69973666,0.96,0.79,0.94,264.35748291,-15.3,-15.14,182.61,182.68,0.0,0.01
1526670976.76093411,70073626,0.98,0.79,0.94,256.596984863,-15.44,-15.18,182.61,182.58,0.0,0.01
1526670976.86089396,70173586,0.97,0.81,0.93,246.357116699,-15.6,-15.24,182.61,182.54,0.0,0.01
1526670976.96085405,70273546,0.94,0.8,0.94,233.681015015,-15.77,-15.36,182.61,182.59,0.0,0.01
1526670977.06081414,70373506,0.92,0.83,0.93,224.117111206,-15.9,-15.46,182.61,182.68,0.0,0.01
1526670977.16077399,70473466,0.88,0.89,0.92,201.437225342,-16.03,-15.59,182.61,182.7,0.0,0.01
1526670977.26073408,70573426,0.85,0.97,0.91,180.045944214,-16.16,-15.74,182.61,182.7,0.0,0.01
1526670977.36069417,70673386,0.78,1.02,0.88,171.774932861,-16.29,-15.96,182.61,182.75,0.0,0.01
1526670977.46148705,70774179,0.68,1.01,0.84,179.743484497,-16.42,-16.2,182.61,182.88,0.0,0.01
1526670977.56144714,70874139,0.57,0.92,0.78,184.240859985,-16.52,-16.46,182.61,182.99,0.0,0.01
1526670977.66140699,70974099,0.48,0.77,0.7,177.623275757,-16.61,-16.65,182.61,183.04,0.0,0.01
1526670977.76136708,71074059,0.55,0.65,0.61,167.556762695,-15.4,-16.73,182.61,182.95,0.0,0.01
1526670977.86132717,71174019,0.61,0.37,0.57,163.45904541,-14.64,-16.46,182.61,182.85,0.0,0.0
1526670977.96128702,71273979,0.68,0.19,0.55,212.983932495,-14.42,-15.92,182.61,182.57,0.0,0.01
1526670978.06124711,71373939,0.8,0.23,0.59,281.922668457,-14.23,-15.38,182.61,182.22,0.0,0.01
1526670978.16120696,71473899,0.86,0.33,0.65,334.060516357,-14.43,-14.93,182.61,182.05,0.0,0.01
1526670978.26116705,71573859,0.92,0.55,0.74,355.728240967,-14.73,-14.66,182.61,181.91,0.0,0.01
1526670978.36112714,71673819,0.97,0.77,0.83,345.797088623,-14.89,-14.6,182.61,181.79,0.0,0.01
1526670978.46108699,71773779,0.98,0.93,0.91,329.782806396,-14.93,-14.62,182.61,181.79,0.0,0.01
1526670978.56104708,71873739,0.95,1.01,0.97,315.040344238,-14.82,-14.67,182.61,181.85,0.0,0.01
1526670978.66100717,71973699,0.82,1.07,1.0,302.078155518,-15.23,-14.71,182.61,182.07,0.0,0.01
1526670978.76096702,72073659,0.65,1.11,0.96,294.914489746,-15.64,-14.89,182.61,182.36,0.0,0.01
1526670978.86092710,72173619,0.48,1.0,0.87,291.11126709,-15.79,-15.19,182.61,182.73,0.0,0.0
1526670978.96088696,72273579,0.29,0.82,0.73,72.8884887695,-16.11,-15.5,182.61,183.08,0.0,0.0
1526670979.06084704,72373539,0.17,0.65,0.56,75.7733840942,-16.06,-15.75,182.61,183.27,0.0,0.0
1526670979.16080713,72473499,0.06,0.43,0.38,58.4758262634,-16.03,-16.0,182.61,183.39,0.0,0.0
1526670979.26076698,72573459,-0.01,0.18,0.22,40.9401550293,-16.13,-16.18,182.61,183.36,0.0,0.0
1526670979.36072707,72673419,-0.02,-0.02,0.08,46.0959434509,-16.14,-16.29,182.61,183.24,0.0,0.0
1526670979.46068716,72773379,0.0,-0.19,0.0,83.5178756714,-16.26,-16.25,182.61,183.11,0.0,0.0
1526670979.56148005,72874172,0.09,-0.27,-0.04,139.902282715,-16.28,-16.22,182.61,182.96,0.0,0.0
1526670979.66144013,72974132,0.15,-0.26,-0.02,199.261535645,-16.36,-16.19,182.61,182.86,0.0,0.01
1526670979.76139998,73074092,0.2,-0.18,0.02,235.019744873,-16.29,-16.19,182.61,182.82,0.0,0.01
1526670979.86136007,73174052,0.28,-0.03,0.09,242.503158569,-16.25,-16.22,182.61,182.79,0.0,0.01
1526670979.96132016,73274012,0.31,0.13,0.18,227.733947754,-16.53,-16.27,182.61,182.78,0.0,0.01
1526670980.06128001,73373972,0.34,0.3,0.27,207.946670532,-16.79,-16.35,182.61,182.66,0.0,0.01
1526670980.16124010,73473932,0.41,0.48,0.35,196.010070801,-16.7,-16.47,182.61,182.42,0.0,0.01
1526670980.26120019,73573892,0.44,0.63,0.42,201.773254395,-16.89,-16.63,182.61,182.21,0.0,0.01
1526670980.36116004,73673852,0.47,0.7,0.48,220.808731079,-16.87,-16.78,182.61,182.0,0.0,0.01
1526670980.46112013,73773812,0.46,0.72,0.52,235.521789551,-16.93,-16.87,182.61,181.92,0.0,0.01
1526670980.56107998,73873772,0.4,0.67,0.53,238.914123535,-16.75,-16.9,182.61,181.94,0.0,0.0
1526670980.66104007,73973732,0.35,0.59,0.51,230.32232666,-16.67,-16.95,182.61,182.01,0.0,0.0
1526670980.76100016,74073692,0.29,0.48,0.47,218.594314575,-16.57,-16.96,182.61,182.12,0.0,0.0
1526670980.86096001,74173652,0.2,0.35,0.41,207.710357666,-16.52,-16.9,182.61,182.27,0.0,0.0
1526670980.96092010,74273612,0.11,0.22,0.33,201.342056274,-16.49,-16.8,182.61,182.42,0.0,0.0
1526670981.06088018,74373572,0.05,0.07,0.24,202.460586548,-16.55,-16.71,182.61,182.59,0.0,0.0
1526670981.16084003,74473532,0.0,0.0,0.15,206.591339111,-16.56,-16.63,182.61,182.79,0.0,0.0
1526670981.26080012,74573492,-0.03,-0.06,0.07,205.865097046,-16.55,-16.61,182.61,182.94,0.0,0.0
1526670981.36075997,74673452,-0.08,-0.2,0.01,210.099868774,-16.6,-16.6,182.61,183.1,0.0,0.0
1526670981.46072006,74773412,-0.1,-0.32,-0.04,227.048919678,-16.48,-16.58,182.61,183.2,0.0,0.0
1526670981.56068015,74873372,-0.06,-0.03,-0.08,26.1090259552,-14.53,-16.28,0.0,183.41,0.0,0.0
1526670981.66147304,74974165,-0.16,0.23,-0.09,490.927215576,-11.77,-15.4,0.0,184.41,0.0,0.0
1526670981.76143312,75074125,-0.47,0.28,-0.14,992.691650391,-10.44,-14.06,0.0,186.09,0.0,0.01
1526670981.86139297,75174085,-0.91,0.23,-0.27,1397.98974609,-9.62,-12.75,0.0,188.33,0.0,0.02
1526670981.96135306,75274045,-1.44,0.07,-0.51,1800.98449707,-9.02,-11.65,0.0,190.94,0.0,0.02
1526670982.06131315,75374005,-2.08,-0.23,-0.87,2208.62011719,-8.5,-10.73,0.0,193.93,0.0,0.03
1526670982.16127300,75473965,-2.78,-0.66,-1.35,2614.03613281,-8.01,-9.96,0.0,197.2,0.0,0.03
1526670982.26123309,75573925,-3.47,-1.18,-1.95,3014.89575195,-7.5,-9.26,0.0,200.65,0.0,0.04
1526670982.36119318,75673885,-4.13,-1.81,-2.61,3425.75512695,-7.0,-8.62,0.0,204.17,0.0,0.04
1526670982.46115303,75773845,-4.74,-2.48,-3.32,3801.35742188,-6.45,-8.03,0.0,207.78,0.0,0.04
1526670982.56111312,75873805,-5.27,-3.16,-4.02,4158.73681641,-5.86,-7.49,0.0,211.42,0.0,0.04
1526670982.66107297,75973765,-5.7,-3.77,-4.68,4507.58056641,-5.27,-6.93,0.0,215.09,0.0,0.04
1526670982.76103306,76073725,-6.06,-4.41,-5.27,4803.48925781,-4.62,-6.31,0.0,218.78,0.0,0.04
1526670982.86099315,76173685,-6.29,-4.96,-5.75,4967.84570312,-3.96,-5.65,0.0,222.59,0.0,0.04
1526670982.96095300,76273645,-6.4,-5.46,-6.12,5004.24560547,-3.27,-4.92,0.0,226.52,0.0,0.04
1526670983.06091309,76373605,-6.4,-5.83,-6.36,4914.22607422,-2.59,-4.14,0.0,230.48,0.0,0.04
1526670983.16087317,76473565,-6.28,-6.1,-6.46,4731.77783203,-1.95,-3.36,0.0,234.47,0.0,0.04
1526670983.26083302,76573525,-6.03,-6.18,-6.43,4511.14111328,-1.35,-2.64,0.0,238.48,0.0,0.04
1526670983.36079311,76673485,-5.65,-6.08,-6.28,4290.63183594,-0.77,-1.91,0.0,242.49,0.0,0.04
1526670983.46075296,76773445,-5.21,-5.86,-6.0,4080.68457031,-0.31,-1.26,0.0,246.51,0.0,0.04
1526670983.56071305,76873405,-4.67,-5.55,-5.61,3882.26586914,0.08,-0.71,0.0,250.45,0.0,0.03
1526670983.66150618,76974198,-4.06,-5.14,-5.12,3698.01123047,0.42,-0.23,0.0,254.38,0.0,0.03
1526670983.76146603,77074158,-3.35,-4.69,-4.55,3532.7590332,0.66,0.16,0.0,258.3,0.0,0.03
1526670983.86142612,77174118,-2.56,-4.14,-3.91,3394.66601562,0.77,0.48,0.0,262.16,0.0,0.03
1526670983.96138597,77274078,-1.7,-3.47,-3.19,3279.30834961,0.83,0.73,0.0,266.08,0.0,0.03
1526670984.06134605,77374038,-0.73,-2.72,-2.4,3182.70751953,0.79,0.83,0.0,270.05,0.0,0.02
1526670984.16130614,77473998,0.39,-1.9,-1.53,1352.60559082,0.61,0.92,0.0,274.1,0.0,0.03
1526670984.26126599,77573958,1.81,-0.97,-0.55,1588.26721191,0.2,0.91,0.0,278.19,0.0,0.03
1526670984.36122608,77673918,3.37,0.12,0.58,1723.88122559,-0.42,0.75,0.0,282.31,0.0,0.02
1526670984.46118617,77773878,3.98,1.33,1.79,1858.39355469,-0.96,0.39,0.0,286.45,0.0,0.02
1526670984.56114602,77873838,3.94,2.37,2.85,1962.19604492,-1.38,-0.07,0.0,290.5,0.0,0.02
1526670984.66110611,77973798,3.56,3.12,3.58,2015.08691406,-1.66,-0.65,0.0,294.46,0.0,0.02
1526670984.76106596,78073758,3.0,3.47,3.91,2027.19262695,-1.81,-1.2,0.0,298.45,0.0,0.02
1526670984.86102605,78173718,2.3,3.48,3.85,1971.94104004,-1.83,-1.68,0.0,302.51,0.0,0.01
1526670984.96098614,78273678,1.59,3.15,3.43,1854.96337891,-1.7,-2.0,0.0,306.55,0.0,0.01
1526670985.06094599,78373638,1.15,2.65,2.76,1693.8236084,-1.6,-2.15,0.0,310.61,0.0,0.01
1526670985.16090608,78473598,1.01,2.13,2.02,1529.08068848,-1.71,-2.07,0.0,314.69,0.0,0.01
1526670985.26086617,78573558,0.98,1.69,1.34,1441.140625,-2.01,-1.96,0.0,318.72,0.0,0.02
1526670985.36082602,78673518,1.0,1.41,0.82,1504.25964355,-2.37,-1.89,0.0,322.71,0.0,0.02
1526670985.46078610,78773478,1.03,1.29,0.48,1770.3371582,-2.8,-1.97,0.0,326.62,0.0,0.02
1526670985.56074595,78873438,1.0,1.27,0.32,2206.72875977,-3.29,-2.17,0.0,330.54,0.0,0.02
1526670985.66070604,78973398,0.92,1.23,0.27,2659.37280273,-3.82,-2.51,0.0,334.47,0.0,0.02
1526670985.76149917,79074191,0.79,1.22,0.31,3037.06835938,-4.38,-2.91,0.0,338.46,0.0,0.02
1526670985.86145902,79174151,0.57,1.16,0.36,3287.11645508,-4.95,-3.39,0.0,342.47,0.0,0.02
1526670985.96141911,79274111,0.23,1.06,0.37,3404.5793457,-5.21,-3.95,0.0,346.46,0.0,0.02
1526670986.06137896,79374071,-0.12,0.84,0.31,3420.54174805,-5.26,-4.49,0.0,350.42,0.0,0.02
1526670986.16133904,79474031,-0.51,0.49,0.15,3346.79589844,-5.27,-4.97,0.0,354.38,0.0,0.01
1526670986.26129913,79573991,-0.83,-0.06,-0.09,3206.53979492,-5.28,-5.3,0.0,358.13,0.0,0.01
1526670986.36125898,79673951,-1.16,-0.65,-0.41,3069.13598633,-5.28,-5.49,0.0,1.24,0.0,0.01
1526670986.46121907,79773911,-1.36,-1.17,-0.75,2987.04150391,-5.31,-5.48,0.0,3.59,0.0,0.01
1526670986.56117916,79873871,-1.45,-1.5,-1.08,2936.9296875,-5.39,-5.4,0.0,5.15,0.0,0.01
1526670986.66113901,79973831,-1.43,-1.73,-1.33,2887.02978516,-5.52,-5.34,0.0,5.83,0.0,0.02
1526670986.76109910,80073791,-1.29,-1.84,-1.48,1260.15466309,-5.7,-5.38,0.0,5.7,0.0,0.02
1526670986.86105919,80173751,-1.05,-1.81,-1.51,1066.36694336,-5.91,-5.43,0.0,5.09,0.0,0.02
1526670986.96101904,80273711,-0.77,-1.59,-1.41,817.156433105,-6.15,-5.5,0.0,4.14,0.0,0.02
1526670987.06097913,80373671,-0.51,-1.26,-1.21,584.927856445,-6.38,-5.61,0.0,3.03,0.0,0.02
1526670987.16093898,80473631,-0.26,-0.9,-0.93,441.037475586,-6.64,-5.81,0.0,1.86,0.0,0.02
1526670987.26089907,80573591,-0.02,-0.54,-0.62,360.11315918,-6.91,-6.08,0.0,0.78,0.0,0.02
1526670987.36085916,80673551,0.14,-0.19,-0.3,319.838989258,-7.18,-6.41,0.0,359.91,0.0,0.01
1526670987.46081901,80773511,0.24,-0.01,-0.02,282.247314453,-7.44,-6.75,0.0,359.3,0.0,0.01
1526670987.56077909,80873471,0.27,0.1,0.19,251.351470947,-7.68,-7.03,0.0,358.91,0.0,0.01
1526670987.66073918,80973431,0.28,0.17,0.35,250.468765259,-7.94,-7.3,0.0,358.74,0.0,0.01
1526670987.76069903,81073391,0.25,0.26,0.42,257.958190918,-8.4,-7.53,0.0,358.78,0.0,0.01
1526670987.86149216,81174184,0.19,0.36,0.43,249.087997437,-8.96,-7.81,0.0,358.97,0.0,0.01
1526670987.96145201,81274144,0.11,0.4,0.38,229.800384521,-9.55,-8.2,0.0,359.23,0.0,0.01
1526670988.06141210,81374104,-0.01,0.41,0.29,216.275161743,-10.12,-8.69,0.0,359.53,0.0,0.01
1526670988.16137218,81474064,-0.18,0.4,0.15,225.769165039,-10.68,-9.25,0.0,359.78,0.0,0.01
1526670988.26133204,81574024,-0.33,0.34,0.0,270.615264893,-11.21,-9.84,0.0,359.95,0.0,0.01
1526670988.36129212,81673984,-0.5,0.2,-0.18,342.825317383,-11.7,-10.43,0.0,0.06,0.0,0.01
1526670988.46125197,81773944,-0.62,0.01,-0.37,411.735076904,-12.13,-10.99,0.0,0.22,0.0,0.01
1526670988.56121206,81873904,-0.74,-0.17,-0.54,469.374572754,-12.54,-11.53,0.0,0.37,0.0,0.01
1526670988.66117215,81973864,-0.82,-0.34,-0.69,513.603393555,-12.92,-12.0,0.0,0.53,0.0,0.01
1526670988.76113200,82073824,-0.89,-0.53,-0.82,542.51361084,-13.29,-12.44,0.0,0.69,0.0,0.01
1526670988.86109209,82173784,-0.91,-0.77,-0.91,540.377807617,-13.62,-12.8,0.0,0.81,0.0,0.01
1526670988.96105218,82273744,-0.9,-0.93,-0.96,519.563720703,-13.93,-13.1,0.0,0.8,0.0,0.01
1526670989.06101203,82373704,-0.86,-1.01,-0.98,497.157867432,-14.23,-13.4,0.0,0.72,0.0,0.01
1526670989.16097212,82473664,-0.78,-1.02,-0.96,477.363647461,-14.5,-13.72,0.0,0.52,0.0,0.01
1526670989.26093197,82573624,-0.64,-0.96,-0.9,459.727142334,-14.6,-13.98,0.0,0.28,0.0,0.01
1526670989.36089206,82673584,-0.51,-0.83,-0.8,6.3826084137,-14.63,-14.19,0.0,0.05,0.0,0.01
1526670989.46085215,82773544,-0.4,-0.75,-0.67,19.6135826111,-14.63,-14.33,0.0,359.94,0.0,0.01
1526670989.56081200,82873504,-0.35,-0.64,-0.54,41.3082008362,-14.63,-14.41,0.0,359.89,0.0,0.01
1526670989.66077209,82973464,-0.35,-0.53,-0.43,54.912109375,-14.62,-14.49,0.0,359.93,0.0,0.01
1526670989.76073217,83073424,-0.37,-0.43,-0.35,60.3566436768,-14.62,-14.56,0.0,359.99,0.0,0.0
1526670989.86069202,83173384,-0.37,-0.37,-0.3,56.0656547546,-14.65,-14.65,0.0,0.11,0.0,0.0
1526670989.96148515,83274177,-0.41,-0.37,-0.29,54.3997001648,-14.7,-14.77,0.0,0.23,0.0,0.01
1526670990.06144500,83374137,-0.46,-0.43,-0.3,60.3434524536,-14.73,-14.85,0.0,0.36,0.0,0.01
1526670990.16140509,83474097,-0.52,-0.54,-0.35,87.3488998413,-14.77,-14.89,0.0,0.49,0.0,0.01
1526670990.26136518,83574057,-0.56,-0.54,-0.41,109.341972351,-14.84,-14.97,0.0,0.56,0.0,0.01
1526670990.36132503,83674017,-0.58,-0.53,-0.48,105.601608276,-14.92,-15.05,0.0,0.6,0.0,0.01
1526670990.46128511,83773977,-0.57,-0.51,-0.53,96.6269760132,-14.88,-15.1,0.0,0.61,0.0,0.01
1526670990.56124496,83873937,-0.56,-0.53,-0.58,90.4585418701,-14.74,-15.13,0.0,0.56,0.0,0.01
1526670990.66120505,83973897,-0.56,-0.62,-0.6,84.4692230225,-14.55,-15.08,0.0,0.54,0.0,0.01
1526670990.76116514,84073857,-0.55,-0.71,-0.61,80.4361953735,-14.35,-15.03,0.0,0.51,0.0,0.01
1526670990.86112499,84173817,-0.55,-0.79,-0.61,86.4920959473,-14.13,-14.98,0.0,0.57,0.0,0.01
1526670990.96108508,84273777,-0.53,-0.87,-0.6,112.478721619,-13.91,-14.89,0.0,0.65,0.0,0.01
1526670991.06104517,84373737,-0.48,-0.97,-0.58,170.74987793,-13.66,-14.68,0.0,0.73,0.0,0.01
1526670991.16100502,84473697,-0.41,-1.0,-0.54,260.39541626,-13.41,-14.39,0.0,0.72,0.0,0.01
1526670991.26096511,84573657,-0.31,-0.97,-0.49,359.375823975,-13.15,-14.12,0.0,0.57,0.0,0.01
1526670991.36092496,84673617,-0.19,-0.93,-0.42,460.905029297,-12.9,-13.85,0.0,0.4,0.0,0.01
1526670991.46088505,84773577,-0.05,-0.87,-0.32,572.355041504,-12.65,-13.48,0.0,0.2,0.0,0.01
1526670991.56084514,84873537,0.04,-0.79,-0.21,690.566894531,-12.41,-13.06,0.0,0.05,0.0,0.01
1526670991.66080499,84973497,0.14,-0.64,-0.09,799.715270996,-12.2,-12.66,0.0,359.91,0.0,0.0
1526670991.76076508,85073457,0.21,-0.43,0.01,869.100219727,-11.97,-12.37,0.0,359.84,0.0,0.0
1526670991.86072516,85173417,0.24,-0.25,0.11,901.081237793,-11.78,-12.16,0.0,359.87,0.0,0.0
1526670991.96068501,85273377,0.27,-0.1,0.19,872.159851074,-11.58,-12.01,0.0,359.9,0.0,0.0
1526670992.06147814,85374170,0.25,-0.05,0.24,862.234008789,-11.35,-11.89,0.0,359.95,0.0,0.0
1526670992.16143799,85474130,0.18,-0.09,0.27,986.85168457,-11.08,-11.68,0.0,0.07,0.0,0.0
1526670992.26139808,85574090,0.12,-0.1,0.25,1096.04956055,-10.78,-11.47,0.0,0.17,0.0,0.0
1526670992.36135817,85674050,0.08,-0.07,0.2,1078.77575684,-10.45,-11.26,0.0,0.2,0.0,0.0
1526670992.46131802,85774010,0.07,-0.03,0.15,966.687255859,-10.08,-11.02,0.0,0.2,0.0,0.0
1526670992.56127810,85873970,0.02,-0.02,0.09,842.623352051,-9.63,-10.74,0.0,0.22,0.0,0.0
1526670992.66123796,85973930,-0.02,-0.1,0.03,744.398010254,-9.24,-10.38,0.0,0.21,0.0,0.0
1526670992.76119804,86073890,-0.07,-0.16,-0.02,677.18939209,-8.63,-10.0,0.0,0.18,0.0,0.0
1526670992.86115813,86173850,-0.08,-0.22,-0.07,624.541748047,-8.08,-9.54,0.0,0.11,0.0,0.0
1526670992.96111798,86273810,-0.08,-0.28,-0.11,589.869567871,-7.73,-8.98,0.0,0.09,0.0,0.0
1526670993.06107807,86373770,-0.09,-0.22,-0.13,552.672851562,-7.44,-8.49,0.0,0.09,0.0,0.0
1526670993.16103816,86473730,-0.1,-0.15,-0.14,508.593597412,-7.2,-8.09,0.0,0.08,0.0,0.0
1526670993.26099801,86573690,-0.11,-0.13,-0.15,469.915557861,-6.94,-7.75,0.0,0.09,0.0,0.0
1526670993.36095810,86673650,-0.09,-0.17,-0.14,436.533843994,-6.69,-7.41,0.0,0.1,0.0,0.0
1526670993.46091819,86773610,-0.05,-0.2,-0.13,408.73928833,-6.45,-7.13,0.0,0.04,0.0,0.0
1526670993.56087804,86873570,-0.03,-0.24,-0.11,388.950683594,-6.2,-6.86,0.0,0.0,0.0,0.0
1526670993.66083813,86973530,-0.02,-0.21,-0.08,376.516906738,-5.91,-6.57,0.0,0.0,0.0,0.0
1526670993.76079798,87073490,0.0,-0.16,-0.05,362.097442627,-5.56,-6.28,0.0,0.0,0.0,0.0
1526670993.86075807,87173450,0.04,-0.09,-0.02,346.523376465,-5.23,-6.01,0.0,0.0,0.0,0.0
1526670993.96071815,87273410,0.04,-0.02,0.0,330.139678955,-4.88,-5.74,0.0,0.03,0.0,0.0
1526670994.06067801,87373370,0.03,0.0,0.02,314.584655762,-4.46,-5.41,0.0,0.05,0.0,0.0
1526670994.16147113,87474163,0.0,0.0,0.03,300.643127441,-4.01,-5.05,0.0,0.11,0.0,0.0
1526670994.26143098,87574123,-0.02,-0.01,0.02,288.160003662,-3.49,-4.68,0.0,0.17,0.0,0.0
1526670994.36139107,87674083,-0.04,-0.03,0.01,276.954986572,-2.94,-4.22,0.0,0.2,0.0,0.0
1526670994.46135116,87774043,-0.02,-0.05,0.0,266.573791504,-2.32,-3.75,0.0,0.22,0.0,0.0
1526670994.56131101,87874003,0.0,-0.12,-0.01,110.935409546,0.41,-3.14,0.01,0.21,0.0,0.0
1526670994.66127110,87973963,0.05,-0.47,-0.01,687.269226074,5.77,-1.77,0.01,0.11,0.0,0.01
1526670994.76123118,88073923,0.1,-0.98,0.0,3067.24560547,9.06,0.9,0.01,0.07,0.0,0.02
1526670994.86119103,88173883,0.27,-1.14,0.03,6205.0546875,9.98,4.02,0.01,0.07,0.0,0.01
1526670994.96115112,88273843,0.47,-0.8,0.12,7567.52001953,9.77,6.6,0.01,0.14,0.0,0.0
1526670995.06111097,88373803,0.65,-0.13,0.25,7001.79833984,8.82,8.21,0.01,0.27,0.0,0.0
1526670995.16107106,88473763,0.73,0.58,0.41,5900.38720703,7.44,8.8,0.01,0.35,0.0,0.01
1526670995.26103115,88573723,0.75,1.22,0.55,5364.41357422,5.86,8.51,0.01,0.38,0.0,0.01
1526670995.36099100,88673683,0.65,1.64,0.66,5585.28173828,4.25,7.63,0.01,0.41,0.0,0.01
1526670995.46095109,88773643,0.47,1.84,0.69,6240.60253906,2.69,6.38,0.01,0.42,0.0,0.0
1526670995.56091118,88873603,0.23,1.8,0.64,6958.61523438,1.34,4.94,0.01,0.42,0.0,0.0
1526670995.66087103,88973563,0.0,1.6,0.51,7473.49365234,0.26,3.48,0.01,0.43,0.0,0.0
1526670995.76083112,89073523,-0.23,1.24,0.32,7683.52246094,-0.58,2.13,0.01,0.44,0.0,0.0
1526670995.86079097,89173483,-0.43,0.86,0.08,7630.11474609,-1.18,1.03,0.01,0.38,0.0,0.0
1526670995.96075106,89273443,-0.54,0.49,-0.15,7451.41748047,-1.56,0.18,0.01,0.32,0.0,0.0
1526670996.06071115,89373403,-0.6,0.19,-0.37,7196.09326172,-1.73,-0.44,0.01,0.25,0.0,0.0
1526670996.16150403,89474196,-0.63,-0.05,-0.55,6929.36962891,-1.79,-0.99,0.01,0.25,0.0,0.0
1526670996.26146412,89574156,-0.6,-0.27,-0.67,6647.03662109,-1.76,-1.38,0.01,0.29,0.0,0.0
1526670996.36142397,89674116,-0.54,-0.46,-0.72,6340.92724609,-1.63,-1.61,0.01,0.33,0.0,0.0
1526670996.46138406,89774076,-0.4,-0.59,-0.7,6027.19433594,-1.39,-1.64,0.01,0.32,0.0,0.0
1526670996.56134415,89874036,-0.24,-0.63,-0.62,5728.1171875,-1.17,-1.55,0.01,0.3,0.0,0.0
1526670996.66130400,89973996,-0.12,-0.65,-0.48,5460.29248047,-0.93,-1.39,0.01,0.28,0.0,0.0
1526670996.76126409,90073956,0.01,-0.59,-0.32,5234.17382812,-0.71,-1.17,0.01,0.25,0.0,0.0
1526670996.86122417,90173916,0.15,-0.47,-0.15,5045.93066406,-0.49,-0.97,0.01,0.21,0.0,0.0
1526670996.96118402,90273876,0.3,-0.34,0.02,4883.59716797,-0.3,-0.78,0.01,0.22,0.0,0.0
1526670997.06114411,90373836,0.41,-0.19,0.19,4743.64404297,-0.13,-0.61,0.01,0.25,0.0,0.0
1526670997.16110396,90473796,0.52,-0.05,0.35,1608.47802734,0.03,-0.4,0.01,0.27,0.0,0.0
1526670997.26106405,90573756,0.64,0.1,0.48,1574.83361816,0.22,-0.22,0.01,0.31,0.0,0.0
1526670997.36102414,90673716,0.72,0.21,0.6,1557.01635742,0.36,-0.08,0.01,0.36,0.0,0.0
1526670997.46098399,90773676,0.74,0.32,0.7,1550.57507324,0.44,0.07,0.01,0.36,0.0,0.0
1526670997.56094408,90873636,0.76,0.45,0.76,1460.34716797,0.51,0.17,0.01,0.35,0.0,0.0
1526670997.66090417,90973596,0.72,0.54,0.79,1334.4967041,0.53,0.32,0.01,0.32,0.0,0.0
1526670997.76086402,91073556,0.68,0.6,0.78,1195.85717773,0.53,0.41,0.01,0.3,0.0,0.0
1526670997.86082411,91173516,0.65,0.64,0.75,1059.4206543,0.56,0.45,0.01,0.22,0.0,0.0
1526670997.96078396,91273476,0.6,0.67,0.71,936.612731934,0.56,0.46,0.01,0.14,0.0,0.0
1526670998.06074405,91373436,0.53,0.69,0.65,833.390380859,0.57,0.42,0.01,0.15,0.0,0.0
1526670998.16070414,91473396,0.47,0.69,0.58,756.121276855,0.58,0.43,0.01,0.19,0.0,0.0
1526670998.26149702,91574189,0.44,0.69,0.51,708.765991211,0.54,0.53,0.01,0.22,0.0,0.0
1526670998.36145711,91674149,0.44,0.63,0.45,677.092407227,0.52,0.62,0.01,0.23,0.0,0.0
1526670998.46141696,91774109,0.38,0.61,0.4,652.031066895,0.53,0.66,0.01,0.31,0.0,0.0
1526670998.56137705,91874069,0.34,0.56,0.36,635.131530762,0.51,0.68,0.01,0.4,0.0,0.0
1526670998.66133714,91974029,0.3,0.5,0.32,612.817016602,0.48,0.69,0.01,0.47,0.0,0.0
1526670998.76129699,92073989,0.27,0.5,0.29,598.356994629,0.46,0.68,0.01,0.49,0.0,0.0
1526670998.86125708,92173949,0.22,0.48,0.26,589.736999512,0.46,0.64,0.01,0.48,0.0,0.0
1526670998.96121716,92273909,0.2,0.45,0.23,581.53137207,0.44,0.55,0.01,0.51,0.0,0.0
1526670999.06117702,92373869,0.2,0.45,0.21,577.33215332,0.44,0.47,0.01,0.46,0.0,0.0
1526670999.16113710,92473829,0.17,0.47,0.19,579.462646484,0.45,0.45,0.01,0.35,0.0,0.0
1526670999.26109695,92573789,0.12,0.5,0.18,593.574401855,0.46,0.42,0.01,0.24,0.0,0.0
1526670999.36105704,92673749,0.06,0.44,0.15,609.738647461,0.5,0.38,0.01,0.11,0.0,0.0
1526670999.46101713,92773709,0.0,0.35,0.12,612.211303711,0.54,0.44,0.01,0.05,0.0,0.0
1526670999.56097698,92873669,-0.01,0.22,0.08,602.68170166,0.59,0.54,0.01,0.06,0.0,0.0
1526670999.66093707,92973629,-0.03,0.07,0.04,581.686523438,0.59,0.67,0.01,0.05,0.0,0.0
1526670999.76089716,93073589,0.0,-0.04,0.01,29.2183208466,0.58,0.7,0.01,0.1,0.0,0.0
1526670999.86085701,93173549,0.03,-0.11,0.0,73.6958389282,0.5,0.67,0.01,0.12,0.0,0.0
1526670999.96081710,93273509,0.1,-0.13,0.0,109.277839661,0.46,0.64,0.01,0.12,0.0,0.0
1526671000.06077719,93373469,0.2,-0.1,0.04,138.504516602,0.48,0.65,0.01,0.12,0.0,0.0
1526671000.16073704,93473429,0.29,-0.06,0.09,155.188186646,0.51,0.63,0.01,0.06,0.0,0.0
1526671000.26069713,93573389,0.34,-0.04,0.17,192.774719238,0.52,0.61,0.01,359.92,0.0,0.0
1526671000.36149001,93674182,0.41,0.0,0.25,259.932678223,0.55,0.58,0.01,359.76,0.0,0.0
1526671000.46145010,93774142,0.42,0.03,0.33,339.082244873,0.6,0.57,0.01,359.6,0.0,0.0
1526671000.56141019,93874102,0.43,0.07,0.4,422.730529785,0.63,0.58,0.01,359.51,0.0,0.0
1526671000.66137004,93974062,0.45,0.1,0.44,502.7449646,0.62,0.58,0.01,359.44,0.0,0.0
1526671000.76133013,94074022,0.46,0.14,0.48,573.118469238,0.65,0.58,0.01,359.41,0.0,0.0
1526671000.86128998,94173982,0.47,0.18,0.49,617.605224609,0.66,0.56,0.01,359.45,0.0,0.0
1526671000.96125007,94273942,0.47,0.21,0.5,645.677001953,0.69,0.58,0.01,359.49,0.0,0.0
1526671001.06121016,94373902,0.45,0.28,0.5,650.33190918,0.73,0.62,0.01,359.66,0.0,0.0
1526671001.16117001,94473862,0.42,0.37,0.48,627.522888184,0.76,0.68,0.01,359.84,0.0,0.0
